Time,header.seq,header.stamp.secs,header.stamp.nsecs,header.frame_id,twist.linear.x,twist.linear.y,twist.linear.z,twist.angular.x,twist.angular.y,twist.angular.z
1668680447.3922017,14203,1668680447,392028448,,-1.4508906498614715e-05,1.5038330927332751e-09,-9.509838908969073e-12,1.3180604694835925e-06,-4.132362569900826e-07,-5.574121243785436e-09
1668680447.399555,14204,1668680447,399464634,,-1.338796166660271e-05,1.4656417272515594e-09,-9.300676866872017e-12,1.305902630813944e-06,-4.065879208471101e-07,-5.4964101925582135e-09
1668680447.4078817,14205,1668680447,407750388,,-1.2329177571541748e-05,1.4276171296113991e-09,-9.08646586691277e-12,1.293674119292496e-06,-3.999403042351924e-07,-5.418612301209309e-09
1668680447.4160364,14206,1668680447,415896998,,-1.1329731234124834e-05,1.3898165330822519e-09,-8.8681834808984e-12,1.2813770612070524e-06,-3.9329425227802466e-07,-5.340738219561896e-09
1668680447.42356,14207,1668680447,423313986,,-1.038690567868899e-05,1.3522928094316268e-09,-8.646791486756483e-12,1.2690135747303306e-06,-3.8665060319291673e-07,-5.262798514951689e-09
1668680447.4315572,14208,1668680447,431434666,,-9.498086917050042e-06,1.3150942005096584e-09,-8.423113692714016e-12,1.2565857697058905e-06,-3.800101882399137e-07,-5.1848036920746255e-09
1668680447.4402876,14209,1668680447,440184539,,-8.660760967455854e-06,1.2782652793314125e-09,-8.197990510396578e-12,1.2440957474684257e-06,-3.73373831667479e-07,-5.106764169950952e-09
1668680447.4485571,14210,1668680447,448383123,,-7.872510911885046e-06,1.2418464413815644e-09,-7.972120081234712e-12,1.2315456006091147e-06,-3.667423506600744e-07,-5.0286902951457175e-09
1668680447.4561603,14211,1668680447,456021403,,-7.131013994159985e-06,1.2058745620001053e-09,-7.746134596443747e-12,1.2189374128075664e-06,-3.601165552974653e-07,-4.950592326012266e-09
1668680447.464918,14212,1668680447,464597601,,-6.434038761922527e-06,1.1703828922149857e-09,-7.520715030084242e-12,1.2062732586293012e-06,-3.5349724850640125e-07,-4.872480458414932e-09
1668680447.4725785,14213,1668680447,472424886,,-5.779442254113364e-06,1.135401403479665e-09,-7.29635796635958e-12,1.1935552033274686e-06,-3.4688522600700967e-07,-4.794364795522154e-09
1668680447.479726,14214,1668680447,479562985,,-5.165167236138827e-06,1.1009569703272263e-09,-7.073578594266543e-12,1.1807853026591503e-06,-3.4028127627825085e-07,-4.716255368108157e-09
1668680447.4879446,14215,1668680447,487803085,,-4.589239484450298e-06,1.0670733489692893e-09,-6.852792933232545e-12,1.167965602686145e-06,-3.336861805027373e-07,-4.638162116237561e-09
1668680447.4955,14216,1668680447,495288959,,-4.049765122034235e-06,1.0337716523999967e-09,-6.634428515659117e-12,1.1550981396120826e-06,-3.271007125375732e-07,-4.560094915139696e-09
1668680447.5038042,14217,1668680447,503703575,,-3.5449280055718146e-06,1.0010702418127708e-09,-6.418844873230849e-12,1.142184939580651e-06,-3.205256388677209e-07,-4.482063550458301e-09
1668680447.511894,14218,1668680447,511750445,,-3.0729871661674104e-06,9.689851211909124e-10,-6.206376752383697e-12,1.1292280185071867e-06,-3.1396171856465813e-07,-4.404077726925984e-09
1668680447.5198605,14219,1668680447,519670703,,-2.6322743037336595e-06,9.375298365098432e-10,-5.997271225529739e-12,1.116229381896602e-06,-3.074097032478171e-07,-4.326147067058102e-09
1668680447.5279994,14220,1668680447,527825803,,-2.221191336037698e-06,9.067157950741838e-10,-5.7917804179922975e-12,1.1031910246790908e-06,-3.0087033705246313e-07,-4.248281105009652e-09
1668680447.5357606,14221,1668680447,535592691,,-1.8382080029290556e-06,8.765522595017791e-10,-5.590092837887911e-12,1.0901149310224072e-06,-2.9434435658775966e-07,-4.170489298672596e-09
1668680447.5433602,14222,1668680447,543218277,,-1.4818595261082335e-06,8.470466719041665e-10,-5.392413932037974e-12,1.077003074186221e-06,-2.878324909096671e-07,-4.0927810112727995e-09
1668680447.5518985,14223,1668680447,551791001,,-1.1507443245131024e-06,8.18204652110146e-10,-5.1989546531290066e-12,1.06385741634543e-06,-2.813354614863965e-07,-4.0151655252615844e-09
1668680447.5600448,14224,1668680447,559830063,,-8.435217857909868e-07,7.900301886749805e-10,-5.0098011829051856e-12,1.0506799084143022e-06,-2.748539821550127e-07,-3.937652042209849e-09
1668680447.5679767,14225,1668680447,567819303,,-5.589100933458721e-07,7.625256786565689e-10,-4.825051723852047e-12,1.0374724899099758e-06,-2.6838875910347813e-07,-3.860249674360503e-09
1668680447.5757625,14226,1668680447,575624157,,-2.9568410920617697e-07,7.356919650540841e-10,-4.644798629155392e-12,1.0242370887755929e-06,-2.619404908315637e-07,-3.782967446748272e-09
1668680447.5834165,14227,1668680447,583291709,,-5.267331240510206e-08,7.095286184023398e-10,-4.4691051214827155e-12,1.0109756212352589e-06,-2.555098681310413e-07,-3.7058143012334973e-09
1668680447.591627,14228,1668680447,591514983,,1.7124020756722697e-07,6.840340870395536e-10,-4.298031777302297e-12,9.976899916418149e-07,-2.490975740544704e-07,-3.6287990939082377e-09
1668680447.5996232,14229,1668680447,599495068,,3.77123702556352e-07,6.592055622360914e-10,-4.131585611916171e-12,9.843820923243112e-07,-2.4270428388735293e-07,-3.5519305802951404e-09
1668680447.6077716,14230,1668680447,607631281,,5.659956631370468e-07,6.350390736985261e-10,-3.9697416746976434e-12,9.710538034452178e-07,-2.3633066512932303e-07,-3.4752174358864793e-09
1668680447.615582,14231,1668680447,615388339,,7.388276622983067e-07,6.115299338433827e-10,-3.812548458837868e-12,9.577069928467012e-07,-2.299773774597013e-07,-3.39866824534974e-09
1668680447.6238425,14232,1668680447,623617156,,8.965461460926271e-07,5.886723804901964e-10,-3.6599750781520205e-12,9.443435159320963e-07,-2.2364507272851351e-07,-3.3222915085612335e-09
1668680447.6318128,14233,1668680447,631659649,,1.0400341717967393e-06,5.664599055890476e-10,-3.5120444170752674e-12,9.309652155014095e-07,-2.1733439492306123e-07,-3.2460956279943054e-09
1668680447.6396954,14234,1668680447,639582768,,1.1701330941864421e-06,5.448851747819448e-10,-3.368709247551537e-12,9.175739216296522e-07,-2.110459801562985e-07,-3.1700889288035454e-09
1668680447.648068,14235,1668680447,647948230,,1.2876442009863885e-06,5.23940337011256e-10,-3.2298682825401096e-12,9.041714515201008e-07,-2.0478045664153658e-07,-3.094279642156556e-09
1668680447.655649,14236,1668680447,655482068,,1.3933302982278805e-06,5.036167895492833e-10,-3.095534930114065e-12,8.907596094008848e-07,-1.9853844468181567e-07,-3.0186758946780156e-09
1668680447.6636767,14237,1668680447,663528235,,1.4879172458126446e-06,4.839055096176578e-10,-2.9655750634611345e-12,8.773401863638849e-07,-1.923205566422833e-07,-2.9432857350520187e-09
1668680447.671732,14238,1668680447,671577749,,1.572095445185583e-06,4.647970586120031e-10,-2.8400132735681225e-12,8.639149602760582e-07,-1.8612739694937826e-07,-2.868117117080147e-09
1668680447.67977,14239,1668680447,679609608,,1.6465212790399332e-06,4.4628144934517444e-10,-2.7187089344924557e-12,8.504856956224148e-07,-1.7995956206521802e-07,-2.7931779046311057e-09
1668680447.6876602,14240,1668680447,687513643,,1.7118185044181832e-06,4.2834829787092546e-10,-2.6015748889805747e-12,8.37054143403108e-07,-1.7381764047695347e-07,-2.7184758739548182e-09
1668680447.69587,14241,1668680447,695636742,,1.7685796003261486e-06,4.1098690860751235e-10,-2.488583582891998e-12,8.236220410184267e-07,-1.6770221268591622e-07,-2.6440187016926743e-09
1668680447.7036073,14242,1668680447,703494122,,1.8173670702517409e-06,3.9418635281368136e-10,-2.3796255596833865e-12,8.101911121438608e-07,-1.6161385119800544e-07,-2.569813972930696e-09
1668680447.7118504,14243,1668680447,711654408,,1.8587147010162837e-06,3.7793551356326825e-10,-2.2746119611138796e-12,7.967630666390669e-07,-1.5555312051195757e-07,-2.4958691864591883e-09
1668680447.7199686,14244,1668680447,719667059,,1.8931287789674509e-06,3.622229630075637e-10,-2.173459319776347e-12,7.833396004090613e-07,-1.4952057711158238e-07,-2.422191741303646e-09
1668680447.728236,14245,1668680447,728088871,,1.9210892640862776e-06,3.4703720545364077e-10,-2.0760550310860483e-12,7.699223953217613e-07,-1.4351676945427696e-07,-2.3487889474151547e-09
1668680447.7357342,14246,1668680447,735547089,,1.9430509234109482e-06,3.323665726018358e-10,-1.982311129342108e-12,7.565131190942108e-07,-1.3754223797177328e-07,-2.2756680173186474e-09
1668680447.7436051,14247,1668680447,743444186,,1.9594444244279067e-06,3.1819934625771124e-10,-1.8920939887564277e-12,7.431134251889175e-07,-1.315975150544725e-07,-2.202836082312409e-09
1668680447.7518775,14248,1668680447,751634155,,1.9706773898706335e-06,3.04523570186557e-10,-1.8053957569559166e-12,7.297249527304778e-07,-1.2568312505655592e-07,-2.1303001636795445e-09
1668680447.7597175,14249,1668680447,759569811,,1.9771354144640923e-06,2.9132753410391446e-10,-1.7220609022358887e-12,7.163493263909777e-07,-1.197995842885027e-07,-2.058067200161068e-09
1668680447.7677884,14250,1668680447,767606472,,1.9791830446779427e-06,2.785992608664805e-10,-1.6419555328587327e-12,7.029881562972924e-07,-1.1394740101344905e-07,-1.9861440350365335e-09
1668680447.7759113,14251,1668680447,775744539,,1.9771647229284337e-06,2.663269381447873e-10,-1.5650752558610637e-12,6.896430379639067e-07,-1.0812707545357188e-07,-1.9145374126118134e-09
1668680447.7838624,14252,1668680447,783672633,,1.971405696472449e-06,2.544988502227891e-10,-1.4912645681123987e-12,6.76315552179861e-07,-1.0233909978143218e-07,-1.8432539847209222e-09
1668680447.7921863,14253,1668680447,791933804,,1.9622128924803234e-06,2.431031784211714e-10,-1.4204138094571299e-12,6.630072649291847e-07,-9.658395811908346e-08,-1.7723003221105633e-09
1668680447.799861,14254,1668680447,799679137,,1.949875760285612e-06,2.3212825553988611e-10,-1.3524692574031845e-12,6.497197273198597e-07,-9.086212654842268e-08,-1.7016828785411788e-09
1668680447.8078058,14255,1668680447,807636835,,1.9346670812236347e-06,2.2156244408871747e-10,-1.287274734456177e-12,6.364544754823072e-07,-8.517407310667698e-08,-1.63140802742663e-09
1668680447.815573,14256,1668680447,815339103,,1.916843747631986e-06,2.113943254254546e-10,-1.2248022959903295e-12,6.232130305119651e-07,-7.952025779942923e-08,-1.5614820452586095e-09
1668680447.823799,14257,1668680447,823663775,,1.8966475115705856e-06,2.0161260003130128e-10,-1.16495040465727e-12,6.099968983872768e-07,-7.39011325952025e-08,-1.4919111183960344e-09
1668680447.8316548,14258,1668680447,831500949,,1.874305704191766e-06,1.9220599578730104e-10,-1.107608048170248e-12,5.968075698867321e-07,-6.831714143709033e-08,-1.4227013291741288e-09
1668680447.8398693,14259,1668680447,839745865,,1.8500319267053797e-06,1.831634573591864e-10,-1.0527342550610619e-12,5.836465205385556e-07,-6.27687202492452e-08,-1.3538586791457375e-09
1668680447.84783,14260,1668680447,847651287,,1.8240267139828685e-06,1.7447404669591e-10,-1.000215663728669e-12,5.70515210525752e-07,-5.725629693997084e-08,-1.285389063611469e-09
1668680447.855684,14261,1668680447,855515783,,1.796478171319259e-06,1.661269610019201e-10,-9.499510648582316e-13,5.574150846476646e-07,-5.1780291419082456e-08,-1.2172982781609075e-09
1668680447.8662698,14262,1668680447,864459116,,1.7675625855115077e-06,1.5811171353577298e-10,-9.019052226075121e-13,5.443475722506375e-07,-4.6341115600907717e-08,-1.1495920378439326e-09
1668680447.8723705,14263,1668680447,872012839,,1.7374450109117648e-06,1.5041780719595724e-10,-8.559804477146962e-13,5.313140871493443e-07,-4.093917341732082e-08,-1.0822759561011986e-09
1668680447.88006,14264,1668680447,879868748,,1.7062798314001425e-06,1.4303511861386696e-10,-8.120490047450261e-13,5.183160275843957e-07,-3.5574860825352233e-08,-1.0153555517690973e-09
1668680447.887664,14265,1668680447,887543693,,1.6742112989647245e-06,1.3595359451663752e-10,-7.700924286558488e-13,5.053547761767948e-07,-3.024856583044117e-08,-9.48836252553863e-10
1668680447.8963969,14266,1668680447,896253158,,1.6413740496275551e-06,1.2916346514036167e-10,-7.300182946458035e-13,4.924316998612827e-07,-2.4960668489953762e-08,-8.827233928110757e-10
1668680447.9034877,14267,1668680447,903289542,,1.6078935976905644e-06,1.22655057319818e-10,-6.917277586963202e-13,4.795481498267257e-07,-1.9711540926030698e-08,-8.17022211720306e-10
1668680447.911568,14268,1668680447,911460812,,1.573886808940804e-06,1.1641897841658888e-10,-6.551879584191227e-13,4.6670546148901195e-07,-1.4501547347990276e-08,-7.517378474973376e-10
1668680447.9197834,14269,1668680447,919575069,,1.5394623534477308e-06,1.104459570271858e-10,-6.203275219989599e-13,4.5390495443721446e-07,-9.331044069378834e-09,-6.868753453655955e-10
1668680447.9277542,14270,1668680447,927639193,,1.50472113866808e-06,1.0472702494162485e-10,-5.870841560893199e-13,4.411479323836285e-07,-4.200379516775936e-09,-6.224396624575014e-10
1668680447.9356644,14271,1668680447,935526005,,1.469756723893063e-06,9.925341079287795e-11,-5.55356032785641e-13,4.2843568312689925e-07,8.901057452220226e-10,-5.584356625704932e-10
1668680447.943905,14272,1668680447,943773088,,1.4346557162096323e-06,9.401649696483648e-11,-5.251076276181176e-13,4.1576947851977286e-07,5.940079000715598e-09,-4.948681124146689e-10
1668680447.9516711,14273,1668680447,951517683,,1.3994981490166843e-06,8.900794420077761e-11,-4.962754617351702e-13,4.031505744230628e-07,1.0949215355298432e-08,-4.317416837024166e-10
1668680447.9595804,14274,1668680447,959477151,,1.364357843564457e-06,8.42195324882123e-11,-4.687635091281136e-13,3.9058021068127883e-07,1.5917197724147097e-08,-3.6906095033965386e-10
1668680447.967714,14275,1668680447,967601187,,1.3293027541155964e-06,7.96433979280035e-11,-4.425279394439661e-13,3.7805961108310823e-07,2.084371680416093e-08,-3.0683040608265236e-10
1668680447.9757845,14276,1668680447,975583502,,1.2943952975659328e-06,7.52717305206938e-11,-4.1753531303636526e-13,3.6558998333830234e-07,2.572847105129677e-08,-2.450544397199729e-10
1668680447.9835615,14277,1668680447,983341734,,1.2596926677689858e-06,7.109704363677647e-11,-3.9376175962438434e-13,3.531725190478358e-07,3.057116666366945e-08,-1.837373547215122e-10
1668680447.991801,14278,1668680447,991657786,,1.2252471354662306e-06,6.711198392232367e-11,-3.7110325183062634e-13,3.4080839367671975e-07,3.537151755260288e-08,-1.2288335059784864e-10
1668680447.999849,14279,1668680447,999698777,,1.191106334071286e-06,6.33094301625556e-11,-3.495291684961372e-13,3.284987665349744e-07,4.012924532345899e-08,-6.249654986045409e-11
1668680448.0082853,14280,1668680448,8070639,,1.1573135323199261e-06,5.968250211463028e-11,-3.2903194398387706e-13,3.1624478076186316e-07,4.484407924159547e-08,-2.5809644313317987e-12
1668680448.0158112,14281,1668680448,15601681,,1.123907893488423e-06,5.622445912137802e-11,-3.0953968139546603e-13,3.0404756329045064e-07,4.951575621722043e-08,5.6859467364513713e-11
1668680448.0241132,14282,1668680448,23898519,,1.0909247228843802e-06,5.29287437225654e-11,-2.909897421999548e-13,2.919082248528448e-07,5.414402076490176e-08,1.1582091688225668e-10
1668680448.0318978,14283,1668680448,31785399,,1.0583957026867233e-06,4.9789049141705226e-11,-2.7340671465542797e-13,2.7982785996165556e-07,5.87286249894242e-08,1.7429963074992475e-10
1668680448.0404475,14284,1668680448,40098878,,1.0263491159784526e-06,4.6799271877688986e-11,-2.5667301271298394e-13,2.6780754688003336e-07,6.326932855090971e-08,2.3229195967535423e-10
1668680448.047785,14285,1668680448,47583056,,9.948100593721454e-07,4.395349545860511e-11,-2.4078663208196886e-13,2.5584834764532755e-07,6.776589863486827e-08,2.897943398923569e-10
1668680448.0564983,14286,1668680448,56216213,,9.638006453905835e-07,4.1245893370335805e-11,-2.2569449657633384e-13,2.439513080347763e-07,7.22181099207716e-08,3.4680329587906053e-10
1668680448.0641768,14287,1668680448,63859807,,9.333401945392448e-07,3.86708313761025e-11,-2.1132734284397144e-13,2.321174575643552e-07,7.662574456064686e-08,4.033154448022907e-10
1668680448.0719922,14288,1668680448,71795026,,9.034454179226773e-07,3.622304377789001e-11,-1.9776184678021e-13,2.2034780950413922e-07,8.098859213378533e-08,4.593274978272955e-10
1668680448.079665,14289,1668680448,79567166,,8.741305903057705e-07,3.389716593628729e-11,-1.8482911407972165e-13,2.086433608509806e-07,8.530644962685617e-08,5.148362534941597e-10
1668680448.0878341,14290,1668680448,87658736,,8.454077145793691e-07,3.168828970881091e-11,-1.7256891134698373e-13,1.9700509235672067e-07,8.957912139445039e-08,5.698386042920509e-10
1668680448.0955079,14291,1668680448,95307756,,8.1728667754454e-07,2.959143418038049e-11,-1.6095290585532006e-13,1.854339685096808e-07,9.380641912928306e-08,6.243315276688119e-10
1668680448.1037714,14292,1668680448,103651406,,7.8977539765181e-07,2.7601907377563685e-11,-1.4995512938806828e-13,1.7393093755980464e-07,9.79881618226692e-08,6.78312090209586e-10
1668680448.1117504,14293,1668680448,111604354,,7.628799647435778e-07,2.5715146282026466e-11,-1.3956547546674536e-13,1.6249693151021113e-07,1.0212417573650517e-07,7.317774404012495e-10
1668680448.1198077,14294,1668680448,119607291,,7.36604772791889e-07,2.3926788650363737e-11,-1.2970972440499125e-13,1.5113286612924693e-07,1.0621429436203006e-07,7.847248317858461e-10
1668680448.1277924,14295,1668680448,127658186,,7.109526450250759e-07,2.223254745557942e-11,-1.2037101682190654e-13,1.398396409650354e-07,1.1025835838962291e-07,8.371515971226934e-10
1668680448.13583,14296,1668680448,135639448,,6.859249525825479e-07,2.062836912950556e-11,-1.1155104315645999e-13,1.2861813936902837e-07,1.1425621566605159e-07,8.890551530889926e-10
1668680448.1438475,14297,1668680448,143734667,,6.615217264387023e-07,1.9110278013139562e-11,-1.0321380686865518e-13,1.1746922848809003e-07,1.1820772116506838e-07,9.404330131202123e-10
1668680448.152046,14298,1668680448,151852609,,6.377417633431656e-07,1.7674424880440585e-11,-9.531601242097393e-14,1.0639375930269929e-07,1.221127369419016e-07,9.912827701896974e-10
1668680448.159923,14299,1668680448,159803927,,6.145827255682437e-07,1.631721370383753e-11,-8.783502245770863e-14,9.539256664354603e-08,1.2597113209642998e-07,1.0416021034504657e-09
1668680448.167856,14300,1668680448,167666623,,5.920412353833319e-07,1.5035062399688725e-11,-8.080484384568716e-14,8.446646920404406e-08,1.2978278273262894e-07,1.091388786247293e-09
1668680448.1761541,14301,1668680448,175880445,,5.701129636446984e-07,1.3824593342188123e-11,-7.413707475371956e-14,7.361626956554149e-08,1.3354757192405932e-07,1.1406406663898449e-09
1668680448.183559,14302,1668680448,183447302,,5.487927136968634e-07,1.2682507508559831e-11,-6.787707421543667e-14,6.284275423393173e-08,1.3726538966909341e-07,1.1893556864236575e-09
1668680448.192064,14303,1668680448,191868530,,5.280745001120043e-07,1.1605660319277756e-11,-6.197767630379356e-14,5.2146693646543586e-08,1.409361328522455e-07,1.2375318769114723e-09
1668680448.1997495,14304,1668680448,199613931,,5.079516227248333e-07,1.0590994532309737e-11,-5.638529429352091e-14,4.152884221760592e-08,1.445597052024017e-07,1.2851673421003797e-09
1668680448.207758,14305,1668680448,207582045,,4.88416736513824e-07,9.635670136039794e-12,-5.109518207566732e-14,3.098993836765405e-08,1.4813601724783147e-07,1.3322602757866403e-09
1668680448.2154868,14306,1668680448,215284552,,4.694619168706159e-07,8.736773216322702e-12,-4.615436815102039e-14,2.0530704548302987e-08,1.5166498628033186e-07,1.37880895745385e-09
1668680448.2239697,14307,1668680448,223706938,,4.510787210816579e-07,7.891677750540311e-12,-4.1500101924509956e-14,1.0151847277092525e-08,1.5514653630586735e-07,1.4248117465040104e-09
1668680448.2317648,14308,1668680448,231633403,,4.332582460239798e-07,7.0978309493075165e-12,-3.713972973779724e-14,-1.4594281641273912e-10,1.5858059800051826e-07,1.4702670953653633e-09
1668680448.2397828,14309,1668680448,239647804,,4.159911819023173e-07,6.35272002157855e-12,-3.3032160771888425e-14,-1.036199096276755e-08,1.6196710867208478e-07,1.5151735200623374e-09
1668680448.2477963,14310,1668680448,247698679,,3.9926786286783187e-07,5.653951101554513e-12,-2.920808485644913e-14,-2.049563821285984e-08,1.6530601221487426e-07,1.5595296339062832e-09
1668680448.2557585,14311,1668680448,255606100,,3.830783142546132e-07,4.999294485834721e-12,-2.5630771927906857e-14,-3.054624139385301e-08,1.6859725905618181e-07,1.6033341194714943e-09
1668680448.26355,14312,1668680448,263331754,,3.6741229661556833e-07,4.386507247111742e-12,-2.224252609022052e-14,-4.0513173071982454e-08,1.7184080612038233e-07,1.6465857583870498e-09
1668680448.272659,14313,1668680448,272444896,,5.469482908933119e-07,1.834938240036041e-07,-1.9715083294927333e-14,-5.0395821950656426e-08,1.750366166727219e-07,1.6892833941035758e-09
1668680448.2804112,14314,1668680448,280296208,,1.29528516304123e-06,9.025920022342043e-07,-2.715855897195654e-14,-6.019359290068765e-08,1.7818466019592247e-07,1.7314259580043059e-09
1668680448.288878,14315,1668680448,288542868,,2.955376609302061e-06,2.4805354346047267e-06,-9.366890468773646e-14,-6.990590676891812e-08,1.8128491250871173e-07,1.7730124585599895e-09
1668680448.2965837,14316,1668680448,296351368,,5.841273524272544e-06,5.213320676671127e-06,-3.6426915672625357e-13,-7.953220089989607e-08,1.843373559383796e-07,1.8140419859981606e-09
1668680448.304223,14317,1668680448,304069349,,1.0239785697066005e-05,9.37127054256202e-06,-1.1504938349782182e-12,-8.907192987550016e-08,1.8734197957231786e-07,1.8545137133004137e-09
1668680448.3117301,14318,1668680448,311607598,,1.6412065938172828e-05,1.520052722597551e-05,-3.0066531351633005e-12,-9.852456634603448e-08,1.9029877953018394e-07,1.894426885039991e-09
1668680448.3205996,14319,1668680448,320294759,,2.459511964503067e-05,2.2924475147363013e-05,-6.8055887954017426e-12,-1.078896019248662e-07,1.9320775926050624e-07,1.9337808196408202e-09
1668680448.3283272,14320,1668680448,328041688,,3.500324272405172e-05,3.27450962680379e-05,-1.3809248547690838e-11,-1.1716654807140811e-07,1.9606892982491222e-07,1.9725749147574438e-09
1668680448.3358355,14321,1668680448,335619070,,4.782939069605565e-05,4.4844260528259684e-05,-2.5730100981658932e-11,-1.2635493695426888e-07,1.9888231019028035e-07,2.010808648841183e-09
1668680448.3438008,14322,1668680448,343589997,,6.324648172424221e-05,5.938495398531962e-05,-4.478167398782351e-11,-1.3545432224146582e-07,2.016479274778869e-07,2.048481573984403e-09
1668680448.3517754,14323,1668680448,351652212,,8.140863621710588e-05,7.65124471494567e-05,-7.371643957338652e-11,-1.444642798153054e-07,2.0436581718728077e-07,2.085593317580699e-09
1668680448.3597631,14324,1668680448,359605149,,0.00010245235557350894,9.635540593508987e-05,-1.1585044840234964e-10,-1.5338440836723502e-07,2.0703602339504156e-07,2.1221435778627246e-09
1668680448.3677683,14325,1668680448,367603557,,0.00012649764255439778,0.00011902694756800035,-1.7507469282476705e-10,-1.622143299140141e-07,2.0965859890273578e-07,2.1581321250473823e-09
1668680448.3759103,14326,1668680448,375772246,,0.00015364906568377445,0.00014462564371426874,-2.5585370883903e-10,-1.7095369015719372e-07,2.1223360534216244e-07,2.193558810720947e-09
1668680448.383486,14327,1668680448,383242911,,0.00018399677000172988,0.00017323647302074652,-3.6321195412366496e-10,-1.7960215876009024e-07,2.147611132544071e-07,2.2284235529448394e-09
1668680448.3918545,14328,1668680448,391700647,,0.0002176174364150827,0.0002049317251854555,-5.027088378975869e-10,-1.8815942950169238e-07,2.1724120211571187e-07,2.2627263402265167e-09
1668680448.4000764,14329,1668680448,399919457,,0.0002545751918143598,0.0002397718586033098,-6.80404163947995e-10,-1.9662522030150874e-07,2.196739603200482e-07,2.2964672327934095e-09
1668680448.4076848,14330,1668680448,407567985,,0.0002949224720513642,0.0002778063135642417,-9.028146126194441e-10,-2.049992731390167e-07,2.2205948513891875e-07,2.329646364490276e-09
1668680448.4155428,14331,1668680448,415408927,,0.00033870083979967673,0.0003190742829113492,-1.1768625565426698e-09,-2.132813538938139e-07,2.243978826350626e-07,2.3622639412071086e-09
1668680448.4238048,14332,1668680448,423673965,,0.00038594175924872156,0.0003636054420001542,-1.5098193842739694e-09,-2.2147125206757568e-07,2.2668926754060524e-07,2.394320227597658e-09
1668680448.4318027,14333,1668680448,431612772,,0.00043666732951390755,0.0004114206397355942,-1.9092435392435412e-09,-2.2956878042326504e-07,2.2893376311772426e-07,2.4258155669203314e-09
1668680448.4397202,14334,1668680448,439579837,,0.0004908909785769673,0.00046253255239912556,-2.3829154304398235e-09,-2.3757377457181077e-07,2.3113150097970511e-07,2.456750368136189e-09
1668680448.4478796,14335,1668680448,447753354,,0.0005486181195060734,0.0005169463019171328,-2.9387699894831407e-09,-2.4548609243782325e-07,2.3328262089062974e-07,2.487125108402606e-09
1668680448.4558134,14336,1668680448,455662718,,0.0006098467706409112,0.0005746600401601994,-3.584827909585688e-09,-2.533056137380212e-07,2.3538727055422138e-07,2.516940333994848e-09
1668680448.4639516,14337,1668680448,463728820,,0.0006745681413658926,0.0006356655008062683,-4.329127135771362e-09,-2.61032239335837e-07,2.3744560537595196e-07,2.5461966534755937e-09
1668680448.4721391,14338,1668680448,471922137,,0.000742767185034602,0.0006999485202416625,-5.179654852075198e-09,-2.686658906056254e-07,2.394577882061828e-07,2.5748947381828285e-09
1668680448.480352,14339,1668680448,480015996,,0.0008144231205496212,0.0007674895289195829,-6.144281348535646e-09,-2.7620650873914667e-07,2.414239890804237e-07,2.603035337408674e-09
1668680448.487855,14340,1668680448,487657960,,0.0008895099240447218,0.0008382640145412314,-7.230696120827833e-09,-2.8365405402819425e-07,2.4334438494995754e-07,2.630619255631142e-09
1668680448.4956453,14341,1668680448,495485866,,0.0009679967920618656,0.0009122429583727968,-8.446347241006066e-09,-2.9100850513344336e-07,2.452191593979339e-07,2.6576473651993004e-09
1668680448.5036051,14342,1668680448,503429196,,0.0010498485775605067,0.0009893932459605385,-9.798384158726698e-09,-2.982698583353699e-07,2.470485023636917e-07,2.6841206048153904e-09
1668680448.5118163,14343,1668680448,511666650,,0.0011350262000458908,0.0010696780534567166,-1.1293604357398684e-08,-3.0543812677581367e-07,2.4883260984770726e-07,2.7100399758485383e-09
1668680448.519631,14344,1668680448,519521310,,0.001223487031051323,0.00115305721072165,-1.2938404555536117e-08,-3.125133397272542e-07,2.5057168363201243e-07,2.7354065373474262e-09
1668680448.527793,14345,1668680448,527634633,,0.0013151852561615405,0.00123948754232091,-1.4738736491848538e-08,-3.194955418213779e-07,2.5226593099888814e-07,2.7602214184001966e-09
1668680448.5354414,14346,1668680448,535287355,,0.0014100722147158493,0.0013289231874915007,-1.6700067692477332e-08,-3.263847923052121e-07,2.539155644402203e-07,2.784485802955622e-09
1668680448.543898,14347,1668680448,543734436,,0.001508096718284426,0.0014213159001072694,-1.882734659105151e-08,-3.331811643448901e-07,2.5552080139349667e-07,2.8082009443514133e-09
1668680448.551726,14348,1668680448,551594005,,0.0016092053489665155,0.0015166153296327593,-2.112497327613299e-08,-3.3988474428641704e-07,2.570818639624958e-07,2.8313681518701145e-09
1668680448.559717,14349,1668680448,559592799,,0.0017133427385160474,0.001614769284012866,-2.359677481608824e-08,-3.464956309892477e-07,2.5859897866322833e-07,2.853988789871739e-09
1668680448.5676694,14350,1668680448,567533587,,0.0018204518292590556,0.0017157239754070574,-2.6245985512579097e-08,-3.530139351466952e-07,2.60072376163989e-07,2.876064292322081e-09
1668680448.5755074,14351,1668680448,575303306,,0.001930474117726411,0.0018194242496387748,-2.9075232109847072e-08,-3.594397786561113e-07,2.615022910383078e-07,2.8975961404581474e-09
1668680448.5838325,14352,1668680448,583651448,,0.0020433498818872423,0.001925813800193717,-3.2086523460836624e-08,-3.657732940000219e-07,2.6288896153009835e-07,2.9185858881584925e-09
1668680448.5916307,14353,1668680448,591504812,,0.00215901839282997,0.0020348353675657613,-3.528124485907872e-08,-3.720146236515896e-07,2.642326293304746e-07,2.9390351380907676e-09
1668680448.5996935,14354,1668680448,599548294,,0.0022774181117026795,0.002146430924713956,-3.866015639115663e-08,-3.7816391954265856e-07,2.6553353935576744e-07,2.9589455590589564e-09
1668680448.6077545,14355,1668680448,607635782,,0.002398486872688567,0.002260541849362833,-4.222339563882889e-08,-3.842213425214142e-07,2.667919395446094e-07,2.978318862367768e-09
1668680448.615953,14356,1668680448,615777717,,0.0025221620527593356,0.002377109083844666,-4.597048371323451e-08,-3.9018706186658803e-07,2.6800808066250714e-07,2.9971568256750847e-09
1668680448.6242003,14357,1668680448,623861188,,0.002648380728915917,0.002496073283152248,-4.990033531191196e-08,-3.9606125481901115e-07,2.6918221612361914e-07,3.015461286920429e-09
1668680448.6317434,14358,1668680448,631637931,,0.00277707982359533,0.00261737495184172,-5.4011271727001315e-08,-4.018441061644267e-07,2.7031460181026293e-07,3.0332341300134957e-09
1668680448.6397572,14359,1668680448,639626879,,0.002908196238891912,0.0027409545703952444,-5.830103682405748e-08,-4.075358078041662e-07,2.7140549591340876e-07,3.0504772939414504e-09
1668680448.6477585,14360,1668680448,647575753,,0.003041666980211864,0.0028667527116272118,-6.276681588043986e-08,-4.131365584112643e-07,2.7245515877919715e-07,3.0671927788404607e-09
1668680448.6558197,14361,1668680448,655624540,,0.0032168681623299636,0.0029947127763070764,-6.786435011664473e-08,-4.186950221669331e-07,2.7348013570119214e-07,3.083378954937821e-09
1668680448.6638598,14362,1668680448,663720182,,0.0035552159347445834,0.003124780197316245,0.00025324705765835504,-4.243838979373496e-07,2.7453880669026836e-07,3.099025034421915e-09
1668680448.6722145,14363,1668680448,671857199,,0.003879427179069562,0.0032568906432531965,0.0004860465220821292,-4.300002365331824e-07,2.755632902391665e-07,3.114148790402116e-09
1668680448.679962,14364,1668680448,679753872,,0.00427719769770122,0.003390992104765062,0.0008335132175092616,-4.356867647091459e-07,2.7660198303279386e-07,3.1287420067943605e-09
1668680448.687912,14365,1668680448,687732029,,0.004674114816760834,0.0035270235841006275,0.0013031453875460561,-4.4134099981725516e-07,2.776205788058159e-07,3.142814912829306e-09
1668680448.6955822,14366,1668680448,695475540,,0.00506101435283733,0.003664929203493856,0.0018131929274516146,-4.4694213483565016e-07,2.786122149834745e-07,3.156371617199505e-09
1668680448.7033372,14367,1668680448,703213390,,0.005395289144072106,0.0038046397466096325,0.0020088719528774416,-4.5238516284389497e-07,2.7954142919683423e-07,3.1694221769643094e-09
1668680448.7120566,14368,1668680448,711915585,,0.005714048937497422,0.0039461060599046294,0.0021851264379021676,-4.5773489502228367e-07,2.804303213630062e-07,3.181964385555458e-09
1668680448.719821,14369,1668680448,719621769,,0.005084424719514354,0.004189125291343369,0.003541840994005357,-4.606351230092241e-07,2.8047921125721445e-07,3.194162477918039e-09
1668680448.7276387,14370,1668680448,727530762,,0.004022835770885849,0.004478549137931479,0.005418652220068276,-4.629665958779231e-07,2.803291603966702e-07,3.2058843739413145e-09
1668680448.7355983,14371,1668680448,735401120,,0.0018537641545070239,0.004685710425759674,0.0066933547954061414,-4.651624262005419e-07,2.8013586131708555e-07,3.2171035158762296e-09
1668680448.743888,14372,1668680448,743685081,,-0.00012450108037849797,0.004889128733729901,0.007854146084461638,-4.700521414510593e-07,2.808590276622263e-07,3.2276348499275798e-09
1668680448.7518284,14373,1668680448,751630361,,-0.0013949799140689314,0.006528716941861021,0.00829227448086194,-4.768952436265048e-07,2.822442731706691e-07,3.237529684445295e-09
1668680448.7602043,14374,1668680448,760034913,,-0.002258984053714569,0.00881021290837588,0.008353641707159912,-4.850714349649714e-07,2.8407876220170247e-07,3.246826708533379e-09
1668680448.768143,14375,1668680448,767871618,,-0.003784362223013962,0.01050866012459934,0.00807066447124285,-4.964557615068528e-07,2.870143186132904e-07,3.2553873745982953e-09
1668680448.7758627,14376,1668680448,775650491,,-0.005558418914812579,0.011859295321098752,0.007623215184137833,-5.109409681145909e-07,2.9101057351095354e-07,3.2631970146856926e-09
1668680448.7841,14377,1668680448,783967723,,-0.007156291604752066,0.013103435964175292,0.007196097210900159,-5.268024520036505e-07,2.954704066111618e-07,3.270353616385835e-09
1668680448.791795,14378,1668680448,791674364,,-0.008988394302225061,0.014138880154632171,0.00788631730153524,-5.461001330922251e-07,3.0110627883493104e-07,3.276670580698582e-09
1668680448.8005102,14379,1668680448,800296630,,-0.009758354693699536,0.014068295878646659,0.007847085621642472,-5.555119134474879e-07,3.0331624409395477e-07,3.283197956560624e-09
1668680448.807814,14380,1668680448,807684750,,-0.00995973840370891,0.013460210112816206,0.007446601163470104,-5.585872037577628e-07,3.033303400121266e-07,3.289740937995056e-09
1668680448.8157763,14381,1668680448,815665605,,-0.009478812586408772,0.012068303826515477,0.006878611319092628,-5.536415945838911e-07,3.005681391996472e-07,3.2965307532328847e-09
1668680448.8234172,14382,1668680448,823312477,,-0.008761099949132378,0.010061352143121025,0.00624433464008121,-5.458245989376507e-07,2.9680893872465223e-07,3.3031738871924787e-09
1668680448.8320856,14383,1668680448,831858313,,-0.00805534511114241,0.008218910574116308,0.005647710573151881,-5.396044164985973e-07,2.935964314256293e-07,3.3092589328542754e-09
1668680448.839867,14384,1668680448,839668227,,-0.007240469297439526,0.006147579465096266,0.0050353409600878045,-5.333178410128574e-07,2.903551999829373e-07,3.31493322548726e-09
1668680448.8477917,14385,1668680448,847617025,,-0.006185830200997279,0.004222338611103399,0.004433935905605801,-5.274681081129582e-07,2.872583540884405e-07,3.3201400639198964e-09
1668680448.8556554,14386,1668680448,855452730,,-0.005035186150759508,0.002450818734739038,0.003856723831030147,-5.23160636134543e-07,2.846876329137436e-07,3.324754116115769e-09
1668680448.8637946,14387,1668680448,863614525,,-0.003936553443229855,0.0008416613058708889,0.0033174270416537984,-5.209299377006039e-07,2.8282828383864676e-07,3.328704833473195e-09
1668680448.8717961,14388,1668680448,871631532,,-0.0028774621908072232,0.00032767318504448717,0.003080042150131411,-5.210430565440654e-07,2.8177543876370316e-07,3.3319521360736237e-09
1668680448.8796868,14389,1668680448,879516596,,-0.0016864476488408877,0.0009399473429130139,0.0035014212772539774,-5.223173773274688e-07,2.8112046001301026e-07,3.3346181601591474e-09
1668680448.887623,14390,1668680448,887478679,,-0.000460857809607608,0.00209016816070612,0.004224435655653119,-5.241928599733209e-07,2.8066959982955364e-07,3.336763792138528e-09
1668680448.8959355,14391,1668680448,895808268,,0.0005135616271428293,0.0038306134570400214,0.005441564214617116,-5.26587641489871e-07,2.8039837178200794e-07,3.3383998018256256e-09
1668680448.9040165,14392,1668680448,903841763,,0.001207985515897376,0.005697494474158401,0.007110727818008534,-5.291014108701082e-07,2.801677678084014e-07,3.3395729358981496e-09
1668680448.9121876,14393,1668680448,911689241,,0.0018762988382831525,0.007435003870084052,0.008633866317141959,-5.315203911369194e-07,2.7990045857401245e-07,3.340310095146723e-09
1668680448.9197927,14394,1668680448,919658464,,0.002396666008640042,0.009178566551076427,0.01031538023028854,-5.339170578539681e-07,2.7962351923610886e-07,3.3406066357166003e-09
1668680448.9284253,14395,1668680448,928245753,,0.0027815236865473734,0.010819509591729679,0.012027758980634707,-5.362826090275796e-07,2.793335049849693e-07,3.3404669557823147e-09
1668680448.9357028,14396,1668680448,935551565,,0.0030985287722804945,0.012352141674897574,0.013678518488922277,-5.38601062963196e-07,2.790242689200935e-07,3.3398962846677843e-09
1668680448.9433417,14397,1668680448,943238172,,0.003809831332233066,0.013543837793217404,0.014828777644706706,-5.405077892893629e-07,2.785641651799044e-07,3.3389388096830702e-09
1668680448.9519227,14398,1668680448,951741747,,0.004490434295171411,0.01464577051150096,0.015858893112239748,-5.423802204687674e-07,2.7808922559238193e-07,3.337556079056024e-09
1668680448.9598284,14399,1668680448,959638829,,0.005349538117508679,0.015307647836017537,0.016230504278482473,-5.441591691370476e-07,2.7757530738551196e-07,3.3357583297875596e-09
1668680448.9677463,14400,1668680448,967622860,,0.0062739003996941265,0.01573067427866813,0.016251998155628358,-5.461245875268978e-07,2.7712101596272744e-07,3.33351782744358e-09
1668680448.97589,14401,1668680448,975769342,,0.007250125237285122,0.015924618360423904,0.015997419233208337,-5.484588025775665e-07,2.767893913205958e-07,3.3308180154983935e-09
1668680448.9834394,14402,1668680448,983308631,,0.008179059990095881,0.015908586791789994,0.01574197672600691,-5.512204215687625e-07,2.766020175830916e-07,3.3276567005385838e-09
1668680448.9917984,14403,1668680448,991655705,,0.00905341172932856,0.015895345598952778,0.015475670503845932,-5.542951349747565e-07,2.76520763805961e-07,3.3240514889232298e-09
1668680448.9999003,14404,1668680448,999671918,,0.009881221169944157,0.01578150943304316,0.015205462674526816,-5.576997520026204e-07,2.7655105943734815e-07,3.3200059628563094e-09
1668680449.0083525,14405,1668680449,8065158,,0.01066252827387487,0.015511213878668377,0.015012142962732377,-5.614711944340671e-07,2.767055523400855e-07,3.31552211726982e-09
1668680449.0154097,14406,1668680449,15279676,,0.011398584597080963,0.0151767919887579,0.014849743416187854,-5.655140029864602e-07,2.769520181974115e-07,3.3106167234703276e-09
1668680449.0240977,14407,1668680449,23917669,,0.01209046926562013,0.01487317546348726,0.014670870107117213,-5.696675779015965e-07,2.772358677823885e-07,3.305313267878973e-09
1668680449.032529,14408,1668680449,32347247,,0.01268743583531517,0.0145519855511025,0.014958283477140321,-5.737074549214366e-07,2.7748058708187365e-07,3.2996408921154297e-09
1668680449.0405347,14409,1668680449,40407038,,0.012987565966819428,0.014249830471057968,0.015911387199599152,-5.765242372648071e-07,2.7730776792716204e-07,3.2937156110163235e-09
1668680449.0486515,14410,1668680449,48513945,,0.013137307685975522,0.013971924987934915,0.017137644320035818,-5.78578709354316e-07,2.7687405055991116e-07,3.2874892287593216e-09
1668680449.0563753,14411,1668680449,56266463,,0.01298582080658035,0.013891986278405943,0.018436012280571058,-5.787808991927963e-07,2.758075717616804e-07,3.2810654939513517e-09
1668680449.063925,14412,1668680449,63788720,,0.012888886358655836,0.014047034584967819,0.019664812194182285,-5.787865462483869e-07,2.746730081160109e-07,3.2742814362607398e-09
1668680449.072015,14413,1668680449,71812413,,0.012812891692522008,0.014198552635634212,0.020757745206355465,-5.788330676408245e-07,2.73551471770446e-07,3.2671185114935275e-09
1668680449.0799649,14414,1668680449,79791110,,0.012772582957983569,0.01446331299480246,0.021760092827800236,-5.787970524838627e-07,2.724010400807016e-07,3.2595924067541082e-09
1668680449.0878282,14415,1668680449,87633206,,0.012725000455953766,0.014709485398387626,0.02264633133808718,-5.786933196641518e-07,2.7122691819212027e-07,3.2517057189235254e-09
1668680449.0957348,14416,1668680449,95627640,,0.012682771352051756,0.014941420811674176,0.02342101756671018,-5.785715616408375e-07,2.70046196085825e-07,3.2434582450391325e-09
1668680449.103471,14417,1668680449,103245983,,0.012795271994153526,0.014969277387306572,0.024040146929951288,-5.793752263002762e-07,2.6918058852189956e-07,3.2347763044560107e-09
1668680449.1117866,14418,1668680449,111602802,,0.012914226918241806,0.01500357293573958,0.024562937789894584,-5.801243233352074e-07,2.682963282732984e-07,3.2257491053289122e-09
1668680449.1199949,14419,1668680449,119820228,,0.013327863466513063,0.01488697075170785,0.02487622697575263,-5.824081631127128e-07,2.679354885975322e-07,3.2162562179499643e-09
1668680449.1276443,14420,1668680449,127538106,,0.01387656143302373,0.014705964241590949,0.025052331302801226,-5.855109035214564e-07,2.678547506819928e-07,3.2063671943222127e-09
1668680449.1355414,14421,1668680449,135428123,,0.014464001117158318,0.014530697733055896,0.025081861071614885,-5.889370692994364e-07,2.6788560725032407e-07,3.1961298069954625e-09
1668680449.144132,14422,1668680449,143963140,,0.015018595377516833,0.014380195840596556,0.0250595702640828,-5.922735047741371e-07,2.6788727706516385e-07,3.1855816352843735e-09
1668680449.1518013,14423,1668680449,151692499,,0.015464271127951113,0.014428263739921841,0.025127163564334275,-5.94644579595904e-07,2.6756075270482514e-07,3.174787443355198e-09
1668680449.1598227,14424,1668680449,159657740,,0.0158459724869393,0.014577122103654507,0.02521263109085467,-5.964097964415374e-07,2.6702862278250514e-07,3.163720938004211e-09
1668680449.1676817,14425,1668680449,167564643,,0.0157230669367387,0.01456474256684271,0.025384221893717827,-5.95282875792699e-07,2.6550973955400455e-07,3.152523998795065e-09
1668680449.1754754,14426,1668680449,175304788,,0.01536511646675174,0.014480228837865483,0.025567631364390952,-5.927930409452064e-07,2.6352623708810613e-07,3.141084840146968e-09
1668680449.1837668,14427,1668680449,183623354,,0.01504908350316021,0.014415164987200316,0.025686099606652975,-5.905173288943015e-07,2.616168609185631e-07,3.1293075075655707e-09
1668680449.1918948,14428,1668680449,191682138,,0.014275495201376753,0.014323570365348298,0.026400092231891152,-5.856632691225494e-07,2.5882822939006945e-07,3.1173483048402284e-09
1668680449.1998491,14429,1668680449,199593308,,0.013125208920036902,0.014229332421188873,0.027592412599822782,-5.791612730611582e-07,2.5547879271229507e-07,3.1051448825397676e-09
1668680449.207855,14430,1668680449,207699793,,0.011844608437327611,0.014144369426023387,0.02894655244628379,-5.727799331516526e-07,2.52173183433479e-07,3.0926065926889512e-09
1668680449.2162006,14431,1668680449,215974008,,0.01056806043597171,0.014074399887237162,0.030358011955531446,-5.67287077775529e-07,2.491738850531294e-07,3.0797065505433485e-09
1668680449.22374,14432,1668680449,223434947,,0.009420360075639395,0.014021777356312345,0.03165042692586795,-5.630406232230551e-07,2.4660276476672635e-07,3.066441119255192e-09
1668680449.2316332,14433,1668680449,231530478,,0.008390903885402815,0.013989060938367498,0.03277827649398644,-5.597585178553977e-07,2.4436340652513435e-07,3.0528349206221383e-09
1668680449.239759,14434,1668680449,239633520,,0.0074745109139965505,0.01397322186897839,0.03378008861650788,-5.572248552570927e-07,2.4238194918013093e-07,3.0389064589395054e-09
1668680449.2477498,14435,1668680449,247562572,,0.006665962860000148,0.013962450292614599,0.03460258041549116,-5.552586098427458e-07,2.405964234961124e-07,3.024670608160057e-09
1668680449.2558613,14436,1668680449,255657355,,0.0059571610418959866,0.0139630212897722,0.03527412199279539,-5.536945776510384e-07,2.3895036543538256e-07,3.0101401482084816e-09
1668680449.2637734,14437,1668680449,263616387,,0.005292939470488304,0.013973590369915105,0.03587448119061233,-5.523852325471771e-07,2.3739388761725155e-07,2.9953262006138237e-09
1668680449.2720902,14438,1668680449,271730735,,0.0047187663113558995,0.014000847258231888,0.03635661190218477,-5.512817995585397e-07,2.359098510759763e-07,2.9802352367349055e-09
1668680449.280225,14439,1668680449,280057804,,0.004631127043794199,0.014082568582296324,0.03703113853208091,-5.502214508968956e-07,2.3443785007373984e-07,2.9648782725807954e-09
1668680449.2878609,14440,1668680449,287678114,,0.0048032610919635085,0.014197493176618172,0.03773922151113668,-5.490737096294884e-07,2.3293583902032796e-07,2.949264778142474e-09
1668680449.2956083,14441,1668680449,295363925,,0.005432419160804706,0.014615861593127413,0.038393196721121875,-5.478972194678795e-07,2.3142291043112993e-07,2.9333963908091676e-09
1668680449.3038568,14442,1668680449,303670283,,0.0060506459535666635,0.015018776778954999,0.038919761410609495,-5.467968276230148e-07,2.2993952120601262e-07,2.9172727714424362e-09
1668680449.312076,14443,1668680449,311959792,,0.007014696924621858,0.015737839223692138,0.039386204221086386,-5.459485354702775e-07,2.2854343236906964e-07,2.9008908721331328e-09
1668680449.3195968,14444,1668680449,319501166,,0.008127674150224104,0.0165906761903124,0.03976906261368455,-5.454691388635287e-07,2.2727652535463978e-07,2.884250458259907e-09
1668680449.3276641,14445,1668680449,327556616,,0.009395437310778175,0.017642731156513023,0.040085482590784545,-5.454745839240349e-07,2.2617898900800315e-07,2.8673520190147794e-09
1668680449.335761,14446,1668680449,335584462,,0.010838340914331385,0.01878047256067779,0.04012510205350707,-5.46240821399956e-07,2.2534511704184286e-07,2.8501908307457247e-09
1668680449.343735,14447,1668680449,343609182,,0.012197196336238881,0.019839469846805353,0.04008248823357034,-5.474212426195146e-07,2.246583145046647e-07,2.8327879087602925e-09
1668680449.352478,14448,1668680449,352186120,,0.013604834126096697,0.020906825818425602,0.03987276289912438,-5.492800906197896e-07,2.2420835004942894e-07,2.8151412017479727e-09
1668680449.3602247,14449,1668680449,359852979,,0.014994398789451384,0.02178191015584824,0.0392787281522059,-5.519099979273557e-07,2.2402721916277226e-07,2.7972572105849913e-09
1668680449.3677735,14450,1668680449,367667919,,0.01633299218724576,0.022533021568449888,0.03848369587645764,-5.551248232962548e-07,2.240518301344259e-07,2.7791534663867967e-09
1668680449.3757331,14451,1668680449,375589482,,0.017605415491989216,0.023094737892629016,0.03741334428285445,-5.589474315440294e-07,2.242901777426234e-07,2.7608407556639625e-09
1668680449.383398,14452,1668680449,383278786,,0.018805837869460926,0.023486290198649923,0.036186312898630446,-5.63296631231176e-07,2.247147546285337e-07,2.7423339432619542e-09
1668680449.3917518,14453,1668680449,391544004,,0.019927932678206955,0.023850897333798665,0.03498490816042419,-5.677653977007957e-07,2.2518661328045728e-07,2.7236557696708186e-09
1668680449.3996463,14454,1668680449,399487061,,0.020981348550559265,0.024121175935205172,0.033720907925651,-5.724715780421128e-07,2.257460782527994e-07,2.704813387155447e-09
1668680449.4078903,14455,1668680449,407747983,,0.02196731911863297,0.02439784618840445,0.03251338240386348,-5.770854521919852e-07,2.2628049380714376e-07,2.6858234039583984e-09
1668680449.4158256,14456,1668680449,415665075,,0.022888260867218523,0.024668794823629433,0.03134936093789412,-5.815508793739234e-07,2.2677068073654813e-07,2.666693962871669e-09
1668680449.4234455,14457,1668680449,423323789,,0.02374720288494148,0.025004917388014043,0.0304696852869005,-5.855830918019968e-07,2.271192251189773e-07,2.6474340671100993e-09
1668680449.431891,14458,1668680449,431735099,,0.024546863935541015,0.02531710291245223,0.02959945243810515,-5.89382403823563e-07,2.273946537645257e-07,2.6280451183302578e-09
1668680449.4397185,14459,1668680449,439612008,,0.025346899117816797,0.025561385863837483,0.02870895365841697,-5.936175300400557e-07,2.27825940148519e-07,2.6085314464019405e-09
1668680449.4476259,14460,1668680449,447526348,,0.026119438990309225,0.02576412015043151,0.02781610252858157,-5.97938672711331e-07,2.2829361919786927e-07,2.5889052533700774e-09
1668680449.4557152,14461,1668680449,455475123,,0.026941769335144677,0.025839389115587228,0.026784994824063307,-6.034703929567444e-07,2.2918292874422874e-07,2.5691862352850148e-09
1668680449.4640734,14462,1668680449,463795551,,0.027702873834913672,0.025911021693897147,0.02578253968478714,-6.086184089914464e-07,2.2994850368144096e-07,2.549378194660612e-09
1668680449.4720194,14463,1668680449,471808616,,0.02852064350183147,0.025767019725393834,0.024597909081331866,-6.155247343622781e-07,2.3132395628893722e-07,2.5295264285962737e-09
1668680449.480184,14464,1668680449,480025031,,0.029335761963032357,0.025524808457162644,0.023346980745223157,-6.231606806635418e-07,2.3295776935576204e-07,2.5096434652649435e-09
1668680449.487938,14465,1668680449,487801519,,0.029914494070841815,0.025104187733281012,0.022067981638236707,-6.289351095873329e-07,2.3396285922928743e-07,2.48967135796363e-09
1668680449.4956157,14466,1668680449,495457596,,0.030355778671544053,0.024615301425171755,0.020803690547013597,-6.334199196991297e-07,2.345346415723315e-07,2.46960784461292e-09
1668680449.5041447,14467,1668680449,503920026,,0.030761014555954754,0.024171437535778464,0.01959820213203939,-6.373356822942993e-07,2.3491966090092523e-07,2.4494689193632624e-09
1668680449.51196,14468,1668680449,511792747,,0.031084507320793608,0.023197187936590938,0.018197217712622307,-6.427204841264324e-07,2.3581607218911387e-07,2.4293537181918623e-09
1668680449.5198674,14469,1668680449,519662127,,0.031199759084307502,0.02185250246409004,0.016750058661141768,-6.470813583405247e-07,2.363705089519991e-07,2.409158088301222e-09
1668680449.5278242,14470,1668680449,527658079,,0.031208538210653974,0.020385234723998318,0.01532019199439227,-6.505805254667708e-07,2.3663833058741937e-07,2.3888800868010485e-09
1668680449.5354676,14471,1668680449,535318536,,0.0313198159117817,0.01942763720362193,0.014084583891490563,-6.530665840171444e-07,2.365674907654552e-07,2.368498973337463e-09
1668680449.5437598,14472,1668680449,543604277,,0.031420987172265,0.018563969729600144,0.012918705381616718,-6.549293285000569e-07,2.362912953022536e-07,2.348030804510959e-09
1668680449.5517795,14473,1668680449,551608896,,0.03186344566729262,0.01830207468464302,0.011997399042442807,-6.589119398616307e-07,2.3674954012541712e-07,2.327700969473323e-09
1668680449.5597143,14474,1668680449,559601175,,0.032454502932695285,0.018353430865449143,0.011219451113678855,-6.636401410295163e-07,2.3747230827760295e-07,2.3074367416775488e-09
1668680449.567829,14475,1668680449,567655904,,0.03327608917806964,0.018781201579062167,0.010562650055202665,-6.701464892917039e-07,2.388138624024455e-07,2.2873656788102714e-09
1668680449.5756726,14476,1668680449,575526206,,0.03446434207881618,0.019653548227564967,0.01005544222177653,-6.804551001157147e-07,2.4146868737179045e-07,2.2677545674643085e-09
1668680449.583411,14477,1668680449,583214545,,0.035783176634775975,0.02071784622546725,0.009631483096640175,-6.922828138904158e-07,2.446562211307589e-07,2.2484426195901186e-09
1668680449.5916965,14478,1668680449,591593543,,0.03698985922567613,0.021715615655973314,0.009222058147413864,-7.029487562134522e-07,2.474587255510202e-07,2.2291509263472342e-09
1668680449.5998664,14479,1668680449,599705695,,0.03801525415187751,0.022992793247339986,0.009207211676024271,-7.088902743857678e-07,2.486551421810668e-07,2.2093950072243906e-09
1668680449.607763,14480,1668680449,607582621,,0.038907692144181986,0.024363820459980694,0.009376715661274588,-7.118900872837993e-07,2.488544979652261e-07,2.1893144103168893e-09
1668680449.6156702,14481,1668680449,615562539,,0.03972443621631351,0.026046646129188226,0.010051176486905214,-7.11525458380719e-07,2.4791074737387855e-07,2.1687771092904207e-09
1668680449.6234684,14482,1668680449,623341750,,0.0407414995127521,0.02774137173824056,0.010838291213042663,-7.14933176675927e-07,2.4826817376596456e-07,2.1488285179005473e-09
1668680449.6325788,14483,1668680449,632425267,,0.04166228211701315,0.029307458185852377,0.0115418875175778,-7.173847983838713e-07,2.4830822871165295e-07,2.1287870077824067e-09
1668680449.6407409,14484,1668680449,640543747,,0.04264057207248236,0.030824440578181476,0.01226550250427506,-7.213560671737065e-07,2.488790332305386e-07,2.109070230960075e-09
1668680449.6483834,14485,1668680449,648227737,,0.043520807498746095,0.03200775986357266,0.012837653233943248,-7.256898627399895e-07,2.495848955570267e-07,2.0895135274812127e-09
1668680449.656318,14486,1668680449,655689660,,0.04447569201425082,0.032640703974049126,0.01303707833999557,-7.354145635938203e-07,2.5214939492444743e-07,2.0711154874453186e-09
1668680449.6638038,14487,1668680449,663510894,,0.0454204050110741,0.03298004113456761,0.013035098385059458,-7.472415181763873e-07,2.5544829317428706e-07,2.05336955771962e-09
1668680449.6718988,14488,1668680449,671753190,,0.046267082376482284,0.033289058647908744,0.01300761496917912,-7.574904200175771e-07,2.5822162977892464e-07,2.035562621238718e-09
1668680449.6796663,14489,1668680449,679488038,,0.047107049338588065,0.03335722108321235,0.012832150387687325,-7.696067894750764e-07,2.616496829609561e-07,2.018435113493311e-09
1668680449.6880007,14490,1668680449,687790647,,0.047899478767013115,0.03330432983429854,0.012579286861651643,-7.818574126801261e-07,2.651397071570284e-07,2.0016521773413842e-09
1668680449.6956677,14491,1668680449,695530156,,0.04861234504705067,0.03310184991774431,0.012277485197074499,-7.937000602210192e-07,2.685062490807334e-07,1.985100500645487e-09
1668680449.7038095,14492,1668680449,703667426,,0.04924059942725409,0.03291287814987516,0.011975310134771048,-8.036838040854704e-07,2.7125215543220664e-07,1.968410219543859e-09
1668680449.7118318,14493,1668680449,711680712,,0.04974178846168029,0.032707756416301505,0.011815040186276347,-8.109058114755914e-07,2.7306728040505865e-07,1.9512925719666896e-09
1668680449.7199082,14494,1668680449,719724992,,0.0501475905988256,0.032501917802544036,0.01171933789244081,-8.158881909645001e-07,2.741292223563171e-07,1.9338123463663592e-09
1668680449.7278547,14495,1668680449,727649041,,0.050467777437260386,0.032361526677110564,0.011770961799408373,-8.18250680525252e-07,2.743065608845109e-07,1.9157930242208465e-09
1668680449.735549,14496,1668680449,735373094,,0.050652340995167286,0.03243278011440783,0.012255010850601777,-8.154739275448709e-07,2.727345247391551e-07,1.8963932091331515e-09
1668680449.7436616,14497,1668680449,743528332,,0.0507917307747428,0.03249878803641303,0.012676676333219344,-8.115618194320983e-07,2.707823083124457e-07,1.8766946469073176e-09
1668680449.7525165,14498,1668680449,752356537,,0.05084716871126608,0.032666366082600366,0.01328329355010991,-8.046482846800897e-07,2.6780977549012777e-07,1.8560572245807094e-09
1668680449.7605455,14499,1668680449,760310714,,0.0508672083506197,0.032928992693468113,0.0140072211172975,-7.960202757500024e-07,2.642562267657529e-07,1.834813551093717e-09
1668680449.7685554,14500,1668680449,768318791,,0.0508555503120245,0.03322831968171742,0.014747520846392474,-7.862674655854484e-07,2.603227645925875e-07,1.8131132012433326e-09
1668680449.7759085,14501,1668680449,775742737,,0.05077481192356805,0.03358922342735477,0.01553208951280184,-7.742596837450916e-07,2.5562140172586886e-07,1.7905148197439047e-09
1668680449.7838945,14502,1668680449,783781954,,0.05067135240976091,0.03392124066426276,0.016224094294656693,-7.619347745602763e-07,2.5081499217230636e-07,1.7676627245277743e-09
1668680449.7917979,14503,1668680449,791650104,,0.05052467321057679,0.034198334057250084,0.016915932305136962,-7.489971316932006e-07,2.4580207537688165e-07,1.7444368310970404e-09
1668680449.7999587,14504,1668680449,799642278,,0.050349857494871,0.0344380185328101,0.01756537874265238,-7.356913056411215e-07,2.4066615471286454e-07,1.7209161595754807e-09
1668680449.808365,14505,1668680449,807834681,,0.050172067175161934,0.034598929580988216,0.018120178759093584,-7.229785105313208e-07,2.357365431102619e-07,1.6974813776826636e-09
1668680449.815516,14506,1668680449,815373753,,0.05002251389338441,0.03451848971757775,0.01841026202067315,-7.129104025175225e-07,2.317169343500538e-07,1.6750106579532797e-09
1668680449.8238974,14507,1668680449,823715816,,0.04985886000413792,0.03444369935545265,0.018641126825566772,-7.024335731904197e-07,2.2756226968740322e-07,1.652291387044258e-09
1668680449.8316216,14508,1668680449,831434224,,0.04970450124988964,0.03425425522244932,0.018718983200906814,-6.930837876746219e-07,2.237988108051963e-07,1.62998718689078e-09
1668680449.8396163,14509,1668680449,839511568,,0.04944364005878111,0.033965396723223955,0.018696271591550215,-6.818728467129732e-07,2.1940287526166745e-07,1.6067941699393629e-09
1668680449.8478742,14510,1668680449,847731115,,0.04912992638292952,0.033640232130622394,0.01860794881992883,-6.696426925666089e-07,2.1466202302982892e-07,1.5830412536388394e-09
1668680449.8558486,14511,1668680449,855678806,,0.04884519908917294,0.033461362799590805,0.018598286710959085,-6.569838771968654e-07,2.0977814374229659e-07,1.5589763716072902e-09
1668680449.8636007,14512,1668680449,863386372,,0.048472532514860216,0.033468091176857936,0.018740228640324527,-6.407685536829826e-07,2.0367865492137462e-07,1.5330755831488574e-09
1668680449.8722527,14513,1668680449,871821594,,0.04810849047961098,0.033477431711897015,0.018834000213601845,-6.248408268114017e-07,1.9767945842611226e-07,1.5071257644660996e-09
1668680449.8798666,14514,1668680449,879697933,,0.04770671091959012,0.03357813209604531,0.018982545042766856,-6.074154998864123e-07,1.911686943762564e-07,1.4802376407940798e-09
1668680449.888118,14515,1668680449,887986254,,0.04732934606911131,0.03381798707107143,0.019199921642943388,-5.89665708777224e-07,1.8454779248788106e-07,1.4529720412936875e-09
1668680449.8954773,14516,1668680449,895265395,,0.04690138597660541,0.03426964887570511,0.01959893092848599,-5.693293015949044e-07,1.7704094042061795e-07,1.4241307091933386e-09
1668680449.903713,14517,1668680449,903576669,,0.04649089212161539,0.034688331237658236,0.019927805913184604,-5.498943110186024e-07,1.6984282339609427e-07,1.3955109984253866e-09
1668680449.9118521,14518,1668680449,911654137,,0.04606407260610264,0.03519609644660978,0.020316820935401023,-5.296863292908525e-07,1.6237985728207935e-07,1.366229095134397e-09
1668680449.9197834,14519,1668680449,919639832,,0.045597227247629074,0.035790897485681476,0.020749301356841186,-5.08247379771645e-07,1.544946375147977e-07,1.3360108366833323e-09
1668680449.9277422,14520,1668680449,927555468,,0.045122919152766276,0.03640592042027291,0.021167128107890145,-4.868441728950071e-07,1.4662103053246847e-07,1.3055444017529005e-09
1668680449.9355295,14521,1668680449,935397637,,0.04465047729474654,0.036900319356225446,0.02144277757416631,-4.666518003068891e-07,1.391622371851864e-07,1.27551619266697e-09
1668680449.9436936,14522,1668680449,943590010,,0.04420513853111,0.037354588636900714,0.021654410634453218,-4.476138386618031e-07,1.320996995564632e-07,1.2459345083426498e-09
1668680449.9531293,14523,1668680449,952928117,,0.04376898334555241,0.037607972570731535,0.021656819105935334,-4.3036114809178643e-07,1.2565055478833305e-07,1.2172144958633169e-09
1668680449.9602737,14524,1668680449,960081389,,0.043350238348303725,0.037752857751241466,0.021537185088796835,-4.1438311647182865e-07,1.1964067856838796e-07,1.1891017476228782e-09
1668680449.9679728,14525,1668680449,967803185,,0.04299335765012487,0.03786969936055365,0.021352934016866006,-4.000212447411648e-07,1.1418795945209934e-07,1.1618459111462087e-09
1668680449.975745,14526,1668680449,975545595,,0.042584231754580947,0.03804962471435184,0.021341810443882912,-3.843406615509177e-07,1.0828640446087709e-07,1.1336612690260317e-09
1668680449.9840932,14527,1668680449,983954891,,0.0421636043054837,0.03825256383337279,0.021395629918136993,-3.684691917668669e-07,1.0232233501271913e-07,1.1052299145331013e-09
1668680449.9926803,14528,1668680449,992508344,,0.04177288625519065,0.03843739970834256,0.02140302592732758,-3.5348981931361025e-07,9.666729058801365e-08,1.0772462782915326e-09
1668680450.000524,14529,1668680450,359498,,0.041425755915040136,0.038636436974777734,0.02141600710434221,-3.3944059920157105e-07,9.133482732040683e-08,1.0497622215943636e-09
1668680450.0086129,14530,1668680450,8453858,,0.04111310903675835,0.03883438873173117,0.02141109293879769,-3.262064877652374e-07,8.62859698433447e-08,1.0227291513675851e-09
1668680450.0158465,14531,1668680450,15727116,,0.04090177868942626,0.03914954669061468,0.02144238492474204,-3.1433340514361915e-07,8.170847956567862e-08,9.965358746533148e-10
1668680450.0248446,14532,1668680450,24692335,,0.04070765177692913,0.039437029915120346,0.021428954349714136,-3.030445289731198e-07,7.733645122887621e-08,9.706935949482798e-10
