Time,header.seq,header.stamp.secs,header.stamp.nsecs,header.frame_id,pose.position.x,pose.position.y,pose.position.z,pose.orientation.x,pose.orientation.y,pose.orientation.z,pose.orientation.w
1668680447.3921957,14203,1668680447,392028448,,-0.09879801914661204,-0.6160097986063667,0.07088206676552088,0.9955612167223342,0.09352316344702401,-0.0043474866940585105,0.00961150439066345
1668680447.399547,14204,1668680447,399464634,,-0.09879813073408492,-0.6160097985944886,0.07088206676544571,0.9955612167819736,0.093523163432037,-0.004347484571098359,0.009611499319280464
1668680447.4078732,14205,1668680447,407750388,,-0.09879823360264191,-0.6160097985829152,0.0708820667653721,0.9955612168409996,0.09352316341740326,-0.004347482479170421,0.009611494293968124
1668680447.4160314,14206,1668680447,415896998,,-0.09879832823827717,-0.6160097985716455,0.07088206676530033,0.9955612168994096,0.09352316340312163,-0.004347480418296216,0.009611489315004088
1668680447.423549,14207,1668680447,423313986,,-0.09879841510482486,-0.6160097985606763,0.07088206676523016,0.9955612169572005,0.09352316338919153,-0.004347478388493133,0.009611484382657597
1668680447.4315479,14208,1668680447,431434666,,-0.09879849464479531,-0.6160097985500067,0.07088206676516197,0.9955612170143703,0.0935231633756116,-0.0043474763897744205,0.009611479497190508
1668680447.4402778,14209,1668680447,440184539,,-0.09879856728018671,-0.6160097985396329,0.07088206676509547,0.9955612170709164,0.09352316336238105,-0.004347474422149043,0.009611474658855562
1668680447.4485474,14210,1668680447,448383123,,-0.09879863341327427,-0.6160097985295524,0.07088206676503064,0.9955612171268367,0.09352316334949838,-0.00434747248562224,0.009611469867898332
1668680447.4561517,14211,1668680447,456021403,,-0.0987986934273739,-0.6160097985197613,0.07088206676496793,0.9955612171821286,0.09352316333696299,-0.004347470580195174,0.009611465124556151
1668680447.4648252,14212,1668680447,464597601,,-0.09879874768758486,-0.6160097985102562,0.07088206676490683,0.9955612172367906,0.0935231633247734,-0.0043474687058647574,0.009611460429058225
1668680447.4725685,14213,1668680447,472424886,,-0.09879879654150894,-0.6160097985010331,0.0708820667648476,0.9955612172908201,0.09352316331292852,-0.00434746686262428,0.009611455781625955
1668680447.4797065,14214,1668680447,479562985,,-0.09879884031994707,-0.6160097984920874,0.07088206676479003,0.9955612173442157,0.09352316330142689,-0.004347465050462696,0.0096114511824725
1668680447.487932,14215,1668680447,487803085,,-0.09879887933757381,-0.6160097984834152,0.07088206676473434,0.9955612173969753,0.09352316329026773,-0.004347463269365529,0.00961144663180377
1668680447.4954953,14216,1668680447,495288959,,-0.09879891389359234,-0.6160097984750116,0.07088206676468041,0.9955612174490973,0.09352316327944947,-0.004347461519314209,0.009611442129817228
1668680447.5037942,14217,1668680447,503703575,,-0.09879894427236491,-0.6160097984668723,0.07088206676462828,0.9955612175005799,0.09352316326897092,-0.004347459800286311,0.009611437676702883
1668680447.5118833,14218,1668680447,511750445,,-0.09879897074402555,-0.6160097984589921,0.07088206676457774,0.995561217551422,0.09352316325883071,-0.0043474581122556035,0.009611433272642788
1668680447.519851,14219,1668680447,519670703,,-0.09879899356507135,-0.616009798451366,0.0708820667645289,0.9955612176016219,0.09352316324902726,-0.004347456455192257,0.009611428917811554
1668680447.527994,14220,1668680447,527825803,,-0.09879901297893386,-0.6160097984439888,0.07088206676448162,0.9955612176511782,0.09352316323955943,-0.004347454829062485,0.009611424612375607
1668680447.5357513,14221,1668680447,535592691,,-0.0987990292165311,-0.6160097984368557,0.07088206676443605,0.9955612177000898,0.09352316323042546,-0.004347453233829109,0.009611420356494399
1668680447.5433462,14222,1668680447,543218277,,-0.09879904249680131,-0.6160097984299612,0.07088206676439229,0.9955612177483556,0.09352316322162395,-0.004347451669451223,0.009611416150319437
1668680447.5518878,14223,1668680447,551791001,,-0.09879905302721673,-0.6160097984233003,0.07088206676434994,0.9955612177959745,0.09352316321315361,-0.004347450135883906,0.009611411993994299
1668680447.560033,14224,1668680447,559830063,,-0.09879906100428118,-0.6160097984168675,0.07088206676430908,0.9955612178429453,0.09352316320501274,-0.004347448633079117,0.009611407887655729
1668680447.567963,14225,1668680447,567819303,,-0.09879906661400875,-0.6160097984106572,0.07088206676426975,0.9955612178892674,0.09352316319719975,-0.004347447160984918,0.009611403831432417
1668680447.575753,14226,1668680447,575624157,,-0.09879907003238551,-0.6160097984046641,0.07088206676423188,0.9955612179349401,0.09352316318971314,-0.0043474457195461355,0.009611399825445892
1668680447.583408,14227,1668680447,583291709,,-0.09879907142581507,-0.6160097983988834,0.07088206676419549,0.9955612179799626,0.09352316318255137,-0.004347444308704,0.00961139586981029
1668680447.5916076,14228,1668680447,591514983,,-0.09879907095154748,-0.6160097983933093,0.07088206676416041,0.9955612180243341,0.09352316317571242,-0.0043474429283962175,0.00961139196463231
1668680447.5996146,14229,1668680447,599495068,,-0.09879906875809194,-0.616009798387936,0.07088206676412652,0.9955612180680544,0.09352316316919476,-0.004347441578557287,0.009611388110011434
1668680447.6077604,14230,1668680447,607631281,,-0.0987990649856145,-0.6160097983827593,0.07088206676409413,0.9955612181111227,0.09352316316299669,-0.004347440259117957,0.009611384306039627
1668680447.6155734,14231,1668680447,615388339,,-0.09879905976632118,-0.616009798377773,0.07088206676406295,0.995561218153539,0.09352316315711656,-0.004347438970006121,0.009611380552802286
1668680447.6238122,14232,1668680447,623617156,,-0.09879905322482607,-0.6160097983729723,0.07088206676403319,0.9955612181953032,0.09352316315155242,-0.004347437711145915,0.009611376850376887
1668680447.6318016,14233,1668680447,631659649,,-0.09879904547850482,-0.6160097983683516,0.0708820667640046,0.9955612182364145,0.09352316314630273,-0.004347436482458498,0.00961137319883419
1668680447.6396768,14234,1668680447,639582768,,-0.09879903663783562,-0.6160097983639062,0.07088206676397696,0.9955612182768733,0.09352316314136568,-0.004347435283861571,0.009611369598237473
1668680447.6480577,14235,1668680447,647948230,,-0.09879902680672668,-0.6160097983596307,0.0708820667639507,0.9955612183166795,0.09352316313673895,-0.004347434115269931,0.009611366048643814
1668680447.6556442,14236,1668680447,655482068,,-0.09879901608282862,-0.6160097983555203,0.07088206676392525,0.9955612183558332,0.09352316313242104,-0.004347432976594771,0.009611362550102302
1668680447.6636689,14237,1668680447,663528235,,-0.09879900455783847,-0.6160097983515704,0.07088206676390121,0.9955612183943346,0.09352316312840997,-0.0043474318677447134,0.009611359102656192
1668680447.6717126,14238,1668680447,671577749,,-0.09879899231778777,-0.6160097983477758,0.07088206676387794,0.9955612184321838,0.09352316312470384,-0.004347430788624858,0.009611355706340816
1668680447.6797564,14239,1668680447,679609608,,-0.09879897944332072,-0.6160097983441315,0.07088206676385561,0.9955612184693812,0.09352316312130085,-0.004347429739137361,0.009611352361185188
1668680447.6876507,14240,1668680447,687513643,,-0.09879896600996164,-0.6160097983406329,0.07088206676383445,0.9955612185059273,0.0935231631181988,-0.004347428719181416,0.009611349067211597
1668680447.6958652,14241,1668680447,695636742,,-0.09879895208836934,-0.6160097983372754,0.07088206676381412,0.9955612185418224,0.09352316311539571,-0.004347427728653251,0.009611345824435293
1668680447.7035978,14242,1668680447,703494122,,-0.09879893774458257,-0.6160097983340549,0.07088206676379467,0.9955612185770674,0.09352316311288977,-0.004347426767446142,0.009611342632865475
1668680447.7118404,14243,1668680447,711654408,,-0.0987989230402555,-0.6160097983309664,0.07088206676377612,0.9955612186116626,0.09352316311067875,-0.004347425835450414,0.009611339492503807
1668680447.7199519,14244,1668680447,719667059,,-0.09879890803288162,-0.6160097983280058,0.07088206676375831,0.9955612186456089,0.09352316310876063,-0.004347424932553463,0.009611336403346124
1668680447.7282252,14245,1668680447,728088871,,-0.09879889277600962,-0.6160097983251689,0.07088206676374133,0.995561218678907,0.09352316310713328,-0.004347424058640074,0.009611333365381423
1668680447.7357178,14246,1668680447,735547089,,-0.09879887731944882,-0.6160097983224515,0.07088206676372495,0.9955612187115579,0.09352316310579496,-0.004347423213591879,0.009611330378592178
1668680447.7435985,14247,1668680447,743444186,,-0.0987988617094674,-0.6160097983198489,0.07088206676370966,0.9955612187435624,0.09352316310474298,-0.004347422397288133,0.009611327442954882
1668680447.751806,14248,1668680447,751634155,,-0.09879884598898027,-0.6160097983173582,0.07088206676369485,0.9955612187749219,0.09352316310397561,-0.004347421609605151,0.009611324558439136
1668680447.75971,14249,1668680447,759569811,,-0.09879883019772892,-0.6160097983149746,0.07088206676368057,0.9955612188056371,0.09352316310349061,-0.00434742085041655,0.009611321725008226
1668680447.7677717,14250,1668680447,767606472,,-0.09879881437245515,-0.6160097983126948,0.0708820667636673,0.9955612188357094,0.09352316310328568,-0.004347420119593601,0.009611318942619903
1668680447.7759004,14251,1668680447,775744539,,-0.09879879854706418,-0.6160097983105153,0.07088206676365444,0.99556121886514,0.09352316310335869,-0.004347419417004632,0.009611316211224998
1668680447.7838511,14252,1668680447,783672633,,-0.0987987827527824,-0.6160097983084319,0.07088206676364212,0.9955612188939301,0.09352316310370772,-0.004347418742515359,0.009611313530768354
1668680447.792172,14253,1668680447,791933804,,-0.09879876701830813,-0.6160097983064415,0.07088206676363053,0.9955612189220813,0.09352316310432991,-0.004347418095989278,0.009611310901189106
1668680447.7998505,14254,1668680447,799679137,,-0.09879875136995349,-0.6160097983045404,0.07088206676361924,0.9955612189495949,0.09352316310522346,-0.004347417477287086,0.009611308322419717
1668680447.8077965,14255,1668680447,807636835,,-0.09879873583178203,-0.6160097983027256,0.07088206676360874,0.9955612189764727,0.09352316310638598,-0.004347416886267376,0.009611305794387289
1668680447.8155522,14256,1668680447,815339103,,-0.0987987204257387,-0.616009798300994,0.0708820667635987,0.9955612190027159,0.09352316310781533,-0.004347416322785973,0.009611303317012833
1668680447.8237896,14257,1668680447,823663775,,-0.09879870517177372,-0.616009798299342,0.07088206676358907,0.9955612190283265,0.09352316310950895,-0.00434741578669648,0.009611300890211163
1668680447.8316445,14258,1668680447,831500949,,-0.09879869008796079,-0.6160097982977668,0.0708820667635801,0.9955612190533061,0.09352316311146495,-0.0043474152778501945,0.00961129851389193
1668680447.8398561,14259,1668680447,839745865,,-0.09879867519061028,-0.6160097982962653,0.07088206676357146,0.9955612190776566,0.09352316311368061,-0.004347414796095885,0.009611296187958187
1668680447.8478208,14260,1668680447,847651287,,-0.09879866049437572,-0.6160097982948346,0.07088206676356319,0.99556121910138,0.0935231631161534,-0.0043474143412804,0.00961129391230813
1668680447.855663,14261,1668680447,855515783,,-0.09879864601235618,-0.6160097982934724,0.07088206676355552,0.9955612191244778,0.09352316311888145,-0.004347413913248118,0.009611291686834141
1668680447.8662677,14262,1668680447,864459116,,-0.09879863175619306,-0.6160097982921752,0.07088206676354818,0.9955612191469524,0.09352316312186212,-0.004347413511841247,0.009611289511422448
1668680447.872351,14263,1668680447,872012839,,-0.09879861773616261,-0.6160097982909412,0.07088206676354102,0.9955612191688058,0.09352316312509305,-0.004347413136899763,0.009611287385954275
1668680447.8800557,14264,1668680447,879868748,,-0.0987986039612633,-0.6160097982897673,0.07088206676353444,0.99556121919004,0.09352316312857194,-0.004347412788261877,0.009611285310305655
1668680447.8876534,14265,1668680447,887543693,,-0.09879859043929878,-0.6160097982886515,0.07088206676352814,0.9955612192106573,0.09352316313229643,-0.0043474124657633785,0.009611283284346846
1668680447.8963883,14266,1668680447,896253158,,-0.09879857717695728,-0.6160097982875911,0.07088206676352206,0.99556121923066,0.09352316313626402,-0.004347412169237931,0.009611281307942489
1668680447.903465,14267,1668680447,903289542,,-0.09879856417988665,-0.6160097982865839,0.07088206676351644,0.9955612192500501,0.0935231631404721,-0.004347411898517482,0.009611279380952584
1668680447.9115567,14268,1668680447,911460812,,-0.09879855145276514,-0.6160097982856274,0.07088206676351111,0.9955612192688306,0.09352316314491822,-0.004347411653432005,0.00961127750323166
1668680447.9197617,14269,1668680447,919575069,,-0.09879853899936843,-0.6160097982847199,0.07088206676350609,0.9955612192870033,0.09352316314960019,-0.004347411433809277,0.009611275674628926
1668680447.927746,14270,1668680447,927639193,,-0.09879852682263446,-0.6160097982838593,0.07088206676350119,0.9955612193045711,0.09352316315451548,-0.0043474112394754055,0.009611273894988588
1668680447.9356468,14271,1668680447,935526005,,-0.09879851492472297,-0.6160097982830433,0.07088206676349665,0.9955612193215364,0.09352316315966153,-0.004347411070254481,0.009611272164150045
1668680447.9438963,14272,1668680447,943773088,,-0.09879850330707318,-0.6160097982822702,0.07088206676349235,0.9955612193379016,0.0935231631650358,-0.00434741092596899,0.009611270481947388
1668680447.9516642,14273,1668680447,951517683,,-0.09879849197045777,-0.6160097982815379,0.07088206676348813,0.9955612193536699,0.09352316317063566,-0.004347410806439405,0.00961126884821012
1668680447.95957,14274,1668680447,959477151,,-0.09879848091503374,-0.6160097982808451,0.07088206676348417,0.9955612193688436,0.09352316317645906,-0.004347410711484612,0.009611267262762636
1668680447.9677052,14275,1668680447,967601187,,-0.09879847014039136,-0.6160097982801895,0.07088206676348051,0.9955612193834257,0.09352316318250306,-0.004347410640921845,0.009611265725424723
1668680447.9757614,14276,1668680447,975583502,,-0.09879845964559913,-0.6160097982795699,0.07088206676347716,0.9955612193974187,0.0935231631887654,-0.004347410594566447,0.009611264236011373
1668680447.9835505,14277,1668680447,983341734,,-0.09879844942924733,-0.6160097982789844,0.0708820667634738,0.995561219410826,0.09352316319524323,-0.004347410572232302,0.009611262794332826
1668680447.991791,14278,1668680447,991657786,,-0.09879843948948797,-0.6160097982784315,0.0708820667634707,0.99556121942365,0.09352316320193442,-0.004347410573731517,0.00961126140019482
1668680447.99984,14279,1668680447,999698777,,-0.09879842982407426,-0.6160097982779099,0.07088206676346792,0.9955612194358939,0.09352316320883594,-0.004347410598874939,0.009611260053398685
1668680448.0082693,14280,1668680448,8070639,,-0.0987984204303946,-0.616009798277418,0.07088206676346522,0.9955612194475609,0.09352316321594573,-0.004347410647471478,0.009611258753740734
1668680448.0158062,14281,1668680448,15601681,,-0.09879841130550912,-0.6160097982769542,0.07088206676346259,0.995561219458654,0.09352316322326078,-0.004347410719329066,0.009611257501013494
1668680448.0240874,14282,1668680448,23898519,,-0.09879840244617863,-0.6160097982765176,0.07088206676346039,0.9955612194691761,0.09352316323077893,-0.004347410814253717,0.009611256295005003
1668680448.0318882,14283,1668680448,31785399,,-0.09879839384889703,-0.6160097982761068,0.07088206676345803,0.9955612194791306,0.0935231632384973,-0.004347410932050198,0.00961125513549841
1668680448.040404,14284,1668680448,40098878,,-0.09879838550991774,-0.6160097982757207,0.07088206676345594,0.9955612194885207,0.09352316324641345,-0.00434741107252201,0.009611254022273643
1668680448.047776,14285,1668680448,47583056,,-0.09879837742528107,-0.6160097982753576,0.07088206676345393,0.9955612194973498,0.09352316325452488,-0.004347411235471274,0.009611252955105615
1668680448.0564857,14286,1668680448,56216213,,-0.09879836959083815,-0.6160097982750166,0.0708820667634519,0.9955612195056209,0.09352316326282897,-0.004347411420698533,0.009611251933765259
1668680448.0641778,14287,1668680448,63859807,,-0.09879836200227488,-0.6160097982746972,0.07088206676345044,0.9955612195133378,0.093523163271323,-0.004347411628003551,0.009611250958019986
1668680448.0719888,14288,1668680448,71795026,,-0.09879835465513237,-0.6160097982743973,0.07088206676344855,0.9955612195205034,0.09352316328000444,-0.004347411857184389,0.009611250027632426
1668680448.0796554,14289,1668680448,79567166,,-0.09879834754482832,-0.6160097982741171,0.07088206676344704,0.9955612195271215,0.0935231632888706,-0.004347412108038208,0.009611249142362104
1668680448.0878243,14290,1668680448,87658736,,-0.09879834066667509,-0.6160097982738546,0.07088206676344563,0.9955612195331957,0.093523163297919,-0.004347412380360814,0.009611248301963998
1668680448.0954995,14291,1668680448,95307756,,-0.09879833401589767,-0.6160097982736095,0.07088206676344434,0.9955612195387293,0.09352316330714706,-0.004347412673947123,0.009611247506189887
1668680448.1037612,14292,1668680448,103651406,,-0.09879832758764917,-0.6160097982733806,0.07088206676344322,0.9955612195437258,0.09352316331655235,-0.004347412988590689,0.009611246754787325
1668680448.1117404,14293,1668680448,111604354,,-0.09879832137702772,-0.6160097982731675,0.070882066763442,0.9955612195481891,0.09352316332613177,-0.004347413324084211,0.009611246047500249
1668680448.1197715,14294,1668680448,119607291,,-0.09879831537908872,-0.6160097982729689,0.07088206676344089,0.9955612195521227,0.09352316333588301,-0.004347413680219181,0.0096112453840691
1668680448.1277823,14295,1668680448,127658186,,-0.09879830958885913,-0.6160097982727843,0.07088206676343996,0.9955612195555305,0.09352316334580353,-0.0043474140567863195,0.009611244764231041
1668680448.135814,14296,1668680448,135639448,,-0.09879830400134873,-0.6160097982726129,0.07088206676343906,0.9955612195584158,0.09352316335589048,-0.004347414453575075,0.00961124418771905
1668680448.143838,14297,1668680448,143734667,,-0.09879829861156213,-0.6160097982724538,0.07088206676343814,0.9955612195607828,0.09352316336614139,-0.004347414870374285,0.009611243654263284
1668680448.1520083,14298,1668680448,151852609,,-0.09879829341450802,-0.6160097982723068,0.07088206676343728,0.9955612195626351,0.09352316337655382,-0.004347415306971823,0.00961124316359047
1668680448.1599076,14299,1668680448,159803927,,-0.09879828840521018,-0.6160097982721708,0.0708820667634367,0.9955612195639767,0.09352316338712476,-0.004347415763154754,0.009611242715423724
1668680448.167852,14300,1668680448,167666623,,-0.09879828357871424,-0.6160097982720455,0.0708820667634359,0.9955612195648113,0.09352316339785202,-0.004347416238709137,0.009611242309483016
1668680448.1761322,14301,1668680448,175880445,,-0.09879827893009742,-0.61600979827193,0.07088206676343542,0.9955612195651431,0.0935231634087327,-0.004347416733420445,0.009611241945485467
1668680448.1835496,14302,1668680448,183447302,,-0.0987982744544748,-0.616009798271824,0.07088206676343488,0.9955612195649756,0.09352316341976409,-0.0043474172470732726,0.009611241623144454
1668680448.1920507,14303,1668680448,191868530,,-0.0987982701470058,-0.6160097982717267,0.07088206676343424,0.995561219564313,0.09352316343094391,-0.004347417779451547,0.009611241342170826
1668680448.19974,14304,1668680448,199613931,,-0.09879826600290138,-0.6160097982716382,0.07088206676343368,0.9955612195631596,0.09352316344226941,-0.004347418330338603,0.009611241102272369
1668680448.207744,14305,1668680448,207582045,,-0.09879826201742796,-0.616009798271557,0.07088206676343342,0.995561219561519,0.09352316345373787,-0.004347418899516914,0.009611240903153715
1668680448.2154853,14306,1668680448,215284552,,-0.09879825818591326,-0.6160097982714835,0.07088206676343302,0.9955612195593955,0.09352316346534688,-0.004347419486768517,0.00961124074451664
1668680448.2239654,14307,1668680448,223706938,,-0.09879825450375089,-0.6160097982714171,0.07088206676343274,0.9955612195567933,0.0935231634770935,-0.004347420091874918,0.00961124062606039
1668680448.231757,14308,1668680448,231633403,,-0.09879825096640303,-0.6160097982713572,0.0708820667634324,0.9955612195537162,0.09352316348897563,-0.004347420714616861,0.009611240547481184
1668680448.2397733,14309,1668680448,239647804,,-0.0987982475694052,-0.6160097982713033,0.07088206676343226,0.9955612195501687,0.09352316350099031,-0.004347421354774599,0.009611240508472544
1668680448.2477891,14310,1668680448,247698679,,-0.09879824430836895,-0.6160097982712555,0.07088206676343206,0.9955612195461548,0.09352316351313526,-0.00434742201212817,0.00961124050872543
1668680448.2557473,14311,1668680448,255606100,,-0.09879824117898425,-0.6160097982712128,0.07088206676343171,0.995561219541679,0.09352316352540735,-0.0043474226864568385,0.009611240547928078
1668680448.263547,14312,1668680448,263331754,,-0.0987982381770219,-0.6160097982711753,0.07088206676343153,0.995561219536745,0.09352316353780461,-0.004347423377539699,0.009611240625766643
1668680448.272645,14313,1668680448,272444896,,-0.09879823451957953,-0.6160097975371827,0.07088206676343144,0.9955612195313576,0.09352316355032421,-0.004347424085155212,0.009611240741924579
1668680448.2803972,14314,1668680448,280296208,,-0.0987982271506456,-0.6160097931928393,0.07088206676343138,0.9955612195255206,0.0935231635629636,-0.004347424809081551,0.009611240896082614
1668680448.288856,14315,1668680448,288542868,,-0.09879821014799854,-0.6160097796603298,0.0708820667634309,0.9955612195192388,0.09352316357572016,-0.004347425549096818,0.009611241087919714
1668680448.2965796,14316,1668680448,296351368,,-0.09879817496139759,-0.6160097488849056,0.0708820667634295,0.9955612195125163,0.0935231635885912,-0.0043474263049784485,0.0096112413171122
1668680448.3042119,14317,1668680448,304069349,,-0.09879811063715975,-0.6160096905465423,0.07088206676342473,0.9955612195053575,0.09352316360157431,-0.004347427076503799,0.009611241583334363
1668680448.3117228,14318,1668680448,311607598,,-0.0987980040297509,-0.6160095922593547,0.07088206676341086,0.9955612194977667,0.09352316361466707,-0.004347427863449883,0.00961124188625819
1668680448.3205843,14319,1668680448,320294759,,-0.09879784000100404,-0.616009439759352,0.07088206676337748,0.9955612194897482,0.09352316362786689,-0.004347428665593824,0.009611242225553849
1668680448.328316,14320,1668680448,328041688,,-0.0987976016075463,-0.6160092170810794,0.07088206676330565,0.9955612194813066,0.09352316364117104,-0.004347429482712176,0.009611242600889348
1668680448.3358297,14321,1668680448,335619070,,-0.0987972702769984,-0.6160089067236741,0.07088206676316568,0.9955612194724466,0.09352316365457705,-0.004347430314581623,0.009611243011930873
1668680448.3437965,14322,1668680448,343589997,,-0.09879682597348592,-0.6160084898068513,0.07088206676291309,0.995561219463172,0.09352316366808236,-0.0043474311609788055,0.009611243458342541
1668680448.351765,14323,1668680448,351652212,,-0.09879624735297907,-0.6160079462173011,0.07088206676248437,0.9955612194534879,0.09352316368168455,-0.0043474320216801195,0.00961124393978716
1668680448.359746,14324,1668680448,359605149,,-0.0987955119089602,-0.6160072547459687,0.07088206676179268,0.9955612194433983,0.09352316369538122,-0.004347432896462005,0.009611244455925275
1668680448.367742,14325,1668680448,367603557,,-0.09879459610889443,-0.6160063932166687,0.07088206676072378,0.995561219432908,0.09352316370916955,-0.004347433785101217,0.009611245006416542
1668680448.3759003,14326,1668680448,375772246,,-0.09879347552196016,-0.6160053386064608,0.07088206675913131,0.9955612194220214,0.09352316372304721,-0.004347434687374245,0.009611245590918738
1668680448.3834267,14327,1668680448,383242911,,-0.09879212493848072,-0.6160040671582059,0.07088206675683145,0.995561219410743,0.0935231637370118,-0.004347435603057799,0.00961124620908808
1668680448.3918443,14328,1668680448,391700647,,-0.09879051848147505,-0.6160025544856922,0.07088206675360029,0.9955612193990775,0.09352316375106082,-0.004347436531928983,0.009611246860579728
1668680448.4000506,14329,1668680448,399919457,,-0.09878862971072942,-0.6160007756717177,0.07088206674916876,0.9955612193870292,0.09352316376519167,-0.004347437473764904,0.00961124754504786
1668680448.4076655,14330,1668680448,407567985,,-0.09878643171977844,-0.6159987053594874,0.07088206674321784,0.995561219374603,0.09352316377940183,-0.0043474384283429335,0.009611248262145069
1668680448.4155335,14331,1668680448,415408927,,-0.0987838972261611,-0.6159963178376752,0.07088206673537728,0.9955612193618031,0.09352316379368923,-0.004347439395440933,0.009611249011523148
1668680448.423786,14332,1668680448,423673965,,-0.0987809986553085,-0.6159935871194834,0.0708820667252205,0.9955612193486343,0.09352316380805108,-0.004347440374836916,0.009611249792833135
1668680448.431783,14333,1668680448,431612772,,-0.09877770821839706,-0.6159904870160189,0.07088206671226335,0.995561219335101,0.09352316382248503,-0.004347441366309346,0.00961125060572463
1668680448.4396925,14334,1668680448,439579837,,-0.09877399798449402,-0.6159869912042905,0.07088206669596168,0.9955612193212079,0.0935231638369887,-0.004347442369637359,0.009611251449847454
1668680448.447872,14335,1668680448,447753354,,-0.09876983994730153,-0.6159830732901138,0.0708820666757091,0.9955612193069596,0.09352316385155952,-0.004347443384600168,0.009611252324849573
1668680448.4558032,14336,1668680448,455662718,,-0.09876520608679498,-0.615978706866212,0.07088206665083727,0.9955612192923607,0.0935231638661953,-0.004347444410977695,0.009611253230379422
1668680448.4639459,14337,1668680448,463728820,,-0.09876006842603814,-0.6159738655657666,0.07088206662061422,0.9955612192774155,0.09352316388089373,-0.0043474454485505415,0.009611254166084349
1668680448.472121,14338,1668680448,471922137,,-0.09875439908344334,-0.6159685231116807,0.07088206658424516,0.995561219262129,0.09352316389565199,-0.0043474464970997785,0.009611255131611356
1668680448.4803445,14339,1668680448,480015996,,-0.0987481703207325,-0.6159626533617908,0.07088206654087242,0.9955612192465055,0.0935231639104681,-0.004347447556407097,0.00961125612660732
1668680448.487832,14340,1668680448,487657960,,-0.09874135458684741,-0.6159562303502618,0.07088206648957751,0.9955612192305499,0.09352316392533956,-0.0043474486262549735,0.009611257150718667
1668680448.4956338,14341,1668680448,495485866,,-0.09873392455803796,-0.6159492283253839,0.0708820664293822,0.9955612192142663,0.09352316394026396,-0.004347449706426337,0.009611258203591728
1668680448.5035994,14342,1668680448,503429196,,-0.09872585317435592,-0.6159416217839808,0.07088206635925003,0.9955612191976598,0.09352316395523894,-0.004347450796705231,0.009611259284872817
1668680448.5118058,14343,1668680448,511666650,,-0.09871711367276219,-0.6159333855026298,0.0708820662780895,0.9955612191807345,0.09352316397026232,-0.004347451896876164,0.009611260394207625
1668680448.519622,14344,1668680448,519521310,,-0.09870767961705348,-0.6159244945658852,0.07088206618475698,0.9955612191634953,0.09352316398533168,-0.004347453006724429,0.00961126153124248
1668680448.5277824,14345,1668680448,527634633,,-0.09869752492479761,-0.6159149243916844,0.07088206607806063,0.9955612191459465,0.09352316400044475,-0.004347454126036571,0.00961126269562385
1668680448.5354319,14346,1668680448,535287355,,-0.0986866238914623,-0.6159046507541095,0.0708820659567619,0.9955612191280931,0.09352316401559913,-0.004347455254599371,0.009611263886997571
1668680448.5438876,14347,1668680448,543734436,,-0.09867495121191153,-0.6158936498036707,0.07088206581958195,0.9955612191099393,0.09352316403079261,-0.0043474563922010385,0.009611265105010465
1668680448.5517166,14348,1668680448,551594005,,-0.0986624819994341,-0.615881898085265,0.07088206566520444,0.9955612190914895,0.09352316404602308,-0.004347457538630237,0.009611266349309039
1668680448.559708,14349,1668680448,559592799,,-0.09864919180246357,-0.6158693725539598,0.07088206549227997,0.9955612190727487,0.093523164061288,-0.004347458693676825,0.00961126761954041
1668680448.5676408,14350,1668680448,567533587,,-0.09863505661913681,-0.6158560505887426,0.0708820652994314,0.9955612190537212,0.0935231640765855,-0.0043474598571316405,0.00961126891535185
1668680448.5754943,14351,1668680448,575303306,,-0.09862005290983578,-0.6158419100043684,0.07088206508525771,0.9955612190344114,0.0935231640919128,-0.004347461028786274,0.009611270236391004
1668680448.5838234,14352,1668680448,583651448,,-0.09860415760784394,-0.6158269290614358,0.07088206484833974,0.995561219014824,0.0935231641072681,-0.004347462208433522,0.009611271582306364
1668680448.5916226,14353,1668680448,591504812,,-0.09858734812824894,-0.6158110864748059,0.07088206458724401,0.9955612189949634,0.09352316412264898,-0.004347463395867087,0.009611272952746183
1668680448.5996845,14354,1668680448,599548294,,-0.09856960237520924,-0.6157943614204863,0.07088206430052901,0.9955612189748341,0.09352316413805345,-0.0043474645908817364,0.009611274347359682
1668680448.6077442,14355,1668680448,607635782,,-0.09855089874770266,-0.615776733541082,0.0708820639867483,0.9955612189544405,0.09352316415347921,-0.004347465793273251,0.009611275765796352
1668680448.6159427,14356,1668680448,615777717,,-0.09853121614386232,-0.6157581829499167,0.07088206364445734,0.9955612189337872,0.09352316416892383,-0.0043474670028383336,0.009611277207706518
1668680448.6241527,14357,1668680448,623861188,,-0.09851053396400548,-0.6157386902339249,0.07088206327221726,0.9955612189128787,0.0935231641843856,-0.004347468219374984,0.009611278672740768
1668680448.6317337,14358,1668680448,631637931,,-0.09848883211245237,-0.6157182364554019,0.07088206286859948,0.9955612188917193,0.0935231641998621,-0.004347469442682189,0.009611280160550848
1668680448.6397462,14359,1668680448,639626879,,-0.09846609099822537,-0.6156968031527021,0.07088206243219114,0.9955612188703136,0.09352316421535135,-0.004347470672560109,0.009611281670788587
1668680448.6477528,14360,1668680448,647575753,,-0.09844229153471692,-0.615674372339967,0.07088206196159892,0.9955612188486658,0.09352316423085108,-0.004347471908809863,0.009611283203106738
1668680448.6558154,14361,1668680448,655624540,,-0.09841725737969775,-0.6156509264990039,0.07088206145423799,0.9955612188267797,0.09352316424635924,-0.0043474731512610386,0.009611284757220341
1668680448.6638496,14362,1668680448,663720182,,-0.09839016901238644,-0.6156264485593844,0.07088307420587646,0.9955612188046552,0.09352316426187315,-0.004347474399897185,0.009611286333188725
1668680448.672183,14363,1668680448,671857199,,-0.09836043040875654,-0.6156009219119438,0.07088603141577399,0.9955612187822894,0.09352316427739021,-0.004347475654787378,0.009611287931260927
1668680448.679957,14364,1668680448,679753872,,-0.09832780386947586,-0.6155743304294193,0.07089130970146491,0.9955612187596844,0.09352316429290801,-0.0043474769158491034,0.009611289551340992
1668680448.6878989,14365,1668680448,687732029,,-0.09829199857848572,-0.6155466584238332,0.07089985639319302,0.9955612187368386,0.09352316430842376,-0.004347478183107988,0.009611291193573278
1668680448.69557,14366,1668680448,695475540,,-0.098253058021617,-0.6155178906801012,0.07091232180887042,0.995561218713754,0.09352316432393556,-0.004347479456460306,0.009611292857810051
1668680448.7033195,14367,1668680448,703213390,,-0.09821123276886011,-0.6154880124638804,0.07092761011225825,0.9955612186904351,0.0935231643394409,-0.004347480735719654,0.009611294543716469
1668680448.7120476,14368,1668680448,711915585,,-0.09816679537729751,-0.6154570095412654,0.07094438615031383,0.9955612186668882,0.09352316435493839,-0.004347482020615209,0.009611296250768403
1668680448.7198162,14369,1668680448,719621769,,-0.09812360157160435,-0.6154244686119011,0.07096729413138657,0.995561218643153,0.09352316437042968,-0.004347483309583736,0.00961129797555375
1668680448.727625,14370,1668680448,727530762,,-0.09808717272022166,-0.6153897979992612,0.07100313622620669,0.9955612186193104,0.09352316438592084,-0.004347484599443804,0.00961129971103616
1668680448.7355938,14371,1668680448,735401120,,-0.0980636666508349,-0.6153531409994182,0.07105158426773794,0.9955612185953818,0.09352316440141197,-0.004347485889372973,0.009611301455407702
1668680448.7438579,14372,1668680448,743685081,,-0.0980567499216825,-0.615314841833429,0.07110977427060394,0.9955612185713281,0.09352316441689704,-0.0043474871809014055,0.009611303212059986
1668680448.7518075,14373,1668680448,751630361,,-0.0980628282467936,-0.6152691705880463,0.07117436039809344,0.9955612185470415,0.09352316443236257,-0.0043474884782497055,0.009611304990411334
1668680448.7601864,14374,1668680448,760034913,,-0.09807744468830325,-0.6152078149872058,0.07124094482980718,0.9955612185224448,0.09352316444779883,-0.004347489784416125,0.009611306797175374
1668680448.7681348,14375,1668680448,767871618,,-0.09810161882054072,-0.6151305396337279,0.07130664261936087,0.9955612184974532,0.09352316446319454,-0.004347491102717334,0.009611308639745466
1668680448.7758412,14376,1668680448,775650491,,-0.09813899079384822,-0.615041068020888,0.07136941855132437,0.9955612184719254,0.0935231644785338,-0.004347492438696503,0.009611310530403618
1668680448.7840893,14377,1668680448,783967723,,-0.09818985053337408,-0.6149412173764465,0.07142869619456382,0.9955612184457489,0.09352316449380266,-0.0043474937967635935,0.00961131247896058
1668680448.7917852,14378,1668680448,791674364,,-0.09825443031632075,-0.6148322486758963,0.07148902631767559,0.9955612184188335,0.09352316450898959,-0.004347495180433696,0.009611314493262
1668680448.8004913,14379,1668680448,800296630,,-0.09832941749788703,-0.6147194201335094,0.0715519598267755,0.995561218391221,0.0935231645240958,-0.004347496588036481,0.009611316569728908
1668680448.8078048,14380,1668680448,807684750,,-0.0984082895948314,-0.6146093060360793,0.07161313420531812,0.9955612183633004,0.09352316453915778,-0.004347498004225112,0.009611318674653578
1668680448.8157678,14381,1668680448,815665605,,-0.09848604296944768,-0.6145071916601438,0.07167043439165685,0.9955612183353791,0.09352316455420387,-0.0043474994168772605,0.009611320781400137
1668680448.8234081,14382,1668680448,823312477,,-0.09855900155475063,-0.6144186726426775,0.07172292536707225,0.9955612183077373,0.09352316456926017,-0.0043475008149545715,0.009611322865711456
1668680448.8320491,14383,1668680448,831858313,,-0.09862626648229939,-0.6143455512657795,0.07177049293110134,0.9955612182804352,0.09352316458433095,-0.00434750219606136,0.009611324922358368
1668680448.8398569,14384,1668680448,839668227,,-0.09868744893812804,-0.6142880849978346,0.0718132245889635,0.9955612182534274,0.09352316459940968,-0.004347503561976868,0.009611326955305897
1668680448.8477829,14385,1668680448,847617025,,-0.09874115351765336,-0.6142466050390574,0.07185110132534214,0.9955612182267098,0.09352316461449445,-0.004347504912852905,0.009611328964943175
1668680448.8556504,14386,1668680448,855452730,,-0.09878603715554536,-0.6142199121746574,0.07188426373414963,0.9955612182002466,0.09352316462957934,-0.0043475062500849555,0.009611330954402928
1668680448.86379,14387,1668680448,863614525,,-0.09882192386040566,-0.6142067420879838,0.0719129602173237,0.9955612181739614,0.09352316464465434,-0.0043475075766690845,0.009611332930341283
1668680448.8717766,14388,1668680448,871631532,,-0.09884917986984408,-0.6142020646390537,0.07193855008068538,0.9955612181477576,0.09352316465970775,-0.004347508896394085,0.00961133490114747
1668680448.8796809,14389,1668680448,879516596,,-0.09886743555137877,-0.6141969941142503,0.07196487597685862,0.9955612181215495,0.09352316467472903,-0.004347510212634999,0.009611336874282433
1668680448.8876097,14390,1668680448,887478679,,-0.0988760248190459,-0.6141848736870358,0.07199577954016467,0.9955612180952946,0.09352316468971171,-0.004347511527072833,0.00961133885347794
1668680448.8959084,14391,1668680448,895808268,,-0.09887581408668161,-0.6141611907307732,0.07203444387300333,0.9955612180689671,0.09352316470465127,-0.004347512840708451,0.009611340840958656
1668680448.9040065,14392,1668680448,903841763,,-0.09886892804990735,-0.6141230786285289,0.07208465358820455,0.9955612180425506,0.09352316471954435,-0.004347514154204645,0.009611342838183653
1668680448.912183,14393,1668680448,911689241,,-0.0988565910761284,-0.6140705490296469,0.07214763265580894,0.9955612180160431,0.09352316473438874,-0.004347515467634198,0.009611344845327864
1668680448.919782,14394,1668680448,919658464,,-0.09883949945380995,-0.6140040952633753,0.07222343051304912,0.9955612179894481,0.09352316474918272,-0.004347516780860654,0.009611346862120526
1668680448.9284203,14395,1668680448,928245753,,-0.09881878699832987,-0.6139241035638285,0.0723128040558229,0.995561217962767,0.09352316476392468,-0.004347518093830982,0.009611348888463486
1668680448.935694,14396,1668680448,935551565,,-0.09879526713561945,-0.6138314176228133,0.07241563023171696,0.9955612179360013,0.09352316477861315,-0.004347519406472167,0.00961135092421848
1668680448.9433336,14397,1668680448,943238172,,-0.09876763382803896,-0.6137278342767376,0.07252966037431192,0.9955612179091591,0.093523164793247,-0.004347520718468868,0.009611352968735633
1668680448.9519155,14398,1668680448,951741747,,-0.09873443287425555,-0.6136150764110727,0.07265241202087898,0.995561217882253,0.09352316480782528,-0.0043475220292961934,0.009611355020920176
1668680448.9598236,14399,1668680448,959638829,,-0.09869507284367016,-0.6134952630629219,0.07278077024374667,0.9955612178552863,0.09352316482234645,-0.004347523338834364,0.009611357080546737
1668680448.967736,14400,1668680448,967622860,,-0.09864857881267441,-0.6133711099712178,0.07291070068498512,0.9955612178282588,0.09352316483680859,-0.004347524647061994,0.009611359147623266
1668680448.975878,14401,1668680448,975769342,,-0.0985944823213766,-0.6132444889005859,0.07303969858049174,0.9955612178011599,0.09352316485120885,-0.0043475259543918785,0.009611361223101881
1668680448.98343,14402,1668680448,983308631,,-0.09853276517317487,-0.6131171561785284,0.07316665622251282,0.9955612177739726,0.09352316486554343,-0.004347527261490625,0.009611363308489435
1668680448.9917884,14403,1668680448,991655705,,-0.09846383489787315,-0.612989940555095,0.07329152686204876,0.9955612177466796,0.09352316487980898,-0.0043475285690307425,0.009611365405293764
1668680448.999841,14404,1668680448,999671918,,-0.0983880959857913,-0.6128632332397824,0.0734142513609005,0.995561217719267,0.09352316489400236,-0.004347529877558652,0.00961136751473693
1668680449.008333,14405,1668680449,8065158,,-0.09830592062875985,-0.6127380624709008,0.07353512163804551,0.9955612176917198,0.09352316490812038,-0.004347531187661227,0.009611369638133903
1668680449.0154014,14406,1668680449,15279676,,-0.09821767584645712,-0.6126153105797971,0.07365456899127648,0.9955612176640235,0.09352316492215974,-0.004347532499916562,0.009611371776777884
1668680449.0240922,14407,1668680449,23917669,,-0.09812371932747352,-0.6124951108397519,0.07377265127010557,0.9955612176361684,0.0935231649361178,-0.004347533814700521,0.009611373931510035
1668680449.0325198,14408,1668680449,32347247,,-0.09802460750995418,-0.612377410475755,0.07389116776243415,0.9955612176081532,0.09352316494999287,-0.004347535132074911,0.009611376102470792
1668680449.0405247,14409,1668680449,40407038,,-0.09792190752137135,-0.612262203666027,0.0740146464001411,0.9955612175799993,0.09352316496378583,-0.004347536451206811,0.00961137828780981
1668680449.048641,14410,1668680449,48513945,,-0.0978174081611881,-0.6121493172061018,0.07414684250283772,0.9955612175517541,0.09352316497749998,-0.0043475377702373846,0.009611380483396033
1668680449.0563624,14411,1668680449,56266463,,-0.09771291592034485,-0.6120378621198246,0.07428913720841705,0.9955612175234679,0.09352316499113902,-0.004347539087213105,0.009611382684891012
1668680449.0639143,14412,1668680449,63788720,,-0.09760941734285027,-0.6119261066470041,0.07444154075354073,0.9955612174951985,0.09352316500470749,-0.004347540399880182,0.009611384887288743
1668680449.0719955,14413,1668680449,71812413,,-0.097506610464702,-0.6118131248865216,0.07460323120906279,0.9955612174669513,0.09352316501820455,-0.004347541708032065,0.009611387090138552
1668680449.0799592,14414,1668680449,79791110,,-0.09740426877822504,-0.6116984780122963,0.0747733028742325,0.995561217438726,0.09352316503162855,-0.004347543011664766,0.009611389293439243
1668680449.0877984,14415,1668680449,87633206,,-0.09730227864679088,-0.6115817873613383,0.0749509288571867,0.9955612174105268,0.09352316504497837,-0.00434754431064141,0.00961139149689241
1668680449.0957255,14416,1668680449,95627640,,-0.09720064774433021,-0.6114631842313378,0.07513519851840143,0.9955612173823558,0.09352316505825278,-0.0043475456048715595,0.009611393700301542
1668680449.1034572,14417,1668680449,103245983,,-0.09709873566860583,-0.6113435418931646,0.0753250432665513,0.9955612173541999,0.09352316507144898,-0.004347546894867072,0.00961139590480967
1668680449.1117773,14418,1668680449,111602802,,-0.09699589774871677,-0.6112236508949478,0.07551945569160325,0.995561217326033,0.09352316508456295,-0.004347548181661623,0.009611398112720196
1668680449.1199856,14419,1668680449,119820228,,-0.0968909293012245,-0.6111040890843471,0.07571721232180913,0.9955612172978339,0.09352316509759111,-0.004347549466072793,0.009611400325852256
1668680449.1276376,14420,1668680449,127538106,,-0.09678211143439418,-0.6109857176671366,0.07591692647408874,0.9955612172695459,0.0935231651105258,-0.004347550750344281,0.009611402549195978
1668680449.1355333,14421,1668680449,135428123,,-0.09666874896924398,-0.6108687712613681,0.07611746316194347,0.9955612172411396,0.0935231651233631,-0.004347552035614007,0.009611404785274148
1668680449.144113,14422,1668680449,143963140,,-0.09655081837022327,-0.6107531278887974,0.07631802881971429,0.9955612172126068,0.09352316513610076,-0.004347553322210935,0.00961140703480626
1668680449.1517806,14423,1668680449,151692499,,-0.09642888673903399,-0.610637894282969,0.07651877586025935,0.9955612171839648,0.09352316514873918,-0.004347554609483243,0.009611409296329506
1668680449.1598108,14424,1668680449,159657740,,-0.09630364561684752,-0.610521872965269,0.07672013522984493,0.995561217155251,0.09352316516128151,-0.004347555895969271,0.00961141156658198
1668680449.1676717,14425,1668680449,167564643,,-0.09617736955218698,-0.6104053055827868,0.07692252261730283,0.9955612171265261,0.09352316517373217,-0.004347557179303918,0.009611413840295223
1668680449.1754668,14426,1668680449,175304788,,-0.09605301701636713,-0.6102891256864851,0.07712632990512998,0.9955612170978959,0.09352316518610108,-0.004347558455360715,0.00961141610828861
1668680449.1837578,14427,1668680449,183623354,,-0.09593136037818964,-0.6101735440745739,0.07733134472303645,0.9955612170693974,0.09352316519839059,-0.004347559722698066,0.009611418367348933
1668680449.1918845,14428,1668680449,191682138,,-0.09581406256158265,-0.61005858937286,0.07753968932897855,0.995561217041063,0.09352316521060264,-0.004347560980063249,0.00961142061468159
1668680449.1998432,14429,1668680449,199593308,,-0.09570446052295059,-0.6099443782867179,0.07775565914161113,0.9955612170129934,0.09352316522274629,-0.00434756222352854,0.009611422841542192
1668680449.207845,14430,1668680449,207699793,,-0.09560458213719657,-0.6098308841897845,0.07798181476694267,0.9955612169852351,0.09352316523482485,-0.004347563451282371,0.009611425043883041
1668680449.2162027,14431,1668680449,215974008,,-0.09551493237446664,-0.609718009986944,0.07821903277810888,0.9955612169577716,0.09352316524683534,-0.004347564663997577,0.009611427223174342
1668680449.2237337,14432,1668680449,223434947,,-0.09543497953426575,-0.6096056261859741,0.0784670662964382,0.9955612169305577,0.09352316525877241,-0.00434756586343951,0.009611429383314048
1668680449.2316253,14433,1668680449,231530478,,-0.09536373523517686,-0.6094935836979001,0.07872478089114646,0.9955612169035427,0.09352316527062964,-0.004347567051612108,0.009611431528734046
1668680449.2397501,14434,1668680449,239633520,,-0.09530027425887146,-0.6093817353972015,0.07899101415372749,0.9955612168766869,0.09352316528240207,-0.004347568230069492,0.009611433662866056
1668680449.2477446,14435,1668680449,247562572,,-0.09524371295196962,-0.6092699934262003,0.07926454464804673,0.9955612168499601,0.09352316529408576,-0.004347569400011581,0.009611435788356604
1668680449.2558353,14436,1668680449,255657355,,-0.09519322095957518,-0.6091582921504901,0.07954405130152647,0.9955612168233399,0.09352316530567695,-0.004347570562333242,0.009611437907174667
1668680449.2637641,14437,1668680449,263616387,,-0.09514822102293016,-0.6090465462710888,0.07982864557320603,0.9955612167968103,0.09352316531717361,-0.004347571717652339,0.009611440020672568
1668680449.2720668,14438,1668680449,271730735,,-0.09510817459297513,-0.6089346489892535,0.08011756983878063,0.995561216770361,0.09352316532857324,-0.004347572866393,0.009611442129770265
1668680449.2802148,14439,1668680449,280057804,,-0.09507077532419385,-0.6088223160735756,0.08041112085383292,0.9955612167439853,0.09352316533987427,-0.004347574008826252,0.009611444235065372
1668680449.2878516,14440,1668680449,287678114,,-0.09503303800568574,-0.6087091966531558,0.08071020238029983,0.9955612167176835,0.09352316535107581,-0.004347575144934825,0.009611446336535795
1668680449.2955928,14441,1668680449,295363925,,-0.09499209536344709,-0.6085939440377303,0.08101473255071799,0.9955612166914588,0.09352316536217704,-0.004347576274593209,0.00961144843390727
1668680449.3038497,14442,1668680449,303670283,,-0.09494616312553518,-0.6084754061593727,0.08132398488376559,0.9955612166653109,0.0935231653731767,-0.004347577397820551,0.00961145052721763
1668680449.3120654,14443,1668680449,311959792,,-0.09489390163207803,-0.6083523803438752,0.08163720968702289,0.9955612166392342,0.09352316538407338,-0.004347578514853288,0.009611452616966673
1668680449.3195882,14444,1668680449,319501166,,-0.0948333319136024,-0.6082230668827869,0.08195383191691465,0.9955612166132156,0.09352316539486537,-0.0043475796262067564,0.009611454704282655
1668680449.3276546,14445,1668680449,327556616,,-0.09476323911565139,-0.6080861338390204,0.08227325157689604,0.9955612165872371,0.09352316540554956,-0.004347580732600614,0.009611456790733396
1668680449.335757,14446,1668680449,335584462,,-0.0946823034100408,-0.6079404413767261,0.08259409559546839,0.9955612165612733,0.09352316541612261,-0.0043475818350454075,0.009611458878529973
1668680449.3437254,14447,1668680449,343609182,,-0.0945901606179175,-0.6077859619138865,0.08291492756966326,0.9955612165352953,0.09352316542658111,-0.004347582934687471,0.009611460970179075
1668680449.3524659,14448,1668680449,352186120,,-0.09448695170893064,-0.6076229769258074,0.08323475024629312,0.995561216509281,0.09352316543692213,-0.004347584032412548,0.009611463067599113
1668680449.3602185,14449,1668680449,359852979,,-0.0943725537899575,-0.6074522218043535,0.08355135762964201,0.9955612164831988,0.09352316544714169,-0.004347585129469985,0.009611465173518128
1668680449.367763,14450,1668680449,367667919,,-0.0942472431487014,-0.6072749617375124,0.08386240855623878,0.9955612164570177,0.09352316545723628,-0.004347586227113299,0.00961146729066999
1668680449.3757238,14451,1668680449,375589482,,-0.09411148834714415,-0.607092450117058,0.08416599763810727,0.9955612164307107,0.09352316546720278,-0.004347587326392249,0.009611469421332477
1668680449.383388,14452,1668680449,383278786,,-0.09396584213842223,-0.6069061253166343,0.08446039689919867,0.9955612164042527,0.09352316547703797,-0.004347588428338143,0.009611471567739732
1668680449.3917518,14453,1668680449,391544004,,-0.09381090591650804,-0.6067167759617339,0.08474508234124911,0.9955612163776256,0.09352316548673979,-0.004347589533656362,0.009611473731400658
1668680449.3996394,14454,1668680449,399487061,,-0.09364726767846877,-0.6065248870533736,0.08501990598624534,0.9955612163508227,0.09352316549630725,-0.004347590642645611,0.00961147591291935
1668680449.4078794,14455,1668680449,407747983,,-0.09347547196048109,-0.6063308104523707,0.08528484350865029,0.9955612163238385,0.09352316550573926,-0.004347591755554057,0.009611478112787064
1668680449.4158163,14456,1668680449,415665075,,-0.09329604865362756,-0.6061345434551854,0.08554029480800905,0.9955612162966774,0.09352316551503612,-0.004347592872214563,0.009611480330572396
1668680449.423434,14457,1668680449,423323789,,-0.09310950593219419,-0.605935848448279,0.08578757143263693,0.9955612162693505,0.09352316552419843,-0.004347593992231429,0.009611482565336773
1668680449.431878,14458,1668680449,431735099,,-0.09291632884035401,-0.6057345602272642,0.08602784836816964,0.9955612162418738,0.09352316553322733,-0.004347595114993717,0.009611484815663393
1668680449.439706,14459,1668680449,439612008,,-0.09271675296281627,-0.6055310461582231,0.08626108226845548,0.9955612162142476,0.09352316554212306,-0.004347596240507806,0.009611487081505051
1668680449.44761,14460,1668680449,447526348,,-0.09251088680832754,-0.6053257440425686,0.0864871826944717,0.9955612161864582,0.09352316555088391,-0.00434759736935562,0.009611489364090566
1668680449.4557147,14461,1668680449,455475123,,-0.09229864112244834,-0.6051193298841883,0.08670558707678175,0.9955612161584849,0.0935231655595076,-0.004347598502360882,0.009611491665182223
1668680449.4640665,14462,1668680449,463795551,,-0.09208006175510121,-0.6049123281478027,0.0869158571847441,0.995561216130297,0.09352316556799126,-0.004347599640736625,0.009611493987403451
1668680449.4720037,14463,1668680449,471808616,,-0.09185516685482814,-0.6047056158387762,0.0871173786149346,0.9955612161018805,0.0935231655763335,-0.004347600785079297,0.00961149633200607
1668680449.4801717,14464,1668680449,480025031,,-0.09162374042862115,-0.6045004483906044,0.08730915765357176,0.9955612160731719,0.09352316558452857,-0.0043476019378810744,0.00961149870444294
1668680449.4879272,14465,1668680449,487801519,,-0.09138673882532362,-0.6042979320996626,0.08749081669883742,0.9955612160441774,0.09352316559257703,-0.004347603098950936,0.009611501104212425
1668680449.4956038,14466,1668680449,495457596,,-0.09114565730014008,-0.6040990537769199,0.08766230248365997,0.9955612160149705,0.09352316560048594,-0.004347604265419808,0.00961150352487149
1668680449.5041177,14467,1668680449,503920026,,-0.09090118974652263,-0.6039039065121591,0.08782390922509203,0.995561215985598,0.09352316560825985,-0.0043476054354968825,0.009611505962372724
1668680449.5119493,14468,1668680449,511792747,,-0.09065380747563005,-0.6037144315062661,0.087975089402881,0.995561215956055,0.09352316561589845,-0.0043476066094022955,0.0096115084171287
1668680449.5198617,14469,1668680449,519662127,,-0.09040467051818883,-0.6035342320426319,0.08811487661238873,0.9955612159263126,0.09352316562339921,-0.004347607788281577,0.009611510891602204
1668680449.5278122,14470,1668680449,527658079,,-0.09015503760718933,-0.6033652803499272,0.08824315568313436,0.9955612158964142,0.09352316563076628,-0.004347608970484764,0.009611513382055044
1668680449.5354602,14471,1668680449,535318536,,-0.08990492431089817,-0.6032060284068004,0.08836077352006994,0.9955612158663999,0.09352316563800343,-0.004347610154462177,0.009611515884972301
1668680449.5437498,14472,1668680449,543604277,,-0.0896539612338985,-0.603054061593556,0.0884687855653632,0.9955612158363086,0.09352316564511426,-0.0043476113387127145,0.009611518396949804
1668680449.5517747,14473,1668680449,551608896,,-0.08940082327059118,-0.6029065975200643,0.08856844955218984,0.9955612158061276,0.09352316565209785,-0.004347612523771847,0.009611520919098207
1668680449.5597053,14474,1668680449,559601175,,-0.08914355106285092,-0.6027599758481307,0.08866131685507483,0.995561215775783,0.0935231656589482,-0.004347613712559532,0.009611523457813353
1668680449.567819,14475,1668680449,567655904,,-0.08888062800949566,-0.6026114379982094,0.08874844555047479,0.9955612157452262,0.09352316566566099,-0.004347614907002814,0.009611526017282088
1668680449.5756624,14476,1668680449,575526206,,-0.08860966519779152,-0.6024577001728351,0.08883091869993577,0.9955612157143483,0.09352316567222796,-0.004347616111394795,0.009611528606930387
1668680449.5834045,14477,1668680449,583214545,,-0.08832867384295935,-0.6022962160133121,0.08890966742058018,0.9955612156830139,0.09352316567863804,-0.004347617331064005,0.009611531238469579
1668680449.5916877,14478,1668680449,591593543,,-0.0880375804751376,-0.6021264835328125,0.08898508255747554,0.995561215651195,0.09352316568488996,-0.004347618567152181,0.009611533914315969
1668680449.5998526,14479,1668680449,599705695,,-0.08773755877224973,-0.6019476512475365,0.08905880103743023,0.9955612156189954,0.09352316569099368,-0.004347619815635641,0.009611536625432125
1668680449.6077535,14480,1668680449,607582621,,-0.08742986576430817,-0.6017582260920976,0.08913313836061289,0.9955612155865982,0.09352316569696514,-0.0043476210693854465,0.00961153935590293
1668680449.615649,14481,1668680449,615562539,,-0.08711533594801296,-0.6015565856223349,0.08921085216961087,0.9955612155541403,0.09352316570281644,-0.004347622323089787,0.009611542093856146
1668680449.6234498,14482,1668680449,623341750,,-0.0867934707277393,-0.6013414352399216,0.0892944125117017,0.9955612155216652,0.09352316570855179,-0.004347623575072044,0.00961154483548806
1668680449.6325674,14483,1668680449,632425267,,-0.08646385422204625,-0.6011132415115807,0.08938393562113514,0.9955612154890754,0.09352316571416332,-0.00434762482918367,0.009611547589253344
1668680449.6407228,14484,1668680449,640543747,,-0.086126641369767,-0.6008727156160963,0.08947916765120628,0.9955612154563764,0.09352316571965262,-0.004347626085236528,0.00961155035464071
1668680449.6483645,14485,1668680449,648227737,,-0.08578199459638981,-0.6006213883204871,0.08957958230329832,0.9955612154235175,0.09352316572501637,-0.0043476273452411,0.009611553136012245
1668680449.6563118,14486,1668680449,655689660,,-0.08543000744145852,-0.600362795861867,0.08968308237539382,0.9955612153904084,0.09352316573024802,-0.004347628612775615,0.0096115559411974
1668680449.6637728,14487,1668680449,663510894,,-0.08507042198999354,-0.600100314166488,0.08978737172405812,0.9955612153568577,0.09352316573533401,-0.004347629895348541,0.009611558786727514
1668680449.6718888,14488,1668680449,671753190,,-0.08470367106462474,-0.5998352389388388,0.08989154314770076,0.9955612153228262,0.09352316574027289,-0.004347631194542593,0.00961156167597969
1668680449.679662,14489,1668680449,679488038,,-0.08433017365486498,-0.5995686549018865,0.08999490235671646,0.9955612152883324,0.09352316574506778,-0.004347632509666342,0.00961156460728197
1668680449.687981,14490,1668680449,687790647,,-0.08395014675373424,-0.5993020096869398,0.09009654802722154,0.9955612152533192,0.09352316574971599,-0.004347633843021854,0.009611567585597832
1668680449.6956594,14491,1668680449,695530156,,-0.08356409881949466,-0.5990363858136208,0.09019597477957843,0.9955612152177877,0.09352316575421983,-0.004347635194592332,0.009611570610742796
1668680449.7037978,14492,1668680449,703667426,,-0.08317268648406587,-0.5987723276528736,0.09029298562665268,0.9955612151817773,0.09352316575858398,-0.004347636562895997,0.009611573679281787
1668680449.7118196,14493,1668680449,711680712,,-0.0827767565181898,-0.5985098457184518,0.09038814672127682,0.9955612151453836,0.09352316576281715,-0.004347637944246071,0.009611576782894806
1668680449.7199028,14494,1668680449,719724992,,-0.08237719868781054,-0.5982490075094344,0.09048228394186086,0.9955612151087213,0.09352316576692943,-0.004347639334207852,0.00961157991161294
1668680449.7278416,14495,1668680449,727649041,,-0.08197473695730008,-0.5979895541457322,0.09057624500170977,0.9955612150718953,0.09352316577092938,-0.0043476407287272615,0.009611583056321253
1668680449.735547,14496,1668680449,735373094,,-0.08157025625537365,-0.5977303772761571,0.09067234924976854,0.9955612150350591,0.0935231657748288,-0.004347642121845698,0.009611586203696426
1668680449.743648,14497,1668680449,743528332,,-0.0811644797846602,-0.5974706512949716,0.09077207630611055,0.9955612149983816,0.09352316577864032,-0.004347643507000146,0.00961158933908962
1668680449.7525063,14498,1668680449,752356537,,-0.08075792403691338,-0.5972099909245494,0.09087591671677597,0.9955612149619407,0.0935231657823694,-0.004347644881172139,0.009611592455731741
1668680449.760522,14499,1668680449,760310714,,-0.08035106636897145,-0.5969476097519676,0.09098507949785045,0.995561214925851,0.09352316578602367,-0.004347646239925983,0.009611595543719743
1668680449.7685509,14500,1668680449,768318791,,-0.07994417519085488,-0.5966829807525535,0.09110009924689705,0.9955612148901795,0.09352316578960825,-0.004347647580651434,0.009611598597210278
1668680449.7758987,14501,1668680449,775742737,,-0.07953765364101957,-0.5964157107808903,0.09122121857439551,0.995561214854993,0.0935231657931267,-0.004347648900760903,0.009611601610419651
1668680449.783886,14502,1668680449,783781954,,-0.0791318689217627,-0.5961456690782188,0.09134824410645416,0.9955612148203633,0.09352316579658358,-0.004347650197481092,0.00961160457715876
1668680449.7917893,14503,1668680449,791650104,,-0.07872708483900594,-0.5958731908724189,0.0914808049214882,0.9955612147863085,0.0935231657999792,-0.004347651470104257,0.00961160749582607
1668680449.7999322,14504,1668680449,799642278,,-0.07832358678796975,-0.5955986455074921,0.09161873079190584,0.9955612147528524,0.09352316580331478,-0.004347652717722246,0.00961161036437763
1668680449.8083436,14505,1668680449,807834681,,-0.0779214992036958,-0.5953224977156123,0.09176147347828721,0.9955612147199971,0.09352316580658994,-0.004347653940266437,0.009611613182631816
1668680449.8155062,14506,1668680449,815373753,,-0.0775207210725186,-0.5950460279252229,0.09190759519254905,0.9955612146876857,0.09352316580980097,-0.004347655139970237,0.009611615955508112
1668680449.8238878,14507,1668680449,823715816,,-0.07712119577523184,-0.5947701790204121,0.09205580067465083,0.9955612146558458,0.09352316581294333,-0.0043476563196717735,0.009611618689260472
1668680449.831618,14508,1668680449,831434224,,-0.07672294256545259,-0.5944953869806441,0.09220524078869578,0.9955612146244726,0.0935231658160169,-0.004347657479572246,0.009611621384288418
1668680449.8396044,14509,1668680449,839511568,,-0.07632635038604056,-0.5942225079426103,0.09235490125908045,0.9955612145935605,0.09352316581902094,-0.004347658619916536,0.009611624041088349
1668680449.8478615,14510,1668680449,847731115,,-0.0759320565702755,-0.5939520848935146,0.0925041174989203,0.9955612145631796,0.09352316582195926,-0.004347659737981294,0.009611626653577626
1668680449.8558447,14511,1668680449,855678806,,-0.07554015641561246,-0.5936836780910925,0.09265294207150299,0.9955612145333665,0.093523165824834,-0.0043476608323562696,0.009611629218591742
1668680449.8636007,14512,1668680449,863386372,,-0.07515088583667652,-0.5934159598433772,0.09280229610328415,0.9955612145041868,0.09352316582764765,-0.004347661900497023,0.009611631730457567
1668680449.8722477,14513,1668680449,871821594,,-0.07476456207650106,-0.5931481773176147,0.09295259297285556,0.9955612144757415,0.09352316583040537,-0.004347662938469933,0.00961163418043054
1668680449.8798425,14514,1668680449,879697933,,-0.07438130159748838,-0.5928799546270284,0.09310385926715371,0.9955612144480448,0.09352316583310684,-0.004347663945745338,0.009611636567321148
1668680449.8881066,14515,1668680449,887986254,,-0.074001157609022,-0.5926103698147781,0.09325658949947713,0.9955612144211456,0.09352316583575401,-0.004347664920410193,0.009611638886875027
1668680449.895453,14516,1668680449,895265395,,-0.07362423489069989,-0.5923380190036259,0.09341178568330624,0.9955612143950923,0.09352316583834833,-0.004347665860590942,0.009611641134932424
1668680449.9037035,14517,1668680449,903576669,,-0.07325066599008015,-0.5920621868093177,0.09356989333175286,0.9955612143699479,0.09352316584089196,-0.0043476667638241194,0.009611643306029113
