Time,header.seq,header.stamp.secs,header.stamp.nsecs,header.frame_id,wrench.force.x,wrench.force.y,wrench.force.z,wrench.torque.x,wrench.torque.y,wrench.torque.z
1668680447.3922935,14203,1668680447,392028448,,-7.698581105295567e-186,-1.3294042183613852e-206,5e-324,5e-324,-5e-324,0.0
1668680447.399661,14204,1668680447,399464634,,-4.073148417961178e-186,-7.033582701525235e-207,5e-324,5e-324,-5e-324,0.0
1668680447.407977,14205,1668680447,407750388,,-2.1550124377240937e-186,-3.721312519992828e-207,5e-324,5e-324,-5e-324,0.0
1668680447.4161842,14206,1668680447,415896998,,-1.140169257340773e-186,-1.9688638719570883e-207,5e-324,5e-324,-5e-324,0.0
1668680447.4235816,14207,1668680447,423313986,,-1.140169257340773e-186,-1.9688638719570883e-207,5e-324,5e-324,-5e-324,0.0
1668680447.4315903,14208,1668680447,431434666,,-6.032382517281076e-187,-1.0416821821525833e-207,5e-324,5e-324,-5e-324,0.0
1668680447.4404173,14209,1668680447,440184539,,-3.1915997208756757e-187,-5.511309258448406e-208,5e-324,5e-324,-5e-324,0.0
1668680447.4486055,14210,1668680447,448383123,,-1.6886045851888182e-187,-2.9159114231455603e-208,5e-324,5e-324,-5e-324,0.0
1668680447.456258,14211,1668680447,456021403,,-1.6886045851888182e-187,-2.9159114231455603e-208,5e-324,5e-324,-5e-324,0.0
1668680447.46494,14212,1668680447,464597601,,-8.934032129625484e-188,-1.542744024860706e-208,5e-324,5e-324,-5e-324,0.0
1668680447.4726808,14213,1668680447,472424886,,-4.7267981381357787e-188,-8.162316273914468e-209,5e-324,5e-324,-5e-324,0.0
1668680447.4797952,14214,1668680447,479562985,,-2.50084399904889e-188,-4.318500404590735e-209,5e-324,5e-324,-5e-324,0.0
1668680447.4880402,14215,1668680447,487803085,,-1.323141061836305e-188,-2.2848227290641941e-209,5e-324,5e-324,-5e-324,0.0
1668680447.4955397,14216,1668680447,495288959,,-1.323141061836305e-188,-2.2848227290641941e-209,5e-324,5e-324,-5e-324,0.0
1668680447.503909,14217,1668680447,503703575,,-7.000445730253963e-189,-1.2088490017735895e-209,5e-324,5e-324,-5e-324,0.0
1668680447.5119836,14218,1668680447,511750445,,-3.7037804838599925e-189,-6.395751803850104e-210,5e-324,5e-324,-5e-324,0.0
1668680447.5199437,14219,1668680447,519670703,,-1.9595880607054572e-189,-3.383850346605428e-210,5e-324,5e-324,-5e-324,0.0
1668680447.5280862,14220,1668680447,527825803,,-1.0367745562656652e-189,-1.7903201248880162e-210,5e-324,5e-324,-5e-324,0.0
1668680447.5358405,14221,1668680447,535592691,,-5.48534409896792e-190,-9.472186477733698e-211,5e-324,5e-324,-5e-324,0.0
1668680447.5433955,14222,1668680447,543218277,,-5.48534409896792e-190,-9.472186477733698e-211,5e-324,5e-324,-5e-324,0.0
1668680447.552001,14223,1668680447,551791001,,-2.9021738334763023e-190,-5.0115236611426245e-211,5e-324,5e-324,-5e-324,0.0
1668680447.5602992,14224,1668680447,559830063,,-1.5354757710276136e-190,-2.6514859547192366e-211,5e-324,5e-324,-5e-324,0.0
1668680447.5680733,14225,1668680447,567819303,,-8.123861555835008e-191,-1.4028423775755373e-211,5e-324,5e-324,-5e-324,0.0
1668680447.5758429,14226,1668680447,575624157,,-4.2981548666317e-191,-7.42212770472764e-212,5e-324,5e-324,-5e-324,0.0
1668680447.583503,14227,1668680447,583291709,,-4.2981548666317e-191,-7.42212770472764e-212,5e-324,5e-324,-5e-324,0.0
1668680447.5916958,14228,1668680447,591514983,,-2.2740583564328002e-191,-3.926883058700537e-212,5e-324,5e-324,-5e-324,0.0
1668680447.5997162,14229,1668680447,599495068,,-1.2031538110943943e-191,-2.0776266820209807e-212,5e-324,5e-324,-5e-324,0.0
1668680447.6079092,14230,1668680447,607631281,,-6.36561981382795e-192,-1.0992261713222275e-212,5e-324,5e-324,-5e-324,0.0
1668680447.615623,14231,1668680447,615388339,,-6.36561981382795e-192,-1.0992261713222275e-212,5e-324,5e-324,-5e-324,0.0
1668680447.623888,14232,1668680447,623617156,,-3.3679081793657612e-192,-5.815761735136983e-213,5e-324,5e-324,-5e-324,0.0
1668680447.6318626,14233,1668680447,631659649,,-1.7818854779858156e-192,-3.076990472233636e-213,5e-324,5e-324,-5e-324,0.0
1668680447.6397946,14234,1668680447,639582768,,-9.427560632768413e-193,-1.627967375110076e-213,5e-324,5e-324,-5e-324,0.0
1668680447.6481137,14235,1668680447,647948230,,-4.987913116896295e-193,-8.61321410754617e-214,5e-324,5e-324,-5e-324,0.0
1668680447.6557124,14236,1668680447,655482068,,-4.987913116896295e-193,-8.61321410754617e-214,5e-324,5e-324,-5e-324,0.0
1668680447.6637511,14237,1668680447,663528235,,-2.63899413971738e-193,-4.557060442161266e-214,5e-324,5e-324,-5e-324,0.0
1668680447.6717837,14238,1668680447,671577749,,-1.3962332354730691e-193,-2.411039550882279e-214,5e-324,5e-324,-5e-324,0.0
1668680447.679835,14239,1668680447,679609608,,-7.387160200546603e-194,-1.2756275212276212e-214,5e-324,5e-324,-5e-324,0.0
1668680447.6877048,14240,1668680447,687513643,,-3.9083825282278407e-194,-6.749062130971138e-215,5e-324,5e-324,-5e-324,0.0
1668680447.6959486,14241,1668680447,695636742,,-2.067838461906696e-194,-3.570779000116981e-215,5e-324,5e-324,-5e-324,0.0
1668680447.703719,14242,1668680447,703494122,,-2.067838461906696e-194,-3.570779000116981e-215,5e-324,5e-324,-5e-324,0.0
1668680447.7119815,14243,1668680447,711654408,,-1.0940474412773196e-194,-1.8892199271903477e-215,5e-324,5e-324,-5e-324,0.0
1668680447.7200456,14244,1668680447,719667059,,-5.788362223719281e-195,-9.995443384135997e-216,5e-324,5e-324,-5e-324,0.0
1668680447.7283409,14245,1668680447,728088871,,-3.062493998785152e-195,-5.288367278342908e-216,5e-324,5e-324,-5e-324,0.0
1668680447.7358122,14246,1668680447,735547089,,-1.6202976127103406e-195,-2.7979577689404743e-216,5e-324,5e-324,-5e-324,0.0
1668680447.7436678,14247,1668680447,743444186,,-1.6202976127103406e-195,-2.7979577689404743e-216,5e-324,5e-324,-5e-324,0.0
1668680447.751928,14248,1668680447,751634155,,-8.572635096742308e-196,-1.480337364016709e-216,5e-324,5e-324,-5e-324,0.0
1668680447.7598095,14249,1668680447,759569811,,-4.535590988063485e-196,-7.83213648050797e-217,5e-324,5e-324,-5e-324,0.0
1668680447.76789,14250,1668680447,767606472,,-2.399680539163521e-196,-4.143809603160931e-217,5e-324,5e-324,-5e-324,0.0
1668680447.7760077,14251,1668680447,775744539,,-2.399680539163521e-196,-4.143809603160931e-217,5e-324,5e-324,-5e-324,0.0
1668680447.783969,14252,1668680447,783672633,,-1.2696177202033732e-196,-2.192397702719179e-217,5e-324,5e-324,-5e-324,0.0
1668680447.7922509,14253,1668680447,791933804,,-6.717265607430795e-197,-1.1599489714058813e-217,5e-324,5e-324,-5e-324,0.0
1668680447.7999215,14254,1668680447,799679137,,-3.553956165131723e-197,-6.137032594938377e-218,5e-324,5e-324,-5e-324,0.0
1668680447.8078854,14255,1668680447,807636835,,-1.8803193385274976e-197,-3.2469677545976486e-218,5e-324,5e-324,-5e-324,0.0
1668680447.815618,14256,1668680447,815339103,,-1.8803193385274976e-197,-3.2469677545976486e-218,5e-324,5e-324,-5e-324,0.0
1668680447.8239071,14257,1668680447,823663775,,-9.948352344715663e-198,-1.7178985831185338e-218,5e-324,5e-324,-5e-324,0.0
1668680447.8317378,14258,1668680447,831500949,,-5.263452454417348e-198,-9.089020171826017e-219,5e-324,5e-324,-5e-324,0.0
1668680447.8399763,14259,1668680447,839745865,,-2.7847758885045628e-198,-4.808798871810944e-219,5e-324,5e-324,-5e-324,0.0
1668680447.8478804,14260,1668680447,847651287,,-1.4733631236068292e-198,-2.5442287674980926e-219,5e-324,5e-324,-5e-324,0.0
1668680447.8557417,14261,1668680447,855515783,,-1.4733631236068292e-198,-2.5442287674980926e-219,5e-324,5e-324,-5e-324,0.0
1668680447.8663733,14262,1668680447,864459116,,-7.795237322204056e-199,-1.3460949800396124e-219,5e-324,5e-324,-5e-324,0.0
1668680447.8724668,14263,1668680447,872012839,,-4.1242870773585722e-199,-7.121889817595591e-220,5e-324,5e-324,-5e-324,0.0
1668680447.880113,14264,1668680447,879868748,,-2.182068767555817e-199,-3.7680338554177765e-220,5e-324,5e-324,-5e-324,0.0
1668680447.8878007,14265,1668680447,887543693,,-1.1544841610279102e-199,-1.993583093703062e-220,5e-324,5e-324,-5e-324,0.0
1668680447.896472,14266,1668680447,896253158,,-6.10811949596462e-200,-1.0547605738160272e-220,5e-324,5e-324,-5e-324,0.0
1668680447.90353,14267,1668680447,903289542,,-6.10811949596462e-200,-1.0547605738160272e-220,5e-324,5e-324,-5e-324,0.0
1668680447.9116986,14268,1668680447,911460812,,-3.231670475562385e-200,-5.580504126418025e-221,5e-324,5e-324,-5e-324,0.0
1668680447.9198465,14269,1668680447,919575069,,-1.7098051322540966e-200,-2.9525208922343017e-221,5e-324,5e-324,-5e-324,0.0
1668680447.9279058,14270,1668680447,927639193,,-9.046199519379227e-201,-1.5621132825280227e-221,5e-324,5e-324,-5e-324,0.0
1668680447.9357176,14271,1668680447,935526005,,-9.046199519379227e-201,-1.5621132825280227e-221,5e-324,5e-324,-5e-324,0.0
1668680447.943974,14272,1668680447,943773088,,-4.786143414865802e-201,-8.264794717858438e-222,5e-324,5e-324,-5e-324,0.0
1668680447.9517252,14273,1668680447,951517683,,-2.5322422679922528e-201,-4.3727194751072985e-222,5e-324,5e-324,-5e-324,0.0
1668680447.95968,14274,1668680447,959477151,,-1.3397531891522604e-201,-2.3135088360594114e-222,5e-324,5e-324,-5e-324,0.0
1668680447.9678154,14275,1668680447,967601187,,-7.088336809363866e-202,-1.2240261843903528e-222,5e-324,5e-324,-5e-324,0.0
1668680447.9758413,14276,1668680447,975583502,,-3.750281703361746e-202,-6.476050908995667e-223,5e-324,5e-324,-5e-324,0.0
1668680447.9836054,14277,1668680447,983341734,,-3.750281703361746e-202,-6.476050908995667e-223,5e-324,5e-324,-5e-324,0.0
1668680447.9918973,14278,1668680447,991657786,,-1.9841908240012216e-202,-3.4263348211617026e-223,5e-324,5e-324,-5e-324,0.0
1668680447.9999812,14279,1668680447,999698777,,-1.049791332347518e-202,-1.8127977175716565e-223,5e-324,5e-324,-5e-324,0.0
1668680448.0083628,14280,1668680448,8070639,,-5.554212972568906e-203,-9.591110432455651e-224,5e-324,5e-324,-5e-324,0.0
1668680448.015862,14281,1668680448,15601681,,-5.554212972568906e-203,-9.591110432455651e-224,5e-324,5e-324,-5e-324,0.0
1668680448.0242372,14282,1668680448,23898519,,-2.93861082617898e-203,-5.074443686457447e-224,5e-324,5e-324,-5e-324,0.0
1668680448.031956,14283,1668680448,31785399,,-1.5547537752666137e-203,-2.6847755438089533e-224,5e-324,5e-324,-5e-324,0.0
1668680448.0407574,14284,1668680448,40098878,,-8.22585719814047e-204,-1.420455160409258e-224,5e-324,5e-324,-5e-324,0.0
1668680448.0478532,14285,1668680448,47583056,,-4.3521184975155344e-204,-7.515313030119247e-225,5e-324,5e-324,-5e-324,0.0
1668680448.056754,14286,1668680448,56216213,,-2.302609315986988e-204,-3.976185346421444e-225,5e-324,5e-324,-5e-324,0.0
1668680448.0642204,14287,1668680448,63859807,,-2.302609315986988e-204,-3.976185346421444e-225,5e-324,5e-324,-5e-324,0.0
1668680448.072165,14288,1668680448,71795026,,-1.218259490199265e-204,-2.1037114283509434e-225,5e-324,5e-324,-5e-324,0.0
1668680448.0797796,14289,1668680448,79567166,,-6.445540609759956e-205,-1.113027031739704e-225,5e-324,5e-324,-5e-324,0.0
1668680448.0878892,14290,1668680448,87658736,,-3.41019249891248e-205,-5.888779024955857e-226,5e-324,5e-324,-5e-324,0.0
1668680448.095595,14291,1668680448,95307756,,-3.41019249891248e-205,-5.888779024955857e-226,5e-324,5e-324,-5e-324,0.0
1668680448.1039245,14292,1668680448,103651406,,-1.8042571730956861e-205,-3.1156222998966563e-226,5e-324,5e-324,-5e-324,0.0
1668680448.1118252,14293,1668680448,111604354,,-9.545924306928056e-206,-1.6484066178194037e-226,5e-324,5e-324,-5e-324,0.0
1668680448.1198428,14294,1668680448,119607291,,-5.050536710199196e-206,-8.721353604899206e-227,5e-324,5e-324,-5e-324,0.0
1668680448.1278605,14295,1668680448,127658186,,-2.672126893207929e-206,-4.614274650407984e-227,5e-324,5e-324,-5e-324,0.0
1668680448.135888,14296,1668680448,135639448,,-2.672126893207929e-206,-4.614274650407984e-227,5e-324,5e-324,-5e-324,0.0
1668680448.143941,14297,1668680448,143734667,,-1.413763040071724e-206,-2.441310318783227e-227,5e-324,5e-324,-5e-324,0.0
1668680448.152087,14298,1668680448,151852609,,-7.479906506510781e-207,-1.291643112763236e-227,5e-324,5e-324,-5e-324,0.0
1668680448.1600068,14299,1668680448,159803927,,-3.957452540512297e-207,-6.833797071648882e-228,5e-324,5e-324,-5e-324,0.0
1668680448.1679146,14300,1668680448,167666623,,-2.0938003164578268e-207,-3.6156103768144583e-228,5e-324,5e-324,-5e-324,0.0
1668680448.1762064,14301,1668680448,175880445,,-1.1077832823817975e-207,-1.9129392137150742e-228,5e-324,5e-324,-5e-324,0.0
1668680448.1837628,14302,1668680448,183447302,,-1.1077832823817975e-207,-1.9129392137150742e-228,5e-324,5e-324,-5e-324,0.0
1668680448.1921363,14303,1668680448,191868530,,-5.861035510781991e-208,-1.0120936865417765e-228,5e-324,5e-324,-5e-324,0.0
1668680448.1998599,14304,1668680448,199613931,,-3.1009438222239024e-208,-5.354763094371354e-229,5e-324,5e-324,-5e-324,0.0
1668680448.2078135,14305,1668680448,207582045,,-1.6406405610235962e-208,-2.833086321762952e-229,5e-324,5e-324,-5e-324,0.0
1668680448.2155557,14306,1668680448,215284552,,-1.6406405610235962e-208,-2.833086321762952e-229,5e-324,5e-324,-5e-324,0.0
1668680448.2240489,14307,1668680448,223706938,,-8.680265121815119e-209,-1.4989231017516426e-229,5e-324,5e-324,-5e-324,0.0
1668680448.2318943,14308,1668680448,231633403,,-4.5925356458328097e-209,-7.930469494366347e-230,5e-324,5e-324,-5e-324,0.0
1668680448.2398658,14309,1668680448,239647804,,-2.4298086938886713e-209,-4.1958354186134815e-230,5e-324,5e-324,-5e-324,0.0
1668680448.2479024,14310,1668680448,247698679,,-1.2855578582725067e-209,-2.2199234071321566e-230,5e-324,5e-324,-5e-324,0.0
1668680448.2558506,14311,1668680448,255606100,,-6.801601340561818e-210,-1.1745122107677248e-230,5e-324,5e-324,-5e-324,0.0
1668680448.2636364,14312,1668680448,263331754,,-6.801601340561818e-210,-1.1745122107677248e-230,5e-324,5e-324,-5e-324,0.0
1668680448.272709,14313,1668680448,272444896,,-3.5985763299753366e-210,-6.214083462566802e-231,5e-324,5e-324,-5e-324,0.0
1668680448.2804933,14314,1668680448,280296208,,-1.9039268775475017e-210,-3.2877336587676235e-231,5e-324,5e-324,-5e-324,0.0
1668680448.2889428,14315,1668680448,288542868,,-1.0073254594748651e-210,-1.7394669183488366e-231,5e-324,5e-324,-5e-324,0.0
1668680448.2966588,14316,1668680448,296351368,,-5.329535463112511e-211,-9.203133447142341e-232,5e-324,5e-324,-5e-324,0.0
1668680448.3043158,14317,1668680448,304069349,,-5.329535463112511e-211,-9.203133447142341e-232,5e-324,5e-324,-5e-324,0.0
1668680448.3118484,14318,1668680448,311607598,,-2.819738941908737e-211,-4.869173673409557e-232,5e-324,5e-324,-5e-324,0.0
1668680448.3206494,14319,1668680448,320294759,,-1.4918612992722576e-211,-2.576171735202486e-232,5e-324,5e-324,-5e-324,0.0
1668680448.3283868,14320,1668680448,328041688,,-7.89310706458422e-212,-1.36299529538222e-232,5e-324,5e-324,-5e-324,0.0
1668680448.3358898,14321,1668680448,335619070,,-4.176067786152797e-212,-7.211305635600594e-233,5e-324,5e-324,-5e-324,0.0
1668680448.343856,14322,1668680448,343589997,,-4.176067786152797e-212,-7.211305635600594e-233,5e-324,5e-324,-5e-324,0.0
1668680448.3518944,14323,1668680448,351652212,,-2.2094647914752156e-212,-3.8153417804323305e-233,5e-324,5e-324,-5e-324,0.0
1668680448.3598697,14324,1668680448,359605149,,-1.1689787893184359e-212,-2.0186126669834563e-233,5e-324,5e-324,-5e-324,0.0
1668680448.3679245,14325,1668680448,367603557,,-6.184807357640688e-213,-1.068003165589095e-233,5e-324,5e-324,-5e-324,0.0
1668680448.3759968,14326,1668680448,375772246,,-3.2722443213386984e-213,-5.650567740728816e-234,5e-324,5e-324,-5e-324,0.0
1668680448.383517,14327,1668680448,383242911,,-3.2722443213386984e-213,-5.650567740728816e-234,5e-324,5e-324,-5e-324,0.0
1668680448.3919365,14328,1668680448,391700647,,-1.7312718536504215e-213,-2.9895899957331705e-234,5e-324,5e-324,-5e-324,0.0
1668680448.4001327,14329,1668680448,399919457,,-9.159775178449845e-214,-1.581725722561654e-234,5e-324,5e-324,-5e-324,0.0
1668680448.407772,14330,1668680448,407567985,,-4.846233775639448e-214,-8.368559785736199e-235,5e-324,5e-324,-5e-324,0.0
1668680448.4156787,14331,1668680448,415408927,,-4.846233775639448e-214,-8.368559785736199e-235,5e-324,5e-324,-5e-324,0.0
1668680448.4239056,14332,1668680448,423673965,,-2.5640347443683913e-214,-4.4276192697948166e-235,5e-324,5e-324,-5e-324,0.0
1668680448.4318507,14333,1668680448,431612772,,-1.3565738828727515e-214,-2.3425550991070324e-235,5e-324,5e-324,-5e-324,0.0
1668680448.4397576,14334,1668680448,439579837,,-7.177331367035669e-215,-1.2393939175819563e-235,5e-324,5e-324,-5e-324,0.0
1668680448.4480324,14335,1668680448,447753354,,-3.7973667488825004e-215,-6.557358174946236e-236,5e-324,5e-324,-5e-324,0.0
1668680448.4559343,14336,1668680448,455662718,,-3.7973667488825004e-215,-6.557358174946236e-236,5e-324,5e-324,-5e-324,0.0
1668680448.4647713,14337,1668680448,463728820,,-2.009102476687529e-215,-3.4693526912270713e-236,5e-324,5e-324,-5e-324,0.0
1668680448.4722033,14338,1668680448,471922137,,-1.0629715349511167e-215,-1.835557517982188e-236,5e-324,5e-324,-5e-324,0.0
1668680448.4804034,14339,1668680448,480015996,,-5.623946499629272e-216,-9.711527485633801e-237,5e-324,5e-324,-5e-324,0.0
1668680448.487894,14340,1668680448,487657960,,-2.975505287838857e-216,-5.138153677031002e-237,5e-324,5e-324,-5e-324,0.0
1668680448.4956715,14341,1668680448,495485866,,-2.975505287838857e-216,-5.138153677031002e-237,5e-324,5e-324,-5e-324,0.0
1668680448.50365,14342,1668680448,503429196,,-1.5742738161788393e-216,-2.7184830859863677e-237,5e-324,5e-324,-5e-324,0.0
1668680448.511858,14343,1668680448,511666650,,-8.329133402771839e-217,-1.4382890729465768e-237,5e-324,5e-324,-5e-324,0.0
1668680448.519705,14344,1668680448,519521310,,-4.406759645508109e-217,-7.609668303700077e-238,5e-324,5e-324,-5e-324,0.0
1668680448.5279577,14345,1668680448,527634633,,-2.3315187348081325e-217,-4.0261066277660925e-238,5e-324,5e-324,-5e-324,0.0
1668680448.5354826,14346,1668680448,535287355,,-2.3315187348081325e-217,-4.0261066277660925e-238,5e-324,5e-324,-5e-324,0.0
1668680448.5440109,14347,1668680448,543734436,,-1.23355482214745e-217,-2.130123670470687e-238,5e-324,5e-324,-5e-324,0.0
1668680448.5518076,14348,1668680448,551594005,,-6.526464816798689e-218,-1.1270011629118549e-238,5e-324,5e-324,-5e-324,0.0
1668680448.5598185,14349,1668680448,559592799,,-3.453007701008337e-218,-5.962713051885931e-239,5e-324,5e-324,-5e-324,0.0
1668680448.5677207,14350,1668680448,567533587,,-1.8269097463811026e-218,-3.1547391528212274e-239,5e-324,5e-324,-5e-324,0.0
1668680448.5755544,14351,1668680448,575303306,,-1.8269097463811026e-218,-3.1547391528212274e-239,5e-324,5e-324,-5e-324,0.0
1668680448.5838988,14352,1668680448,583651448,,-9.665774045182779e-219,-1.6691024766310672e-239,5e-324,5e-324,-5e-324,0.0
1668680448.5916874,14353,1668680448,591504812,,-5.113946547036467e-219,-8.830850801102139e-240,5e-324,5e-324,-5e-324,0.0
1668680448.5997705,14354,1668680448,599548294,,-2.705675630704407e-219,-4.6722071869864945e-240,5e-324,5e-324,-5e-324,0.0
1668680448.6079435,14355,1668680448,607635782,,-1.4315129325765102e-219,-2.4719611382635756e-240,5e-324,5e-324,-5e-324,0.0
1668680448.6160572,14356,1668680448,615777717,,-1.4315129325765102e-219,-2.4719611382635756e-240,5e-324,5e-324,-5e-324,0.0
1668680448.624269,14357,1668680448,623861188,,-7.573817248744984e-220,-1.3078597811555087e-240,5e-324,5e-324,-5e-324,0.0
1668680448.6318452,14358,1668680448,631637931,,-4.007138630186366e-220,-6.919595865352766e-241,5e-324,5e-324,-5e-324,0.0
1668680448.6398504,14359,1668680448,639626879,,-2.1200881238839776e-220,-3.661004614539325e-241,5e-324,5e-324,-5e-324,0.0
1668680448.6478007,14360,1668680448,647575753,,0.04930151773508923,-1.936956297518531e-241,5e-324,5e-324,-5e-324,0.0
1668680448.6558793,14361,1668680448,655624540,,0.25445557810941916,-1.0248005926014917e-241,0.31666761770522733,5e-324,-5e-324,0.0
1668680448.663955,14362,1668680448,663720182,,0.25445557810941916,-1.0248005926014917e-241,0.31666761770522733,5e-324,-5e-324,0.0
1668680448.6722808,14363,1668680448,671857199,,0.3630036272964038,-5.421992514450736e-242,0.48420345862122993,5e-324,-5e-324,0.0
1668680448.6800191,14364,1668680448,679753872,,0.3862924968446249,-2.8686559159896624e-242,0.6732937578856577,5e-324,-5e-324,0.0
1668680448.6879597,14365,1668680448,687732029,,0.3985362795302458,-1.5177421847060832e-242,0.7734152541542775,5e-324,-5e-324,0.0
1668680448.695695,14366,1668680448,695475540,,0.35700247132957685,-8.030037085997788e-243,0.43528414123864956,5e-324,-5e-324,0.0
1668680448.7034054,14367,1668680448,703213390,,0.35700247132957685,-8.030037085997788e-243,0.43528414123864956,5e-324,-5e-324,0.0
1668680448.7121341,14368,1668680448,711915585,,-0.8104282105932055,0.12488646403238952,1.933719666566774,5e-324,-5e-324,0.0
1668680448.719887,14369,1668680448,719621769,,-1.4280141000702862,0.1908705726452405,2.726584695782697,5e-324,-5e-324,0.0
1668680448.727732,14370,1668680448,727530762,,-2.935804256466179,0.10098538423795139,2.1725752330057393,5e-324,-5e-324,0.0
1668680448.7356653,14371,1668680448,735401120,,-2.935804256466179,0.10098538423795139,2.1725752330057393,5e-324,-5e-324,0.0
1668680448.7439215,14372,1668680448,743685081,,-2.276152679031637,1.9007395254541937,1.4036642867787732,5e-324,-5e-324,0.0
1668680448.7518876,14373,1668680448,751630361,,-1.9269595531277266,2.853084518447988,0.9967252816584284,5e-324,-5e-324,0.0
1668680448.7602828,14374,1668680448,760034913,,-2.8750331585229105,2.342771426511491,0.5927787409012434,5e-324,-5e-324,0.0
1668680448.7682137,14375,1668680448,767871618,,-3.376746464776808,2.072605533223958,0.37900322450308177,5e-324,-5e-324,0.0
1668680448.7759085,14376,1668680448,775650491,,-3.376746464776808,2.072605533223958,0.37900322450308177,5e-324,-5e-324,0.0
1668680448.784164,14377,1668680448,783967723,,-3.8768697500489626,1.936757140382716,1.7512987329540597,5e-324,-5e-324,0.0
1668680448.7919638,14378,1668680448,791674364,,-2.783739600535535,0.661359875681347,0.9265732952533958,5e-324,-5e-324,0.0
1668680448.8005538,14379,1668680448,800296630,,-2.2053904193886815,-0.01338786111182888,0.49022936825207986,5e-324,-5e-324,0.0
1668680448.8080134,14380,1668680448,807684750,,-1.4295978216512895,-1.051057538358631,0.25936947970328694,5e-324,-5e-324,0.0
1668680448.8158727,14381,1668680448,815665605,,-1.142909258704367,-1.9592187028374797,0.1372266358529579,5e-324,-5e-324,0.0
1668680448.8235168,14382,1668680448,823312477,,-1.142909258704367,-1.9592187028374797,0.1372266358529579,5e-324,-5e-324,0.0
1668680448.832133,14383,1668680448,831858313,,-0.9913206850576792,-2.4396646598656515,0.0726035677330376,5e-324,-5e-324,0.0
1668680448.8399289,14384,1668680448,839668227,,-0.6642507749896993,-2.479554587606557,0.0384129364886136,5e-324,-5e-324,0.0
1668680448.8478577,14385,1668680448,847617025,,-0.4910855159797065,-2.5007036725220786,0.0203234322465234,5e-324,-5e-324,0.0
1668680448.855708,14386,1668680448,855452730,,-0.4910855159797065,-2.5007036725220786,0.0203234322465234,5e-324,-5e-324,0.0
1668680448.8638706,14387,1668680448,863614525,,-0.4784419767428162,-1.3230668181850578,0.35274081302514776,5e-324,-5e-324,0.0
1668680448.8718665,14388,1668680448,871631532,,-0.253133032438372,-0.00011988311090505022,1.160393479189774,5e-324,-5e-324,0.0
1668680448.879731,14389,1668680448,879516596,,-0.1339270700026594,0.6997227154334141,1.5877687267969165,5e-324,-5e-324,0.0
1668680448.8877013,14390,1668680448,887478679,,-0.3659687008469217,1.5203770997329153,2.2874094747245612,5e-324,-5e-324,0.0
1668680448.8960352,14391,1668680448,895808268,,-0.6569520767748517,1.8234108817160486,2.986278551505219,5e-324,-5e-324,0.0
1668680448.9041054,14392,1668680448,903841763,,-0.6569520767748517,1.8234108817160486,2.986278551505219,5e-324,-5e-324,0.0
1668680448.9122925,14393,1668680448,911689241,,-0.8107081696353724,1.98370172792384,3.35614139948225,5e-324,-5e-324,0.0
1668680448.9198396,14394,1668680448,919658464,,-0.9627187878594117,2.012628430929629,3.586346965362134,5e-324,-5e-324,0.0
1668680448.9284682,14395,1668680448,928245753,,-1.043049779121945,2.0279320188557217,3.7081857706801493,5e-324,-5e-324,0.0
1668680448.9358392,14396,1668680448,935551565,,-0.5518544910519841,1.7452273024397882,3.2792360205615934,5e-324,-5e-324,0.0
1668680448.943448,14397,1668680448,943238172,,-0.5518544910519841,1.7452273024397882,3.2792360205615934,5e-324,-5e-324,0.0
1668680448.951976,14398,1668680448,951741747,,-0.29197396460849034,1.3009887607981083,2.59664984176323,5e-324,-5e-324,0.0
1668680448.9598827,14399,1668680448,959638829,,-0.1544769452663014,1.0658748998380305,2.235540586976289,5e-324,-5e-324,0.0
1668680448.9678354,14400,1668680448,967622860,,-0.025496824522869603,0.8199493949037422,1.9324550730047112,5e-324,-5e-324,0.0
1668680448.9759889,14401,1668680448,975769342,,-0.013489804036346895,0.5752234128022334,1.9455204186778625,5e-324,-5e-324,0.0
1668680448.9835472,14402,1668680448,983308631,,-0.013489804036346895,0.5752234128022334,1.9455204186778625,5e-324,-5e-324,0.0
1668680448.9918766,14403,1668680448,991655705,,-0.007137155953511665,0.44579809631164075,1.9524212270438648,5e-324,-5e-324,0.0
1668680448.9999177,14404,1668680448,999671918,,-0.00377611082914897,0.23586187972649167,2.059231937935061,5e-324,-5e-324,0.0
1668680449.0084083,14405,1668680449,8065158,,-0.001997856441262198,0.1247892863796004,2.115760777560669,5e-324,-5e-324,0.0
1668680449.0154412,14406,1668680449,15279676,,-0.001997856441262198,0.1247892863796004,2.115760777560669,5e-324,-5e-324,0.0
1668680449.0241609,14407,1668680449,23917669,,-0.06863426944576494,0.06602324213301373,2.717177680891057,5e-324,-5e-324,0.0
1668680449.0326235,14408,1668680449,32347247,,-0.39614568747413476,0.050027795497874096,3.6146354004507186,5e-324,-5e-324,0.0
1668680449.0406604,14409,1668680449,40407038,,-0.5695536679043097,0.04130487983695814,4.089467625779517,5e-324,-5e-324,0.0
1668680449.0487092,14410,1668680449,48513945,,-0.9464908447275407,0.25109705715175673,4.343073135751698,5e-324,-5e-324,0.0
1668680449.056473,14411,1668680449,56266463,,-0.9091477691128236,0.5260244154041323,4.429963658461999,5e-324,-5e-324,0.0
1668680449.0640175,14412,1668680449,63788720,,-0.9091477691128236,0.5260244154041323,4.429963658461999,5e-324,-5e-324,0.0
1668680449.07208,14413,1668680449,71812413,,-0.8893006019545502,0.671553574969335,4.475942195084668,5e-324,-5e-324,0.0
1668680449.0800278,14414,1668680449,79791110,,-0.9202100428038509,0.6637344441273476,4.483435113197613,5e-324,-5e-324,0.0
1668680449.0879421,14415,1668680449,87633206,,-0.9366346480093004,0.6596869116814696,4.487347196018933,5e-324,-5e-324,0.0
1668680449.095845,14416,1668680449,95627640,,-0.7663192825229572,0.41705588245802083,4.427001707562599,5e-324,-5e-324,0.0
1668680449.1035385,14417,1668680449,103245983,,-0.7663192825229572,0.41705588245802083,4.427001707562599,5e-324,-5e-324,0.0
1668680449.1118739,14418,1668680449,111602802,,-0.4054425264305497,0.2206550122160559,4.277217794703736,5e-324,-5e-324,0.0
1668680449.1200316,14419,1668680449,119820228,,-0.21451064326240857,0.11674367024656122,4.197969481376262,5e-324,-5e-324,0.0
1668680449.1278064,14420,1668680449,127538106,,-0.12978645248677156,0.09330375337976873,4.09391688867419,5e-324,-5e-324,0.0
1668680449.135631,14421,1668680449,135428123,,-0.12978645248677156,0.09330375337976873,4.09391688867419,5e-324,-5e-324,0.0
1668680449.1442103,14422,1668680449,143963140,,-0.22726632284786802,0.31213075063309875,4.266023368082193,5e-324,-5e-324,0.0
1668680449.1519005,14423,1668680449,151692499,,-0.27866345868686704,0.4280629054256623,4.357080071960729,5e-324,-5e-324,0.0
1668680449.1598506,14424,1668680449,159657740,,-0.8869049063168208,0.22647858380332825,4.535142403308544,5e-324,-5e-324,0.0
1668680449.169312,14425,1668680449,167564643,,-1.2086759833684053,0.11982479273824553,4.629360393068374,5e-324,-5e-324,0.0
1668680449.1755207,14426,1668680449,175304788,,-1.2086759833684053,0.11982479273824553,4.629360393068374,5e-324,-5e-324,0.0
1668680449.1838746,14427,1668680449,183623354,,-1.8304717243982855,0.0633966387180866,5.448751772831239,5e-324,-5e-324,0.0
1668680449.1919768,14428,1668680449,191682138,,-2.398706919687781,0.03354175466450671,6.182236365508558,5e-324,-5e-324,0.0
1668680449.1999004,14429,1668680449,199593308,,-2.699307561031918,0.017746198043351296,6.570283526729426,5e-324,-5e-324,0.0
1668680449.207903,14430,1668680449,207699793,,-2.848372016997219,0.009389119565861477,6.84704226415389,5e-324,-5e-324,0.0
1668680449.2162826,14431,1668680449,215974008,,-2.844561996648242,0.004967574801469701,6.912505923480277,5e-324,-5e-324,0.0
1668680449.2238176,14432,1668680449,223434947,,-2.844561996648242,0.004967574801469701,6.912505923480277,5e-324,-5e-324,0.0
1668680449.2317302,14433,1668680449,231530478,,-2.8423726567234153,0.00262823358836762,6.947196218828232,5e-324,-5e-324,0.0
1668680449.239841,14434,1668680449,239633520,,-2.8382435536164365,-0.013203612381029533,6.905300029306392,5e-324,-5e-324,0.0
1668680449.2477992,14435,1668680449,247562572,,-2.8360524997152847,-0.02115324104049667,6.883192776352239,5e-324,-5e-324,0.0
1668680449.2559137,14436,1668680449,255657355,,-2.895222304419799,-0.0301505492876665,6.947532653484247,5e-324,-5e-324,0.0
1668680449.2638574,14437,1668680449,263616387,,-2.895222304419799,-0.0301505492876665,6.947532653484247,5e-324,-5e-324,0.0
1668680449.2721746,14438,1668680449,271730735,,-2.3925840109283207,0.01800346501262005,7.325405563760775,5e-324,-5e-324,0.0
1668680449.280358,14439,1668680449,280057804,,-2.1260385387420633,0.044921303779101834,7.525350295626149,5e-324,-5e-324,0.0
1668680449.2879076,14440,1668680449,287678114,,-1.5872321732579997,0.4128708067181157,7.621090104681189,5e-324,-5e-324,0.0
1668680449.2956576,14441,1668680449,295363925,,-1.5872321732579997,0.4128708067181157,7.621090104681189,5e-324,-5e-324,0.0
1668680449.3039062,14442,1668680449,303670283,,-1.141223734251535,0.8263194623751937,7.694321822942067,5e-324,-5e-324,0.0
1668680449.3121665,14443,1668680449,311959792,,-0.9052941786778516,1.0443929904233138,7.733234549731699,5e-324,-5e-324,0.0
1668680449.3196948,14444,1668680449,319501166,,-0.6450418365464498,1.3591304636372352,7.78635634443811,5e-324,-5e-324,0.0
1668680449.327775,14445,1668680449,327556616,,-0.3412773211209904,1.5540038514675794,7.570638040072343,5e-324,-5e-324,0.0
1668680449.3357882,14446,1668680449,335584462,,-0.3412773211209904,1.5540038514675794,7.570638040072343,5e-324,-5e-324,0.0
1668680449.3438435,14447,1668680449,343609182,,-0.1805622570701777,1.6573572810610688,7.456430658377586,5e-324,-5e-324,0.0
1668680449.3525455,14448,1668680449,352186120,,-0.09553148322656502,1.5132010404197223,7.053414664266023,5e-324,-5e-324,0.0
1668680449.3603082,14449,1668680449,359852979,,-0.05054358776607694,1.4369661398325566,6.840174536136399,5e-324,-5e-324,0.0
1668680449.3678896,14450,1668680449,367667919,,-0.026741490637263908,1.2682155573925527,6.512107064742503,5e-324,-5e-324,0.0
1668680449.3758745,14451,1668680449,375589482,,-0.014148329256175754,1.1056322503274476,6.3025248272288295,5e-324,-5e-324,0.0
1668680449.3835056,14452,1668680449,383278786,,-0.014148329256175754,1.1056322503274476,6.3025248272288295,5e-324,-5e-324,0.0
1668680449.3918178,14453,1668680449,391544004,,-0.0074855670335077455,1.019310075763718,6.191719985528634,5e-324,-5e-324,0.0
1668680449.3997598,14454,1668680449,399487061,,-0.0039604473997294914,1.0497116053261095,6.220601010824654,5e-324,-5e-324,0.0
1668680449.407933,14455,1668680449,407747983,,-0.0020953848300085307,1.0658888349075852,6.235854576524737,5e-324,-5e-324,0.0
1668680449.4158957,14456,1668680449,415665075,,-0.0011086216133383746,1.170184970336142,6.553725355867416,5e-324,-5e-324,0.0
1668680449.4235313,14457,1668680449,423323789,,-0.0011086216133383746,1.170184970336142,6.553725355867416,5e-324,-5e-324,0.0
1668680449.4319308,14458,1668680449,431735099,,0.069162722677419,1.113210919490764,6.515326076837461,5e-324,-5e-324,0.0
1668680449.4398127,14459,1668680449,439612008,,0.10613042797393366,1.0826626497401195,6.495153254170054,5e-324,-5e-324,0.0
1668680449.447732,14460,1668680449,447526348,,0.2385111175970509,0.9407506700904562,6.302541138966654,5e-324,-5e-324,0.0
1668680449.4557955,14461,1668680449,455475123,,0.2385111175970509,0.9407506700904562,6.302541138966654,5e-324,-5e-324,0.0
1668680449.4641616,14462,1668680449,463795551,,0.3813421148906369,0.6752334691456107,6.039071624746811,5e-324,-5e-324,0.0
1668680449.4720678,14463,1668680449,471808616,,0.45712879314569677,0.5343769138448202,5.899702926630743,5e-324,-5e-324,0.0
1668680449.4802372,14464,1668680449,480025031,,0.24185669997360018,0.2827269663658939,5.798364258112168,5e-324,-5e-324,0.0
1668680449.4880211,14465,1668680449,487801519,,0.1279610127368996,0.14958456370305287,5.74474611097879,5e-324,-5e-324,0.0
1668680449.4957116,14466,1668680449,495457596,,0.1279610127368996,0.14958456370305287,5.74474611097879,5e-324,-5e-324,0.0
1668680449.5042076,14467,1668680449,503920026,,0.06770133216255861,-0.5664933474232812,5.429000600860211,5e-324,-5e-324,0.0
1668680449.5120618,14468,1668680449,511792747,,-0.15849715768124678,-1.137827852632943,5.277403708678802,5e-324,-5e-324,0.0
1668680449.5199106,14469,1668680449,519662127,,-0.27810554329121934,-1.4398023549832235,5.197352151704065,5e-324,-5e-324,0.0
1668680449.5278976,14470,1668680449,527658079,,-0.1471394713116261,-0.967905610957928,5.33736065990629,5e-324,-5e-324,0.0
1668680449.5355804,14471,1668680449,535318536,,-0.1471394713116261,-0.967905610957928,5.33736065990629,5e-324,-5e-324,0.0
1668680449.5438678,14472,1668680449,543604277,,0.2912627828358223,-0.3267542159133446,5.560424600894233,5e-324,-5e-324,0.0
1668680449.551879,14473,1668680449,551608896,,0.5229827921521081,0.012360557865877586,5.6785240383855164,5e-324,-5e-324,0.0
1668680449.55975,14474,1668680449,559601175,,0.8728868190939314,0.46101486311960205,5.781150373083356,5e-324,-5e-324,0.0
1668680449.5679166,14475,1668680449,567655904,,1.4174314558127716,1.0325487928279053,5.929772585141931,5e-324,-5e-324,0.0
1668680449.5757694,14476,1668680449,575526206,,1.705375126831295,1.334192745237977,6.008754327079711,5e-324,-5e-324,0.0
1668680449.5834312,14477,1668680449,583214545,,1.705375126831295,1.334192745237977,6.008754327079711,5e-324,-5e-324,0.0
1668680449.591798,14478,1668680449,591593543,,1.6104842214829085,1.76207015360318,6.484675794689123,5e-324,-5e-324,0.0
1668680449.5999064,14479,1668680449,599705695,,1.5601375853311175,1.9883796679022492,6.736548283560481,5e-324,-5e-324,0.0
1668680449.6078613,14480,1668680449,607582621,,1.5700951713349212,2.499240807502084,7.408185553069561,5e-324,-5e-324,0.0
1668680449.615816,14481,1668680449,615562539,,1.9192474492806713,2.6695946217375157,7.640616837851178,5e-324,-5e-324,0.0
1668680449.6235425,14482,1668680449,623341750,,1.9192474492806713,2.6695946217375157,7.640616837851178,5e-324,-5e-324,0.0
1668680449.6326456,14483,1668680449,632425267,,2.1039443206465016,2.7595838921796556,7.763664140517966,5e-324,-5e-324,0.0
1668680449.6407816,14484,1668680449,640543747,,2.101618394080473,2.492650996528568,7.675641408734391,5e-324,-5e-324,0.0
1668680449.6484632,14485,1668680449,648227737,,2.307293019439438,1.9243202614539618,7.297079092350152,5e-324,-5e-324,0.0
1668680449.6563673,14486,1668680449,655689660,,2.416234050166108,1.6237625660340251,7.096696048511442,5e-324,-5e-324,0.0
1668680449.6639712,14487,1668680449,663510894,,2.416234050166108,1.6237625660340251,7.096696048511442,5e-324,-5e-324,0.0
1668680449.672001,14488,1668680449,671753190,,2.5223516103059187,1.3579489244987932,6.940683643428303,5e-324,-5e-324,0.0
1668680449.6797152,14489,1668680449,679488038,,2.578402532930351,1.2178809532770083,6.858034091017889,5e-324,-5e-324,0.0
1668680449.6880407,14490,1668680449,687790647,,2.5911894975911594,1.0297163464274903,6.802662823200553,5e-324,-5e-324,0.0
1668680449.6957662,14491,1668680449,695530156,,2.5911894975911594,1.0297163464274903,6.802662823200553,5e-324,-5e-324,0.0
1668680449.7039485,14492,1668680449,703667426,,2.530819307318436,0.9931759426948814,6.979753279002342,5e-324,-5e-324,0.0
1668680449.71192,14493,1668680449,711680712,,2.498336176649584,0.9734121149805484,7.073780477946055,5e-324,-5e-324,0.0
1668680449.719992,14494,1668680449,719724992,,2.469251736138328,1.0353522618406443,7.27752649230835,5e-324,-5e-324,0.0
1668680449.7278953,14495,1668680449,727649041,,2.3695788527516113,1.2857593299750303,7.852646584731729,5e-324,-5e-324,0.0
1668680449.7355983,14496,1668680449,735373094,,2.3695788527516113,1.2857593299750303,7.852646584731729,5e-324,-5e-324,0.0
1668680449.7437577,14497,1668680449,743528332,,2.31656365080898,1.418524987393839,8.156950142359603,5e-324,-5e-324,0.0
1668680449.7525897,14498,1668680449,752356537,,2.3156918758063245,1.553146420151943,8.396434509570556,5e-324,-5e-324,0.0
1668680449.7605903,14499,1668680449,760310714,,2.3155404775821546,1.6245163210724036,8.52299361792457,5e-324,-5e-324,0.0
1668680449.7686045,14500,1668680449,768318791,,2.2650434416516703,1.731002495315612,8.687909214102127,5e-324,-5e-324,0.0
1668680449.7759707,14501,1668680449,775742737,,2.2650434416516703,1.731002495315612,8.687909214102127,5e-324,-5e-324,0.0
1668680449.7839954,14502,1668680449,783781954,,2.236448954104977,1.6960604025561927,8.795970813421949,5e-324,-5e-324,0.0
1668680449.791856,14503,1668680449,791650104,,2.2216739587089123,1.6778847481417767,8.852946063587286,5e-324,-5e-324,0.0
1668680449.8001406,14504,1668680449,799642278,,2.234718826928138,1.6045246435444491,8.841935321083994,5e-324,-5e-324,0.0
1668680449.8084133,14505,1668680449,807834681,,2.285581449611416,1.3202524211862285,8.610042153735888,5e-324,-5e-324,0.0
1668680449.8156114,14506,1668680449,815373753,,2.285581449611416,1.3202524211862285,8.610042153735888,5e-324,-5e-324,0.0
1668680449.8239481,14507,1668680449,823715816,,2.312570776716708,1.1699136671171833,8.487310801961653,5e-324,-5e-324,0.0
1668680449.8316805,14508,1668680449,831434224,,2.1948150327998137,1.0265936229456087,8.415237734736333,5e-324,-5e-324,0.0
1668680449.839714,14509,1668680449,839511568,,2.1326122975341373,0.9511630329717411,8.376993583139576,5e-324,-5e-324,0.0
1668680449.847932,14510,1668680449,847731115,,2.1664435110510487,1.099030422966734,8.512734500690778,5e-324,-5e-324,0.0
1668680449.856086,14511,1668680449,855678806,,2.055754943772495,1.3097836056272936,8.747463146073851,5e-324,-5e-324,0.0
1668680449.8636594,14512,1668680449,863386372,,2.055754943772495,1.3097836056272936,8.747463146073851,5e-324,-5e-324,0.0
1668680449.8723266,14513,1668680449,871821594,,1.9973210864637179,1.4206375069403605,8.871780618465309,5e-324,-5e-324,0.0
1668680449.87994,14514,1668680449,879697933,,2.011511239221556,1.6000522060193587,9.019534464931915,5e-324,-5e-324,0.0
1668680449.8882177,14515,1668680449,887986254,,1.9329419855242946,1.8842895916729587,9.315769081133126,5e-324,-5e-324,0.0
1668680449.8955219,14516,1668680449,895265395,,1.9329419855242946,1.8842895916729587,9.315769081133126,5e-324,-5e-324,0.0
1668680449.90389,14517,1668680449,903576669,,1.8910005015872526,2.0342481077804306,9.472727559323822,5e-324,-5e-324,0.0
1668680449.91192,14518,1668680449,911654137,,1.816318855379782,2.191377427259181,9.615732583950589,5e-324,-5e-324,0.0
1668680449.919893,14519,1668680449,919639832,,1.7768194688380752,2.2746991289621485,9.691331289458475,5e-324,-5e-324,0.0
1668680449.9278088,14520,1668680449,927555468,,1.7466226746127937,2.185205433690911,9.606834012363581,5e-324,-5e-324,0.0
1668680449.9356105,14521,1668680449,935397637,,1.7466226746127937,2.185205433690911,9.606834012363581,5e-324,-5e-324,0.0
1668680449.9437988,14522,1668680449,943590010,,1.7253282894026116,1.9811959274418718,9.419195737113657,5e-324,-5e-324,0.0
1668680449.9531538,14523,1668680449,952928117,,1.7137660233383352,1.873036993313229,9.320058626519536,5e-324,-5e-324,0.0
1668680449.9603143,14524,1668680449,960081389,,1.7581074531591239,1.8546471913815146,9.280515579874217,5e-324,-5e-324,0.0
1668680449.968035,14525,1668680449,967803185,,1.6645063260799509,1.9473422663095286,9.531549076183072,5e-324,-5e-324,0.0
1668680449.9757955,14526,1668680449,975545595,,1.6152890752585196,1.9962928886725786,9.664319166103432,5e-324,-5e-324,0.0
1668680449.9841824,14527,1668680449,983954891,,1.6152890752585196,1.9962928886725786,9.664319166103432,5e-324,-5e-324,0.0
1668680449.99274,14528,1668680449,992508344,,1.6339784697310429,2.0349568162783793,9.724841060864478,5e-324,-5e-324,0.0
1668680450.0005906,14529,1668680450,359498,,1.6443100225813316,2.0560923579960106,9.756558944128509,5e-324,-5e-324,0.0
1668680450.0086675,14530,1668680450,8453858,,1.7404985797687682,2.2250131647883684,9.854353034419347,5e-324,-5e-324,0.0
1668680450.0159736,14531,1668680450,15727116,,1.7404985797687682,2.2250131647883684,9.854353034419347,5e-324,-5e-324,0.0
1668680450.0249634,14532,1668680450,24692335,,1.7348034625174158,2.238859123309311,10.02107854422107,5e-324,-5e-324,0.0
1668680450.0319602,14533,1668680450,31691062,,1.7318776035044743,2.2457926272244046,10.109381888181105,5e-324,-5e-324,0.0
1668680450.0399513,14534,1668680450,39716958,,1.7450748091863608,2.2474774260094286,10.170270903710211,5e-324,-5e-324,0.0
1668680450.0478485,14535,1668680450,47664768,,1.9893760775585752,2.3305064752994586,10.123926655514964,5e-324,-5e-324,0.0
1668680450.0558286,14536,1668680450,55591718,,2.1184371031580627,2.3738950054045223,10.099630982225927,5e-324,-5e-324,0.0
1668680450.0636888,14537,1668680450,63452469,,2.1184371031580627,2.3738950054045223,10.099630982225927,5e-324,-5e-324,0.0
1668680450.0718474,14538,1668680450,71602430,,2.2083813562644643,2.481760155728916,10.009313625813853,5e-324,-5e-324,0.0
1668680450.0798872,14539,1668680450,79647703,,2.2560823464286326,2.5390002933591482,9.961437772429884,5e-324,-5e-324,0.0
1668680450.0880678,14540,1668680450,87675065,,2.4167599430174427,2.6605910446419023,9.843676580376297,5e-324,-5e-324,0.0
1668680450.095904,14541,1668680450,95623025,,2.4167599430174427,2.6605910446419023,9.843676580376297,5e-324,-5e-324,0.0
1668680450.1042407,14542,1668680450,103897806,,2.5364420202567386,2.6692271005557275,9.796460129880508,5e-324,-5e-324,0.0
1668680450.1123743,14543,1668680450,112024673,,2.5997321109556117,2.674178542387274,9.77135863197531,5e-324,-5e-324,0.0
1668680450.1199417,14544,1668680450,119689365,,2.6393002794448632,2.6746365943201784,9.847654575397666,5e-324,-5e-324,0.0
1668680450.1278152,14545,1668680450,127595090,,2.8052301692841137,2.654973813151821,9.647164360789635,5e-324,-5e-324,0.0
1668680450.1355116,14546,1668680450,135215417,,2.8052301692841137,2.654973813151821,9.647164360789635,5e-324,-5e-324,0.0
1668680450.1438725,14547,1668680450,143664108,,2.892969688330463,2.6443750407321893,9.541176892371448,5e-324,-5e-324,0.0
1668680450.1518066,14548,1668680450,151604603,,3.026839413777438,2.5986402271571922,9.273085688895113,5e-324,-5e-324,0.0
1668680450.1598396,14549,1668680450,159609617,,3.097670151916866,2.5742371371267474,9.131316435152858,5e-324,-5e-324,0.0
1668680450.1679707,14550,1668680450,167696736,,3.468604761578256,2.5197357080555753,8.574405638581098,5e-324,-5e-324,0.0
1668680450.1760263,14551,1668680450,175789271,,3.9417723881825535,2.518180862161949,8.197066615237265,0.04463232916711626,-5e-324,0.0
1668680450.183642,14552,1668680450,183366549,,3.9417723881825535,2.518180862161949,8.197066615237265,0.04463232916711626,-5e-324,0.0
1668680450.1919172,14553,1668680450,191646316,,4.1923278734253895,2.5177719061136496,7.997126181960417,0.068242588981633,-5e-324,0.0
1668680450.2001388,14554,1668680450,199829420,,4.316639153984161,2.572891952023533,8.087923234168542,0.07595685509864912,-5e-324,0.0
1668680450.207831,14555,1668680450,207610307,,4.563772886225217,2.4946922287211706,7.496207465116038,0.12787785556942252,-5e-324,0.0
1668680450.2156394,14556,1668680450,215443817,,4.694310211815011,2.4532114589449465,7.183351181140379,0.15535449351563696,-5e-324,0.0
1668680450.2235072,14557,1668680450,223274397,,4.694310211815011,2.4532114589449465,7.183351181140379,0.15535449351563696,-5e-324,0.0
1668680450.231724,14558,1668680450,231550036,,4.81431752600343,2.433830714361705,6.909250019070285,0.18556168353047656,-5e-324,0.0
1668680450.2402856,14559,1668680450,240023576,,4.877711517857347,2.423022483258867,6.764555585482357,0.2015520178556519,-5e-324,0.0
1668680450.248404,14560,1668680450,248103082,,4.987432657837765,2.4461041029650055,6.6963157615403315,0.22562121469674545,-5e-324,0.0
1668680450.2555637,14561,1668680450,255293324,,4.987432657837765,2.4461041029650055,6.6963157615403315,0.22562121469674545,-5e-324,0.0
1668680450.263851,14562,1668680450,263555435,,5.040560028720909,2.3864639558322693,6.718242890086243,0.23866760512270124,-5e-324,0.0
1668680450.271969,14563,1668680450,271737629,,5.06853627033942,2.3543003058340055,6.730209430388745,0.24557357230771631,-5e-324,0.0
1668680450.2798617,14564,1668680450,279629281,,5.115573019983716,2.3439381253592306,6.755188143841806,0.2564656693991495,-5e-324,0.0
1668680450.2878466,14565,1668680450,287613485,,5.248963682865486,2.4510578388830537,6.7886350331754395,0.2808456837249633,-5e-324,0.0
1668680450.2956152,14566,1668680450,295370096,,5.248963682865486,2.4510578388830537,6.7886350331754395,0.2808456837249633,-5e-324,0.0
1668680450.3044403,14567,1668680450,304222850,,5.318997950563584,2.5071342754548827,6.807045202454479,0.2937563664187509,-5e-324,0.0
1668680450.312624,14568,1668680450,312324937,,5.414960778957036,2.605574957697813,6.810149848908592,0.31436796121827737,-5e-324,0.0
1668680450.3201232,14569,1668680450,319676509,,5.46553268035049,2.657508841255316,6.81203012429229,0.3252771748987495,-5e-324,0.0
1668680450.3276508,14570,1668680450,327445505,,5.5061039490029735,2.7412805253311974,6.854069555005799,0.3393557265594831,-5e-324,0.0
1668680450.3354545,14571,1668680450,335231255,,5.5061039490029735,2.7412805253311974,6.854069555005799,0.3393557265594831,-5e-324,0.0
1668680450.3438861,14572,1668680450,343654232,,5.384064598400176,2.68744884616662,6.94514688577803,0.322395841708306,-5e-324,0.0
1668680450.3528278,14573,1668680450,352581596,,5.31952691072842,2.6581827949206156,6.993663765794161,0.31342535207498434,-5e-324,0.0
1668680450.3605738,14574,1668680450,360356521,,5.252819046162933,2.6128950360836853,7.029496599590136,0.301058472056204,-5e-324,0.0
1668680450.3686426,14575,1668680450,368378933,,5.23736140529614,2.5585683043421876,7.0159126556242715,0.2961883588312392,-5e-324,0.0
1668680450.375853,14576,1668680450,375405936,,5.23736140529614,2.5585683043421876,7.0159126556242715,0.2961883588312392,-5e-324,0.0
1668680450.3839464,14577,1668680450,383652611,,5.229297227980914,2.5295643963326233,7.008750990172681,0.29361107663224234,-5e-324,0.0
1668680450.3925369,14578,1668680450,392262095,,5.2197073444826225,2.518889469947573,7.018704833207799,0.2937308681447178,-5e-324,0.0
1668680450.4003854,14579,1668680450,399991684,,5.214676529626642,2.5133183426567314,7.023904441546307,0.2937947252083617,-5e-324,0.0
1668680450.4077256,14580,1668680450,407488991,,5.150382858159061,2.438617119552486,7.160411658846085,0.2827777369262948,-5e-324,0.0
1668680450.4161031,14581,1668680450,415841304,,5.150382858159061,2.438617119552486,7.160411658846085,0.2827777369262948,-5e-324,0.0
1668680450.4246778,14582,1668680450,424351295,,5.16238402627425,2.437869261633618,7.297510404016975,0.28078787261488425,-5e-324,0.0
1668680450.4318888,14583,1668680450,431731153,,5.168818622376345,2.4380091502494317,7.369766315332867,0.2797329258991975,-5e-324,0.0
1668680450.4399042,14584,1668680450,439676555,,5.20194762819585,2.4580036777304644,7.397906931308981,0.2858072524336281,-5e-324,0.0
1668680450.4478095,14585,1668680450,447577294,,5.008871987661667,2.544185012019256,7.421926656235867,0.26428262065411706,-5e-324,0.0
1668680450.4554381,14586,1668680450,455227652,,5.008871987661667,2.544185012019256,7.421926656235867,0.26428262065411706,-5e-324,0.0
1668680450.4644196,14587,1668680450,464168516,,4.9065077784459685,2.589761689144069,7.434789000018141,0.25289761309637676,-5e-324,0.0
1668680450.4721472,14588,1668680450,471773243,,4.8308210444600945,2.6057242185388834,7.507850306538955,0.24292053447733897,-5e-324,0.0
1668680450.4796548,14589,1668680450,479402978,,4.79082019203061,2.6144937614535912,7.546339698926804,0.23764192052969232,-5e-324,0.0
1668680450.487704,14590,1668680450,487488569,,4.686043735525242,2.4563174746277125,7.641305963670732,0.21687154906795086,-5e-324,0.0
1668680450.4961312,14591,1668680450,495895001,,4.590927316926264,2.331449896675995,7.697150428800168,0.19200154976734296,-5e-324,0.0
1668680450.5034118,14592,1668680450,503201499,,4.590927316926264,2.331449896675995,7.697150428800168,0.19200154976734296,-5e-324,0.0
1668680450.511867,14593,1668680450,511636554,,4.540164553134879,2.2652740585037847,7.727011652272129,0.17885221890980446,-5e-324,0.0
1668680450.5198834,14594,1668680450,519668333,,4.48329420817567,2.239680576033315,7.785179051906424,0.1669842866077336,-5e-324,0.0
1668680450.5280373,14595,1668680450,527830439,,4.327727927401809,2.178182437413162,7.808528103512502,0.14454178254253414,-5e-324,0.0
1668680450.5366025,14596,1668680450,535769190,,4.245356845736973,2.145214322742846,7.821070722187365,0.13267285924615585,-5e-324,0.0
1668680450.5440598,14597,1668680450,543793128,,4.245356845736973,2.145214322742846,7.821070722187365,0.13267285924615585,-5e-324,0.0
1668680450.5519655,14598,1668680450,551728715,,4.196645437852357,2.1087920955898367,7.889227320447111,0.11628514580082294,-5e-324,0.0
1668680450.5606036,14599,1668680450,560393055,,4.171291554044924,2.0892203052069154,7.925150766970418,0.10761177290989178,-5e-324,0.0
1668680450.5682025,14600,1668680450,567958171,,4.0559240246254955,1.9655880018202527,8.041201794636706,0.07716614133599387,-5e-324,0.0
1668680450.576124,14601,1668680450,575884734,,4.0559240246254955,1.9655880018202527,8.041201794636706,0.07716614133599387,-5e-324,0.0
1668680450.5837972,14602,1668680450,583542271,,4.022138766093318,1.9118124219226056,8.163290377709856,0.06534902464641246,-5e-324,0.0
1668680450.5917606,14603,1668680450,591555152,,4.004136153222254,1.8832787541674922,8.227978308296423,0.05910011253450345,-5e-324,0.0
1668680450.5996826,14604,1668680450,599477454,,4.120037210144044,1.9867501039457718,8.21674353983499,0.07697098121753934,-5e-324,0.0
1668680450.6079402,14605,1668680450,607690509,,4.198970436579262,2.188653836259708,7.9865248909713085,0.10275888994274626,-5e-324,0.0
1668680450.615627,14606,1668680450,615364666,,4.198970436579262,2.188653836259708,7.9865248909713085,0.10275888994274626,-5e-324,0.0
1668680450.6241984,14607,1668680450,623984504,,4.240510730885363,2.294948787539884,7.865062023415394,0.11640516180197022,-5e-324,0.0
1668680450.6320703,14608,1668680450,631867296,,4.273849618855171,2.390413416068924,7.77192684573013,0.12645567313161832,-5e-324,0.0
1668680450.639739,14609,1668680450,639547278,,4.291698329261143,2.4414542447077614,7.722307508318257,0.1317692849261491,-5e-324,0.0
1668680450.6476996,14610,1668680450,647525199,,4.248926645115054,2.4163626025429727,7.744707738401109,0.12559784552127476,-5e-324,0.0
1668680450.6560771,14611,1668680450,655851587,,4.072794359559241,2.231756634509561,7.821969676803464,0.09418934736962654,-5e-324,0.0
1668680450.6634843,14612,1668680450,663265256,,4.072794359559241,2.231756634509561,7.821969676803464,0.09418934736962654,-5e-324,0.0
1668680450.6718457,14613,1668680450,671547657,,3.9797000495888417,2.1342421566270025,7.862743044866368,0.07756902771739146,-5e-324,0.0
1668680450.6800678,14614,1668680450,679721930,,3.9981413647784074,2.105262260374304,7.902338752697698,0.0784627770945521,-5e-324,0.0
1668680450.688288,14615,1668680450,687918351,,4.046795217200488,2.234777874591262,7.844764566642347,0.0959567578079436,-5e-324,0.0
1668680450.695859,14616,1668680450,695630107,,4.046795217200488,2.234777874591262,7.844764566642347,0.0959567578079436,-5e-324,0.0
1668680450.7038383,14617,1668680450,703607645,,4.072443876644206,2.30411582282804,7.814043868102842,0.10520590273261697,-5e-324,0.0
1668680450.711608,14618,1668680450,711408604,,4.216532602581442,2.4377100943743533,7.8423330084583736,0.13308537356656075,-5e-324,0.0
1668680450.7196417,14619,1668680450,719471590,,4.29262187106999,2.509083622522672,7.857108228794631,0.14783077017825796,-5e-324,0.0
1668680450.7280178,14620,1668680450,727690674,,4.328056390317932,2.474398692632536,7.899284751153067,0.15311959086412885,-5e-324,0.0
1668680450.7358959,14621,1668680450,735666140,,4.276143968156793,2.3222271262886,7.89644810207723,0.142634520341046,-5e-324,0.0
1668680450.7435257,14622,1668680450,743261839,,4.276143968156793,2.3222271262886,7.89644810207723,0.142634520341046,-5e-324,0.0
1668680450.75216,14623,1668680450,751840048,,4.248615959230991,2.2418558780487077,7.894934464801031,0.13708998389098226,-5e-324,0.0
1668680450.7598257,14624,1668680450,759664654,,4.2352670792026785,2.26704335607436,7.873829756734781,0.1359893072974664,-5e-324,0.0
1668680450.7680697,14625,1668680450,767848737,,4.224341961710029,2.4297485603393825,7.901831915934568,0.14447809149299645,-5e-324,0.0
1668680450.7755973,14626,1668680450,775387439,,4.224341961710029,2.4297485603393825,7.901831915934568,0.14447809149299645,-5e-324,0.0
1668680450.784133,14627,1668680450,783859635,,4.218748771051819,2.5155321394838213,7.916659462546601,0.14896978955116846,-5e-324,0.0
1668680450.7920208,14628,1668680450,791804500,,4.269443574092738,2.610188502195681,7.95585285821869,0.15925407197893027,-5e-324,0.0
1668680450.7998755,14629,1668680450,799673962,,4.295901517295425,2.660291010769817,7.976795299209664,0.16469452491962833,-5e-324,0.0
1668680450.8077002,14630,1668680450,807516158,,4.266856784149876,2.5878808761922913,8.02791111710523,0.1576587221784405,-5e-324,0.0
1668680450.8156357,14631,1668680450,815393272,,4.266856784149876,2.5878808761922913,8.02791111710523,0.1576587221784405,-5e-324,0.0
1668680450.8242202,14632,1668680450,823942549,,4.340923467325612,2.587142806507612,8.119476098267723,0.1703014265452192,-5e-324,0.0
1668680450.8323681,14633,1668680450,831979042,,4.380066649415069,2.5862987665360855,8.168123233814137,0.17698929877642777,-5e-324,0.0
1668680450.8401194,14634,1668680450,839774980,,4.366531710970406,2.5891277115111624,8.222606412461378,0.17908473147147122,-5e-324,0.0
1668680450.848895,14635,1668680450,848629117,,4.286661473021365,2.69606804762996,8.240425853638671,0.17270821577910617,-5e-324,0.0
1668680450.856501,14636,1668680450,855849344,,4.286661473021365,2.69606804762996,8.240425853638671,0.17270821577910617,-5e-324,0.0
1668680450.8645668,14637,1668680450,864333259,,4.2444471312601335,2.752853576110044,8.249744660900173,0.16932832251765778,-5e-324,0.0
1668680450.8725815,14638,1668680450,872348195,,4.217073148446722,2.8821947153704643,8.229352289040158,0.17029272725418843,-5e-324,0.0
1668680450.8807864,14639,1668680450,880554721,,4.202572851001316,2.950512913309125,8.218622476091035,0.17080511488239697,-5e-324,0.0
1668680450.888387,14640,1668680450,888200413,,4.254446847755846,3.181296451039379,8.29372503975428,0.1843777219889576,-5e-324,0.0
1668680450.8964844,14641,1668680450,896205740,,4.308431357176585,3.289978773122704,8.338062364351611,0.19645211284933825,-5e-324,0.0
1668680450.9040332,14642,1668680450,903824971,,4.308431357176585,3.289978773122704,8.338062364351611,0.19645211284933825,-5e-324,0.0
1668680450.9118993,14643,1668680450,911662172,,4.33707300603686,3.3474217357602134,8.36150217504677,0.2028293281621531,-5e-324,0.0
1668680450.919832,14644,1668680450,919617000,,4.468715368605663,3.4259163517388163,8.471036590852709,0.22784498448945228,-5e-324,0.0
1668680450.9277084,14645,1668680450,927546784,,4.6224105623415985,3.663572980981935,8.656199493427161,0.2632567045781836,-5e-324,0.0
1668680450.9354215,14646,1668680450,935198034,,4.6224105623415985,3.663572980981935,8.656199493427161,0.2632567045781836,-5e-324,0.0
1668680450.9439824,14647,1668680450,943760240,,4.704010777916185,3.789029480587104,8.754139637695408,0.2819952122689278,-5e-324,0.0
1668680450.951843,14648,1668680450,951600560,,4.78734290161715,3.926859931258429,8.874664608713582,0.2973560757653842,-5e-324,0.0
1668680450.959748,14649,1668680450,959537197,,4.831720471280699,4.000197277362438,8.938051891828763,0.3054816412099429,-5e-324,0.0
1668680450.9676886,14650,1668680450,967445893,,4.715736715540718,3.894868656065575,9.112519625008161,0.2838131513693678,-5e-324,0.0
1668680450.975583,14651,1668680450,975378774,,4.715736715540718,3.894868656065575,9.112519625008161,0.2838131513693678,-5e-324,0.0
1668680450.98374,14652,1668680450,983532218,,4.699331082033929,3.8350088080767293,9.265421909627051,0.2753228473672662,-5e-324,0.0
1668680450.9921727,14653,1668680450,991938370,,4.69045260528404,3.8038058881426178,9.346213595184784,0.2708288768683616,-5e-324,0.0
1668680450.9998991,14654,1668680450,999631381,,4.676105013590384,3.8206523852261656,9.496632615514255,0.2703105428404996,-5e-324,0.0
1668680451.0083194,14655,1668680451,7856468,,4.807312065163327,3.8561125876695503,9.588934697886259,0.2905953626780111,-5e-324,0.0
1668680451.015786,14656,1668680451,15543205,,4.807312065163327,3.8561125876695503,9.588934697886259,0.2905953626780111,-5e-324,0.0
1668680451.0237925,14657,1668680451,23550542,,4.876550037108429,3.874736321734355,9.637933288603797,0.3013167700589574,-5e-324,0.0
1668680451.0315747,14658,1668680451,31403271,,4.910952877066857,3.8754371742859712,9.70143486300896,0.302969343087365,-5e-324,0.0
1668680451.0402765,14659,1668680451,40046069,,4.928992325957662,3.8756845392830384,9.735177657121927,0.3038366232727475,-5e-324,0.0
1668680451.0478811,14660,1668680451,47629411,,4.85850978802319,3.7777512798578234,9.944032880980611,0.28448464061565504,-5e-324,0.0
1668680451.0556448,14661,1668680451,55402497,,4.85850978802319,3.7777512798578234,9.944032880980611,0.28448464061565504,-5e-324,0.0
1668680451.0639462,14662,1668680451,63719631,,4.790285933632667,3.717206828446592,10.14910845491762,0.26446018763012774,-5e-324,0.0
1668680451.0720694,14663,1668680451,71693472,,4.7539043351381345,3.6841887500503008,10.258155372999715,0.2538636356674778,-5e-324,0.0
1668680451.079761,14664,1668680451,79532033,,4.782949068108895,3.6129674885431053,10.340714709150417,0.25274508334858636,-5e-324,0.0
1668680451.0877426,14665,1668680451,87538164,,4.824688372813014,3.5839152644423153,10.318116594182037,0.2635281275214105,-5e-324,0.0
1668680451.0959098,14666,1668680451,95674355,,4.846518749201543,3.5682464267875993,10.306412021644078,0.26923271486024786,-5e-324,0.0
1668680451.10351,14667,1668680451,103289374,,4.846518749201543,3.5682464267875993,10.306412021644078,0.26923271486024786,-5e-324,0.0
1668680451.1126995,14668,1668680451,112448966,,4.845522273481384,3.5766826932511604,10.290347212450744,0.26995875033118677,-5e-324,0.0
1668680451.1207573,14669,1668680451,120490538,,4.845713758626781,3.5816173241443607,10.281283247313837,0.27034059829344137,-5e-324,0.0
1668680451.1286073,14670,1668680451,128395303,,4.747083421801118,3.5232002113499448,10.282956240665499,0.255855327533472,-5e-324,0.0
1668680451.1361184,14671,1668680451,135852202,,4.747083421801118,3.5232002113499448,10.282956240665499,0.255855327533472,-5e-324,0.0
1668680451.143872,14672,1668680451,143650076,,4.660518605556326,3.5241002061890407,10.31655032783895,0.23629200401611705,-5e-324,0.0
1668680451.1519756,14673,1668680451,151663511,,4.614908036199083,3.5242911430004824,10.334345296151625,0.22595305267900367,-5e-324,0.0
1668680451.1597784,14674,1668680451,159589777,,4.512657656455316,3.503709086671317,10.297696517414995,0.2108173496346648,-5e-324,0.0
1668680451.1684992,14675,1668680451,168264528,,4.4039192369850495,3.6724178088175528,10.17158499439984,0.209604531928053,-5e-324,0.0
1668680451.1753857,14676,1668680451,175183739,,4.4039192369850495,3.6724178088175528,10.17158499439984,0.209604531928053,-5e-324,0.0
1668680451.183957,14677,1668680451,183769667,,4.346234924275512,3.761841378881548,10.10486347245441,0.2089615664541245,-5e-324,0.0
