Time,header.seq,header.stamp.secs,header.stamp.nsecs,header.frame_id,pose.position.x,pose.position.y,pose.position.z,pose.orientation.x,pose.orientation.y,pose.orientation.z,pose.orientation.w
1668680447.392214,14203,1668680447,392028448,,-0.09879818042605837,-0.6160097982720756,0.07088206676343922,0.9955612156868469,0.09352316526210465,-0.004347595386304483,0.009611544820768937
1668680447.3996363,14204,1668680447,399464634,,-0.09879818042605837,-0.6160097982720756,0.07088206676343922,0.9955612156868469,0.09352316526210465,-0.004347595386304483,0.009611544820768937
1668680447.4078941,14205,1668680447,407750388,,-0.09879818042605837,-0.6160097982720756,0.07088206676343922,0.9955612156868469,0.09352316526210465,-0.004347595386304483,0.009611544820768937
1668680447.416042,14206,1668680447,415896998,,-0.09879818042605837,-0.6160097982720756,0.07088206676343922,0.9955612156868469,0.09352316526210465,-0.004347595386304483,0.009611544820768937
1668680447.4235704,14207,1668680447,423313986,,-0.09879818042605837,-0.6160097982720756,0.07088206676343922,0.9955612156868469,0.09352316526210465,-0.004347595386304483,0.009611544820768937
1668680447.4315684,14208,1668680447,431434666,,-0.09879818042605837,-0.6160097982720756,0.07088206676343922,0.9955612156868469,0.09352316526210465,-0.004347595386304483,0.009611544820768937
1668680447.440394,14209,1668680447,440184539,,-0.09879818042605837,-0.6160097982720756,0.07088206676343922,0.9955612156868469,0.09352316526210465,-0.004347595386304483,0.009611544820768937
1668680447.4485855,14210,1668680447,448383123,,-0.09879818042605837,-0.6160097982720756,0.07088206676343922,0.9955612156868469,0.09352316526210465,-0.004347595386304483,0.009611544820768937
1668680447.4561641,14211,1668680447,456021403,,-0.09879818042605837,-0.6160097982720756,0.07088206676343922,0.9955612156868469,0.09352316526210465,-0.004347595386304483,0.009611544820768937
1668680447.4649246,14212,1668680447,464597601,,-0.09879818042605837,-0.6160097982720756,0.07088206676343922,0.9955612156868469,0.09352316526210465,-0.004347595386304483,0.009611544820768937
1668680447.4725833,14213,1668680447,472424886,,-0.09879818042605837,-0.6160097982720756,0.07088206676343922,0.9955612156868469,0.09352316526210465,-0.004347595386304483,0.009611544820768937
1668680447.479716,14214,1668680447,479562985,,-0.09879818042605837,-0.6160097982720756,0.07088206676343922,0.9955612156868469,0.09352316526210465,-0.004347595386304483,0.009611544820768937
1668680447.4879422,14215,1668680447,487803085,,-0.09879818042605837,-0.6160097982720756,0.07088206676343922,0.9955612156868469,0.09352316526210465,-0.004347595386304483,0.009611544820768937
1668680447.4955168,14216,1668680447,495288959,,-0.09879818042605837,-0.6160097982720756,0.07088206676343922,0.9955612156868469,0.09352316526210465,-0.004347595386304483,0.009611544820768937
1668680447.5038083,14217,1668680447,503703575,,-0.09879818042605837,-0.6160097982720756,0.07088206676343922,0.9955612156868469,0.09352316526210465,-0.004347595386304483,0.009611544820768937
1668680447.5119004,14218,1668680447,511750445,,-0.09879818042605837,-0.6160097982720756,0.07088206676343922,0.9955612156868469,0.09352316526210465,-0.004347595386304483,0.009611544820768937
1668680447.5199125,14219,1668680447,519670703,,-0.09879818042605837,-0.6160097982720756,0.07088206676343922,0.9955612156868469,0.09352316526210465,-0.004347595386304483,0.009611544820768937
1668680447.5280209,14220,1668680447,527825803,,-0.09879818042605837,-0.6160097982720756,0.07088206676343922,0.9955612156868469,0.09352316526210465,-0.004347595386304483,0.009611544820768937
1668680447.5357916,14221,1668680447,535592691,,-0.09879818042605837,-0.6160097982720756,0.07088206676343922,0.9955612156868469,0.09352316526210465,-0.004347595386304483,0.009611544820768937
1668680447.5433662,14222,1668680447,543218277,,-0.09879818042605837,-0.6160097982720756,0.07088206676343922,0.9955612156868469,0.09352316526210465,-0.004347595386304483,0.009611544820768937
1668680447.5519795,14223,1668680447,551791001,,-0.09879818042605837,-0.6160097982720756,0.07088206676343922,0.9955612156868469,0.09352316526210465,-0.004347595386304483,0.009611544820768937
1668680447.5600502,14224,1668680447,559830063,,-0.09879818042605837,-0.6160097982720756,0.07088206676343922,0.9955612156868469,0.09352316526210465,-0.004347595386304483,0.009611544820768937
1668680447.5679824,14225,1668680447,567819303,,-0.09879818042605837,-0.6160097982720756,0.07088206676343922,0.9955612156868469,0.09352316526210465,-0.004347595386304483,0.009611544820768937
1668680447.5757823,14226,1668680447,575624157,,-0.09879818042605837,-0.6160097982720756,0.07088206676343922,0.9955612156868469,0.09352316526210465,-0.004347595386304483,0.009611544820768937
1668680447.5834358,14227,1668680447,583291709,,-0.09879818042605837,-0.6160097982720756,0.07088206676343922,0.9955612156868469,0.09352316526210465,-0.004347595386304483,0.009611544820768937
1668680447.5916317,14228,1668680447,591514983,,-0.09879818042605837,-0.6160097982720756,0.07088206676343922,0.9955612156868469,0.09352316526210465,-0.004347595386304483,0.009611544820768937
1668680447.5996454,14229,1668680447,599495068,,-0.09879818042605837,-0.6160097982720756,0.07088206676343922,0.9955612156868469,0.09352316526210465,-0.004347595386304483,0.009611544820768937
1668680447.6077778,14230,1668680447,607631281,,-0.09879818042605837,-0.6160097982720756,0.07088206676343922,0.9955612156868469,0.09352316526210465,-0.004347595386304483,0.009611544820768937
1668680447.6156032,14231,1668680447,615388339,,-0.09879818042605837,-0.6160097982720756,0.07088206676343922,0.9955612156868469,0.09352316526210465,-0.004347595386304483,0.009611544820768937
1668680447.6238697,14232,1668680447,623617156,,-0.09879818042605837,-0.6160097982720756,0.07088206676343922,0.9955612156868469,0.09352316526210465,-0.004347595386304483,0.009611544820768937
1668680447.6318464,14233,1668680447,631659649,,-0.09879818042605837,-0.6160097982720756,0.07088206676343922,0.9955612156868469,0.09352316526210465,-0.004347595386304483,0.009611544820768937
1668680447.6397016,14234,1668680447,639582768,,-0.09879818042605837,-0.6160097982720756,0.07088206676343922,0.9955612156868469,0.09352316526210465,-0.004347595386304483,0.009611544820768937
1668680447.6480856,14235,1668680447,647948230,,-0.09879818042605837,-0.6160097982720756,0.07088206676343922,0.9955612156868469,0.09352316526210465,-0.004347595386304483,0.009611544820768937
1668680447.6556766,14236,1668680447,655482068,,-0.09879818042605837,-0.6160097982720756,0.07088206676343922,0.9955612156868469,0.09352316526210465,-0.004347595386304483,0.009611544820768937
1668680447.663677,14237,1668680447,663528235,,-0.09879818042605837,-0.6160097982720756,0.07088206676343922,0.9955612156868469,0.09352316526210465,-0.004347595386304483,0.009611544820768937
1668680447.6717691,14238,1668680447,671577749,,-0.09879818042605837,-0.6160097982720756,0.07088206676343922,0.9955612156868469,0.09352316526210465,-0.004347595386304483,0.009611544820768937
1668680447.6797807,14239,1668680447,679609608,,-0.09879818042605837,-0.6160097982720756,0.07088206676343922,0.9955612156868469,0.09352316526210465,-0.004347595386304483,0.009611544820768937
1668680447.6876822,14240,1668680447,687513643,,-0.09879818042605837,-0.6160097982720756,0.07088206676343922,0.9955612156868469,0.09352316526210465,-0.004347595386304483,0.009611544820768937
1668680447.6959238,14241,1668680447,695636742,,-0.09879818042605837,-0.6160097982720756,0.07088206676343922,0.9955612156868469,0.09352316526210465,-0.004347595386304483,0.009611544820768937
1668680447.7036312,14242,1668680447,703494122,,-0.09879818042605837,-0.6160097982720756,0.07088206676343922,0.9955612156868469,0.09352316526210465,-0.004347595386304483,0.009611544820768937
1668680447.7118697,14243,1668680447,711654408,,-0.09879818042605837,-0.6160097982720756,0.07088206676343922,0.9955612156868469,0.09352316526210465,-0.004347595386304483,0.009611544820768937
1668680447.720021,14244,1668680447,719667059,,-0.09879818042605837,-0.6160097982720756,0.07088206676343922,0.9955612156868469,0.09352316526210465,-0.004347595386304483,0.009611544820768937
1668680447.728281,14245,1668680447,728088871,,-0.09879818042605837,-0.6160097982720756,0.07088206676343922,0.9955612156868469,0.09352316526210465,-0.004347595386304483,0.009611544820768937
1668680447.7357755,14246,1668680447,735547089,,-0.09879818042605837,-0.6160097982720756,0.07088206676343922,0.9955612156868469,0.09352316526210465,-0.004347595386304483,0.009611544820768937
1668680447.743608,14247,1668680447,743444186,,-0.09879818042605837,-0.6160097982720756,0.07088206676343922,0.9955612156868469,0.09352316526210465,-0.004347595386304483,0.009611544820768937
1668680447.751909,14248,1668680447,751634155,,-0.09879818042605837,-0.6160097982720756,0.07088206676343922,0.9955612156868469,0.09352316526210465,-0.004347595386304483,0.009611544820768937
1668680447.7597196,14249,1668680447,759569811,,-0.09879818042605837,-0.6160097982720756,0.07088206676343922,0.9955612156868469,0.09352316526210465,-0.004347595386304483,0.009611544820768937
1668680447.7678542,14250,1668680447,767606472,,-0.09879818042605837,-0.6160097982720756,0.07088206676343922,0.9955612156868469,0.09352316526210465,-0.004347595386304483,0.009611544820768937
1668680447.7759185,14251,1668680447,775744539,,-0.09879818042605837,-0.6160097982720756,0.07088206676343922,0.9955612156868469,0.09352316526210465,-0.004347595386304483,0.009611544820768937
1668680447.7838671,14252,1668680447,783672633,,-0.09879818042605837,-0.6160097982720756,0.07088206676343922,0.9955612156868469,0.09352316526210465,-0.004347595386304483,0.009611544820768937
1668680447.7922099,14253,1668680447,791933804,,-0.09879818042605837,-0.6160097982720756,0.07088206676343922,0.9955612156868469,0.09352316526210465,-0.004347595386304483,0.009611544820768937
1668680447.7998831,14254,1668680447,799679137,,-0.09879818042605837,-0.6160097982720756,0.07088206676343922,0.9955612156868469,0.09352316526210465,-0.004347595386304483,0.009611544820768937
1668680447.8078258,14255,1668680447,807636835,,-0.09879818042605837,-0.6160097982720756,0.07088206676343922,0.9955612156868469,0.09352316526210465,-0.004347595386304483,0.009611544820768937
1668680447.815601,14256,1668680447,815339103,,-0.09879818042605837,-0.6160097982720756,0.07088206676343922,0.9955612156868469,0.09352316526210465,-0.004347595386304483,0.009611544820768937
1668680447.8238122,14257,1668680447,823663775,,-0.09879818042605837,-0.6160097982720756,0.07088206676343922,0.9955612156868469,0.09352316526210465,-0.004347595386304483,0.009611544820768937
1668680447.8316882,14258,1668680447,831500949,,-0.09879818042605837,-0.6160097982720756,0.07088206676343922,0.9955612156868469,0.09352316526210465,-0.004347595386304483,0.009611544820768937
1668680447.8398683,14259,1668680447,839745865,,-0.09879818042605837,-0.6160097982720756,0.07088206676343922,0.9955612156868469,0.09352316526210465,-0.004347595386304483,0.009611544820768937
1668680447.8478467,14260,1668680447,847651287,,-0.09879818042605837,-0.6160097982720756,0.07088206676343922,0.9955612156868469,0.09352316526210465,-0.004347595386304483,0.009611544820768937
1668680447.8557115,14261,1668680447,855515783,,-0.09879818042605837,-0.6160097982720756,0.07088206676343922,0.9955612156868469,0.09352316526210465,-0.004347595386304483,0.009611544820768937
1668680447.8662832,14262,1668680447,864459116,,-0.09879818042605837,-0.6160097982720756,0.07088206676343922,0.9955612156868469,0.09352316526210465,-0.004347595386304483,0.009611544820768937
1668680447.8724387,14263,1668680447,872012839,,-0.09879818042605837,-0.6160097982720756,0.07088206676343922,0.9955612156868469,0.09352316526210465,-0.004347595386304483,0.009611544820768937
1668680447.8800814,14264,1668680447,879868748,,-0.09879818042605837,-0.6160097982720756,0.07088206676343922,0.9955612156868469,0.09352316526210465,-0.004347595386304483,0.009611544820768937
1668680447.8876686,14265,1668680447,887543693,,-0.09879818042605837,-0.6160097982720756,0.07088206676343922,0.9955612156868469,0.09352316526210465,-0.004347595386304483,0.009611544820768937
1668680447.8963983,14266,1668680447,896253158,,-0.09879818042605837,-0.6160097982720756,0.07088206676343922,0.9955612156868469,0.09352316526210465,-0.004347595386304483,0.009611544820768937
1668680447.9035132,14267,1668680447,903289542,,-0.09879818042605837,-0.6160097982720756,0.07088206676343922,0.9955612156868469,0.09352316526210465,-0.004347595386304483,0.009611544820768937
1668680447.9115722,14268,1668680447,911460812,,-0.09879818042605837,-0.6160097982720756,0.07088206676343922,0.9955612156868469,0.09352316526210465,-0.004347595386304483,0.009611544820768937
1668680447.9198303,14269,1668680447,919575069,,-0.09879818042605837,-0.6160097982720756,0.07088206676343922,0.9955612156868469,0.09352316526210465,-0.004347595386304483,0.009611544820768937
1668680447.9277728,14270,1668680447,927639193,,-0.09879818042605837,-0.6160097982720756,0.07088206676343922,0.9955612156868469,0.09352316526210465,-0.004347595386304483,0.009611544820768937
1668680447.9356701,14271,1668680447,935526005,,-0.09879818042605837,-0.6160097982720756,0.07088206676343922,0.9955612156868469,0.09352316526210465,-0.004347595386304483,0.009611544820768937
1668680447.9439216,14272,1668680447,943773088,,-0.09879818042605837,-0.6160097982720756,0.07088206676343922,0.9955612156868469,0.09352316526210465,-0.004347595386304483,0.009611544820768937
1668680447.9517066,14273,1668680447,951517683,,-0.09879818042605837,-0.6160097982720756,0.07088206676343922,0.9955612156868469,0.09352316526210465,-0.004347595386304483,0.009611544820768937
1668680447.9595854,14274,1668680447,959477151,,-0.09879818042605837,-0.6160097982720756,0.07088206676343922,0.9955612156868469,0.09352316526210465,-0.004347595386304483,0.009611544820768937
1668680447.9677265,14275,1668680447,967601187,,-0.09879818042605837,-0.6160097982720756,0.07088206676343922,0.9955612156868469,0.09352316526210465,-0.004347595386304483,0.009611544820768937
1668680447.9758208,14276,1668680447,975583502,,-0.09879818042605837,-0.6160097982720756,0.07088206676343922,0.9955612156868469,0.09352316526210465,-0.004347595386304483,0.009611544820768937
1668680447.9835842,14277,1668680447,983341734,,-0.09879818042605837,-0.6160097982720756,0.07088206676343922,0.9955612156868469,0.09352316526210465,-0.004347595386304483,0.009611544820768937
1668680447.9918306,14278,1668680447,991657786,,-0.09879818042605837,-0.6160097982720756,0.07088206676343922,0.9955612156868469,0.09352316526210465,-0.004347595386304483,0.009611544820768937
1668680447.999868,14279,1668680447,999698777,,-0.09879818042605837,-0.6160097982720756,0.07088206676343922,0.9955612156868469,0.09352316526210465,-0.004347595386304483,0.009611544820768937
1668680448.0083325,14280,1668680448,8070639,,-0.09879818042605837,-0.6160097982720756,0.07088206676343922,0.9955612156868469,0.09352316526210465,-0.004347595386304483,0.009611544820768937
1668680448.0158412,14281,1668680448,15601681,,-0.09879818042605837,-0.6160097982720756,0.07088206676343922,0.9955612156868469,0.09352316526210465,-0.004347595386304483,0.009611544820768937
1668680448.024124,14282,1668680448,23898519,,-0.09879818042605837,-0.6160097982720756,0.07088206676343922,0.9955612156868469,0.09352316526210465,-0.004347595386304483,0.009611544820768937
1668680448.0319169,14283,1668680448,31785399,,-0.09879818042605837,-0.6160097982720756,0.07088206676343922,0.9955612156868469,0.09352316526210465,-0.004347595386304483,0.009611544820768937
1668680448.0407202,14284,1668680448,40098878,,-0.09879818042605837,-0.6160097982720756,0.07088206676343922,0.9955612156868469,0.09352316526210465,-0.004347595386304483,0.009611544820768937
1668680448.0478404,14285,1668680448,47583056,,-0.09879818042605837,-0.6160097982720756,0.07088206676343922,0.9955612156868469,0.09352316526210465,-0.004347595386304483,0.009611544820768937
1668680448.0564997,14286,1668680448,56216213,,-0.09879818042605837,-0.6160097982720756,0.07088206676343922,0.9955612156868469,0.09352316526210465,-0.004347595386304483,0.009611544820768937
1668680448.0641913,14287,1668680448,63859807,,-0.09879818042605837,-0.6160097982720756,0.07088206676343922,0.9955612156868469,0.09352316526210465,-0.004347595386304483,0.009611544820768937
1668680448.072141,14288,1668680448,71795026,,-0.09879818042605837,-0.6160097982720756,0.07088206676343922,0.9955612156868469,0.09352316526210465,-0.004347595386304483,0.009611544820768937
1668680448.079763,14289,1668680448,79567166,,-0.09879818042605837,-0.6160097982720756,0.07088206676343922,0.9955612156868469,0.09352316526210465,-0.004347595386304483,0.009611544820768937
1668680448.0878587,14290,1668680448,87658736,,-0.09879818042605837,-0.6160097982720756,0.07088206676343922,0.9955612156868469,0.09352316526210465,-0.004347595386304483,0.009611544820768937
1668680448.095561,14291,1668680448,95307756,,-0.09879818042605837,-0.6160097982720756,0.07088206676343922,0.9955612156868469,0.09352316526210465,-0.004347595386304483,0.009611544820768937
1668680448.1037848,14292,1668680448,103651406,,-0.09879818042605837,-0.6160097982720756,0.07088206676343922,0.9955612156868469,0.09352316526210465,-0.004347595386304483,0.009611544820768937
1668680448.1117878,14293,1668680448,111604354,,-0.09879818042605837,-0.6160097982720756,0.07088206676343922,0.9955612156868469,0.09352316526210465,-0.004347595386304483,0.009611544820768937
1668680448.1198225,14294,1668680448,119607291,,-0.09879818042605837,-0.6160097982720756,0.07088206676343922,0.9955612156868469,0.09352316526210465,-0.004347595386304483,0.009611544820768937
1668680448.1277988,14295,1668680448,127658186,,-0.09879818042605837,-0.6160097982720756,0.07088206676343922,0.9955612156868469,0.09352316526210465,-0.004347595386304483,0.009611544820768937
1668680448.1358657,14296,1668680448,135639448,,-0.09879818042605837,-0.6160097982720756,0.07088206676343922,0.9955612156868469,0.09352316526210465,-0.004347595386304483,0.009611544820768937
1668680448.14387,14297,1668680448,143734667,,-0.09879818042605837,-0.6160097982720756,0.07088206676343922,0.9955612156868469,0.09352316526210465,-0.004347595386304483,0.009611544820768937
1668680448.152067,14298,1668680448,151852609,,-0.09879818042605837,-0.6160097982720756,0.07088206676343922,0.9955612156868469,0.09352316526210465,-0.004347595386304483,0.009611544820768937
1668680448.159927,14299,1668680448,159803927,,-0.09879818042605837,-0.6160097982720756,0.07088206676343922,0.9955612156868469,0.09352316526210465,-0.004347595386304483,0.009611544820768937
1668680448.1678922,14300,1668680448,167666623,,-0.09879818042605837,-0.6160097982720756,0.07088206676343922,0.9955612156868469,0.09352316526210465,-0.004347595386304483,0.009611544820768937
1668680448.1761978,14301,1668680448,175880445,,-0.09879818042605837,-0.6160097982720756,0.07088206676343922,0.9955612156868469,0.09352316526210465,-0.004347595386304483,0.009611544820768937
1668680448.1837401,14302,1668680448,183447302,,-0.09879818042605837,-0.6160097982720756,0.07088206676343922,0.9955612156868469,0.09352316526210465,-0.004347595386304483,0.009611544820768937
1668680448.1920927,14303,1668680448,191868530,,-0.09879818042605837,-0.6160097982720756,0.07088206676343922,0.9955612156868469,0.09352316526210465,-0.004347595386304483,0.009611544820768937
1668680448.19978,14304,1668680448,199613931,,-0.09879818042605837,-0.6160097982720756,0.07088206676343922,0.9955612156868469,0.09352316526210465,-0.004347595386304483,0.009611544820768937
1668680448.2077868,14305,1668680448,207582045,,-0.09879818042605837,-0.6160097982720756,0.07088206676343922,0.9955612156868469,0.09352316526210465,-0.004347595386304483,0.009611544820768937
1668680448.215496,14306,1668680448,215284552,,-0.09879818042605837,-0.6160097982720756,0.07088206676343922,0.9955612156868469,0.09352316526210465,-0.004347595386304483,0.009611544820768937
1668680448.2240162,14307,1668680448,223706938,,-0.09879818042605837,-0.6160097982720756,0.07088206676343922,0.9955612156868469,0.09352316526210465,-0.004347595386304483,0.009611544820768937
1668680448.2317867,14308,1668680448,231633403,,-0.09879818042605837,-0.6160097982720756,0.07088206676343922,0.9955612156868469,0.09352316526210465,-0.004347595386304483,0.009611544820768937
1668680448.2397873,14309,1668680448,239647804,,-0.09879818042605837,-0.6160097982720756,0.07088206676343922,0.9955612156868469,0.09352316526210465,-0.004347595386304483,0.009611544820768937
1668680448.2478352,14310,1668680448,247698679,,-0.09879818042605837,-0.6160097982720756,0.07088206676343922,0.9955612156868469,0.09352316526210465,-0.004347595386304483,0.009611544820768937
1668680448.255763,14311,1668680448,255606100,,-0.09879818042605837,-0.6160097982720756,0.07088206676343922,0.9955612156868469,0.09352316526210465,-0.004347595386304483,0.009611544820768937
1668680448.263556,14312,1668680448,263331754,,-0.09879739085812189,-0.6160090541218269,0.07088206676343922,0.9955612156868469,0.09352316526210465,-0.004347595386304483,0.009611544820768937
1668680448.272686,14313,1668680448,272444896,,-0.0987950221592998,-0.6160068216757817,0.07088206676343922,0.9955612156868469,0.09352316526210465,-0.004347595386304483,0.009611544820768937
1668680448.2804725,14314,1668680448,280296208,,-0.09879107434455411,-0.6160031009480429,0.07088206676343922,0.9955612156868469,0.09352316526210465,-0.004347595386304483,0.009611544820768937
1668680448.2889118,14315,1668680448,288542868,,-0.09878554743882131,-0.6159978919621191,0.07088206676343922,0.9955612156868469,0.09352316526210465,-0.004347595386304483,0.009611544820768937
1668680448.2966444,14316,1668680448,296351368,,-0.0987784414770124,-0.6159911947509296,0.07088206676343922,0.9955612156868469,0.09352316526210465,-0.004347595386304483,0.009611544820768937
1668680448.304238,14317,1668680448,304069349,,-0.09876975650401246,-0.6159830093568123,0.07088206676343922,0.9955612156868469,0.09352316526210465,-0.004347595386304483,0.009611544820768937
1668680448.3117697,14318,1668680448,311607598,,-0.0987594925746805,-0.6159733358315331,0.07088206676343922,0.9955612156868469,0.09352316526210465,-0.004347595386304483,0.009611544820768937
1668680448.320623,14319,1668680448,320294759,,-0.09874764975384909,-0.6159621742362976,0.07088206676343922,0.9955612156868469,0.09352316526210465,-0.004347595386304483,0.009611544820768937
1668680448.3283398,14320,1668680448,328041688,,-0.09873422811632393,-0.615949524641765,0.07088206676343922,0.9955612156868469,0.09352316526210465,-0.004347595386304483,0.009611544820768937
1668680448.3358555,14321,1668680448,335619070,,-0.09871922774688335,-0.6159353871280643,0.07088206676343922,0.9955612156868469,0.09352316526210465,-0.004347595386304483,0.009611544820768937
1668680448.343835,14322,1668680448,343589997,,-0.09870264874027787,-0.6159197617848122,0.07088206676343922,0.9955612156868469,0.09352316526210465,-0.004347595386304483,0.009611544820768937
1668680448.3518686,14323,1668680448,351652212,,-0.09868449120122949,-0.6159026487111336,0.07088206676343922,0.9955612156868469,0.09352316526210465,-0.004347595386304483,0.009611544820768937
1668680448.3597753,14324,1668680448,359605149,,-0.09866475524443108,-0.615884048015684,0.07088206676343922,0.9955612156868469,0.09352316526210465,-0.004347595386304483,0.009611544820768937
1668680448.3678055,14325,1668680448,367603557,,-0.09864344099454567,-0.6158639598166737,0.07088206676343922,0.9955612156868469,0.09352316526210465,-0.004347595386304483,0.009611544820768937
1668680448.3759289,14326,1668680448,375772246,,-0.09862054858620567,-0.6158423842418951,0.07088206676343922,0.9955612156868469,0.09352316526210465,-0.004347595386304483,0.009611544820768937
1668680448.3834996,14327,1668680448,383242911,,-0.09859607816401197,-0.6158193214287508,0.07088206676343922,0.9955612156868469,0.09352316526210465,-0.004347595386304483,0.009611544820768937
1668680448.3918772,14328,1668680448,391700647,,-0.09857002988253305,-0.6157947715242852,0.07088206676343922,0.9955612156868469,0.09352316526210465,-0.004347595386304483,0.009611544820768937
1668680448.4001002,14329,1668680448,399919457,,-0.098542403906304,-0.6157687346852169,0.07088206676343922,0.9955612156868469,0.09352316526210465,-0.004347595386304483,0.009611544820768937
1668680448.40769,14330,1668680448,407567985,,-0.0985132004098255,-0.6157412110779739,0.07088206676343922,0.9955612156868469,0.09352316526210465,-0.004347595386304483,0.009611544820768937
1668680448.415564,14331,1668680448,415408927,,-0.09848241957756274,-0.6157122008787316,0.07088206676343922,0.9955612156868469,0.09352316526210465,-0.004347595386304483,0.009611544820768937
1668680448.423823,14332,1668680448,423673965,,-0.09845006160394415,-0.6156817042734511,0.07088206676343922,0.9955612156868469,0.09352316526210465,-0.004347595386304483,0.009611544820768937
1668680448.4318306,14333,1668680448,431612772,,-0.09841612669336028,-0.6156497214579215,0.07088206676343922,0.9955612156868469,0.09352316526210465,-0.004347595386304483,0.009611544820768937
1668680448.4397233,14334,1668680448,439579837,,-0.09838061506016249,-0.615616252637803,0.07088206676343922,0.9955612156868469,0.09352316526210465,-0.004347595386304483,0.009611544820768937
1668680448.4480064,14335,1668680448,447753354,,-0.09834352692866155,-0.6155812980286723,0.07088206676343922,0.9955612156868469,0.09352316526210465,-0.004347595386304483,0.009611544820768937
1668680448.4558978,14336,1668680448,455662718,,-0.09830486253312626,-0.6155448578560716,0.07088206676343922,0.9955612156868469,0.09352316526210465,-0.004347595386304483,0.009611544820768937
1668680448.4639778,14337,1668680448,463728820,,-0.09826462211778192,-0.6155069323555565,0.07088206676343922,0.9955612156868469,0.09352316526210465,-0.004347595386304483,0.009611544820768937
1668680448.4721634,14338,1668680448,471922137,,-0.0982228059368089,-0.6154675217727498,0.07088206676343922,0.9955612156868469,0.09352316526210465,-0.004347595386304483,0.009611544820768937
1668680448.4803727,14339,1668680448,480015996,,-0.09817941425434093,-0.6154266263633941,0.07088206676343922,0.9955612156868469,0.09352316526210465,-0.004347595386304483,0.009611544820768937
1668680448.487866,14340,1668680448,487657960,,-0.09813444734446342,-0.6153842463934087,0.07088206676343922,0.9955612156868469,0.09352316526210465,-0.004347595386304483,0.009611544820768937
1668680448.4956515,14341,1668680448,495485866,,-0.09808790549121185,-0.6153403821389474,0.07088206676343922,0.9955612156868469,0.09352316526210465,-0.004347595386304483,0.009611544820768937
1668680448.5036304,14342,1668680448,503429196,,-0.09803978898856983,-0.6152950338864587,0.07088206676343922,0.9955612156868469,0.09352316526210465,-0.004347595386304483,0.009611544820768937
1668680448.51184,14343,1668680448,511666650,,-0.09799009814046739,-0.615248201932748,0.07088206676343922,0.9955612156868469,0.09352316526210465,-0.004347595386304483,0.009611544820768937
1668680448.5196373,14344,1668680448,519521310,,-0.09793883326077887,-0.6151998865850422,0.07088206676343922,0.9955612156868469,0.09352316526210465,-0.004347595386304483,0.009611544820768937
1668680448.5278134,14345,1668680448,527634633,,-0.09788599467332115,-0.6151500881610557,0.07088206676343922,0.9955612156868469,0.09352316526210465,-0.004347595386304483,0.009611544820768937
1668680448.535462,14346,1668680448,535287355,,-0.09783158271185147,-0.6150988069890589,0.07088206676343922,0.9955612156868469,0.09352316526210465,-0.004347595386304483,0.009611544820768937
1668680448.5439386,14347,1668680448,543734436,,-0.09777559772006533,-0.6150460434079489,0.07088206676343922,0.9955612156868469,0.09352316526210465,-0.004347595386304483,0.009611544820768937
1668680448.5517747,14348,1668680448,551594005,,-0.0977180400515944,-0.6149917977673213,0.07088206676343922,0.9955612156868469,0.09352316526210465,-0.004347595386304483,0.009611544820768937
1668680448.559741,14349,1668680448,559592799,,-0.09765891007000416,-0.6149360704275453,0.07088206676343922,0.9955612156868469,0.09352316526210465,-0.004347595386304483,0.009611544820768937
1668680448.5676818,14350,1668680448,567533587,,-0.09759820814879172,-0.61487886175984,0.07088206676343922,0.9955612156868469,0.09352316526210465,-0.004347595386304483,0.009611544820768937
1668680448.5755236,14351,1668680448,575303306,,-0.09753593467138338,-0.6148201721463525,0.07088206676343922,0.9955612156868469,0.09352316526210465,-0.004347595386304483,0.009611544820768937
1668680448.5838704,14352,1668680448,583651448,,-0.09747209003113233,-0.6147600019802392,0.07088206676343922,0.9955612156868469,0.09352316526210465,-0.004347595386304483,0.009611544820768937
1668680448.5916617,14353,1668680448,591504812,,-0.09740667463131597,-0.6146983516657473,0.07088206676343922,0.9955612156868469,0.09352316526210465,-0.004347595386304483,0.009611544820768937
1668680448.5997128,14354,1668680448,599548294,,-0.09733968888513356,-0.6146352216182998,0.07088206676343922,0.9955612156868469,0.09352316526210465,-0.004347595386304483,0.009611544820768937
1668680448.6078286,14355,1668680448,607635782,,-0.09727113321570341,-0.614570612264582,0.07088206676343922,0.9955612156868469,0.09352316526210465,-0.004347595386304483,0.009611544820768937
1668680448.6159604,14356,1668680448,615777717,,-0.09720100805606047,-0.6145045240426298,0.07088206676343922,0.9955612156868469,0.09352316526210465,-0.004347595386304483,0.009611544820768937
1668680448.6242385,14357,1668680448,623861188,,-0.09712931384915327,-0.6144369574019197,0.07088206676343922,0.9955612156868469,0.09352316526210465,-0.004347595386304483,0.009611544820768937
1668680448.6317484,14358,1668680448,631637931,,-0.09705605104784146,-0.6143679128034619,0.07088206676343922,0.9955612156868469,0.09352316526210465,-0.004347595386304483,0.009611544820768937
1668680448.6397758,14359,1668680448,639626879,,-0.09698122011489269,-0.6142973907198935,0.07088206676343922,0.9955612156868469,0.09352316526210465,-0.004347595386304483,0.009611544820768937
1668680448.6477838,14360,1668680448,647575753,,-0.0969048215229798,-0.6142253916355758,0.07088206676343922,0.9955612156868469,0.09352316526210465,-0.004347595386304483,0.009611544820768937
1668680448.6558454,14361,1668680448,655624540,,-0.09682685575467781,-0.6141519160466912,0.07088206676343922,0.9955612156868469,0.09352316526210465,-0.004347595386304483,0.009611544820768937
1668680448.6638644,14362,1668680448,663720182,,-0.09674732330246089,-0.6140769644613444,0.07088206676343922,0.9955612156868469,0.09352316526210465,-0.004347595386304483,0.009611544820768937
1668680448.6722264,14363,1668680448,671857199,,-0.09666622466869923,-0.6140005373996638,0.07088206676343922,0.9955612156868469,0.09352316526210465,-0.004347595386304483,0.009611544820768937
1668680448.679996,14364,1668680448,679753872,,-0.09658356036565591,-0.6139226353939049,0.07088206676343922,0.9955612156868469,0.09352316526210465,-0.004347595386304483,0.009611544820768937
1668680448.687942,14365,1668680448,687732029,,-0.09649933091548354,-0.6138432589885567,0.07088206676343922,0.9955612156868469,0.09352316526210465,-0.004347595386304483,0.009611544820768937
1668680448.6956735,14366,1668680448,695475540,,-0.09641353685022117,-0.6137624087404491,0.07088206676343922,0.9955612156868469,0.09352316526210465,-0.004347595386304483,0.009611544820768937
1668680448.7033415,14367,1668680448,703213390,,-0.09632617871179067,-0.613680085218862,0.07088206676343922,0.9955612156868469,0.09352316526210465,-0.004347595386304483,0.009611544820768937
1668680448.7121136,14368,1668680448,711915585,,-0.09623725705199357,-0.6135962890056369,0.07088206676343922,0.9955612156868469,0.09352316526210465,-0.004347595386304483,0.009611544820768937
1668680448.7198477,14369,1668680448,719621769,,-0.09614677243250741,-0.6135110206952903,0.07088206676343922,0.9955612156868469,0.09352316526210465,-0.004347595386304483,0.009611544820768937
1668680448.727645,14370,1668680448,727530762,,-0.09605472542488219,-0.613424280895128,0.07088206676343922,0.9955612156868469,0.09352316526210465,-0.004347595386304483,0.009611544820768937
1668680448.7356322,14371,1668680448,735401120,,-0.09596111661053686,-0.6133360702253626,0.07088206676343922,0.9955612156868469,0.09352316526210465,-0.004347595386304483,0.009611544820768937
1668680448.7438965,14372,1668680448,743685081,,-0.09586594658075553,-0.6132463893192316,0.07088206676343922,0.9955612156868469,0.09352316526210465,-0.004347595386304483,0.009611544820768937
1668680448.7518623,14373,1668680448,751630361,,-0.09576921593668389,-0.6131552388231182,0.07088206676343922,0.9955612156868469,0.09352316526210465,-0.004347595386304483,0.009611544820768937
1668680448.7602072,14374,1668680448,760034913,,-0.09567092528932525,-0.6130626193966732,0.07088206676343922,0.9955612156868469,0.09352316526210465,-0.004347595386304483,0.009611544820768937
1668680448.7681897,14375,1668680448,767871618,,-0.0955710752595367,-0.6129685317129392,0.07088206676343922,0.9955612156868469,0.09352316526210465,-0.004347595386304483,0.009611544820768937
1668680448.7758856,14376,1668680448,775650491,,-0.09546966647802535,-0.6128729764584763,0.07088206676343922,0.9955612156868469,0.09352316526210465,-0.004347595386304483,0.009611544820768937
1668680448.784136,14377,1668680448,783967723,,-0.09536669958534419,-0.6127759543334896,0.07088206676343922,0.9955612156868469,0.09352316526210465,-0.004347595386304483,0.009611544820768937
1668680448.7918482,14378,1668680448,791674364,,-0.09526217523188801,-0.6126774660519583,0.07088206676343922,0.9955612156868469,0.09352316526210465,-0.004347595386304483,0.009611544820768937
1668680448.8005443,14379,1668680448,800296630,,-0.09515609407788952,-0.6125775123417669,0.07088206676343922,0.9955612156868469,0.09352316526210465,-0.004347595386304483,0.009611544820768937
1668680448.8078318,14380,1668680448,807684750,,-0.09504845679341486,-0.6124760939448378,0.07088206676343922,0.9955612156868469,0.09352316526210465,-0.004347595386304483,0.009611544820768937
1668680448.8158042,14381,1668680448,815665605,,-0.0949392640583597,-0.6123732116172657,0.07088206676343922,0.9955612156868469,0.09352316526210465,-0.004347595386304483,0.009611544820768937
1668680448.823439,14382,1668680448,823312477,,-0.09482851656244462,-0.6122688661294534,0.07088206676343922,0.9955612156868469,0.09352316526210465,-0.004347595386304483,0.009611544820768937
1668680448.832106,14383,1668680448,831858313,,-0.09471621500521105,-0.6121630582662503,0.07088206676343922,0.9955612156868469,0.09352316526210465,-0.004347595386304483,0.009611544820768937
1668680448.8399036,14384,1668680448,839668227,,-0.09460236009601664,-0.6120557888270909,0.07088206676343922,0.9955612156868469,0.09352316526210465,-0.004347595386304483,0.009611544820768937
1668680448.8478174,14385,1668680448,847617025,,-0.09448695255403086,-0.6119470586261365,0.07088206676343922,0.9955612156868469,0.09352316526210465,-0.004347595386304483,0.009611544820768937
1668680448.8556888,14386,1668680448,855452730,,-0.09436999310823052,-0.6118368684924178,0.07088206676343922,0.9955612156868469,0.09352316526210465,-0.004347595386304483,0.009611544820768937
1668680448.8638232,14387,1668680448,863614525,,-0.09425148249739498,-0.6117252192699789,0.07088206676343922,0.9955612156868469,0.09352316526210465,-0.004347595386304483,0.009611544820768937
1668680448.8718016,14388,1668680448,871631532,,-0.09413142147010173,-0.6116121118180237,0.07088206676343922,0.9955612156868469,0.09352316526210465,-0.004347595386304483,0.009611544820768937
1668680448.879712,14389,1668680448,879516596,,-0.09400981078472143,-0.6114975470110631,0.07088206676343922,0.9955612156868469,0.09352316526210465,-0.004347595386304483,0.009611544820768937
1668680448.8876276,14390,1668680448,887478679,,-0.09388665120941325,-0.6113815257390641,0.07088206676343922,0.9955612156868469,0.09352316526210465,-0.004347595386304483,0.009611544820768937
1668680448.895967,14391,1668680448,895808268,,-0.09376194352212006,-0.6112640489076009,0.07088206676343922,0.9955612156868469,0.09352316526210465,-0.004347595386304483,0.009611544820768937
1668680448.9040651,14392,1668680448,903841763,,-0.09363568851056334,-0.6111451174380066,0.07088206676343922,0.9955612156868469,0.09352316526210465,-0.004347595386304483,0.009611544820768937
1668680448.9122467,14393,1668680448,911689241,,-0.09350788697223839,-0.611024732267527,0.07088206676343922,0.9955612156868469,0.09352316526210465,-0.004347595386304483,0.009611544820768937
1668680448.9198189,14394,1668680448,919658464,,-0.09337853971440918,-0.6109028943494762,0.07088206676343922,0.9955612156868469,0.09352316526210465,-0.004347595386304483,0.009611544820768937
1668680448.9284472,14395,1668680448,928245753,,-0.09324764755410325,-0.6107796046533932,0.07088206676343922,0.9955612156868469,0.09352316526210465,-0.004347595386304483,0.009611544820768937
1668680448.9357631,14396,1668680448,935551565,,-0.09311521131810671,-0.6106548641652,0.07088206676343922,0.9955612156868469,0.09352316526210465,-0.004347595386304483,0.009611544820768937
1668680448.9433656,14397,1668680448,943238172,,-0.09298123184295873,-0.6105286738873617,0.07088206676343922,0.9955612156868469,0.09352316526210465,-0.004347595386304483,0.009611544820768937
1668680448.951953,14398,1668680448,951741747,,-0.09284570997494651,-0.610401034839047,0.07088206676343922,0.9955612156868469,0.09352316526210465,-0.004347595386304483,0.009611544820768937
1668680448.9598544,14399,1668680448,959638829,,-0.09270864657009983,-0.6102719480562916,0.07088206676343922,0.9955612156868469,0.09352316526210465,-0.004347595386304483,0.009611544820768937
1668680448.9678097,14400,1668680448,967622860,,-0.09257004249418563,-0.6101414145921621,0.07088206676343922,0.9955612156868469,0.09352316526210465,-0.004347595386304483,0.009611544820768937
1668680448.9759376,14401,1668680448,975769342,,-0.09242989862270262,-0.6100094355169208,0.07088206676343922,0.9955612156868469,0.09352316526210465,-0.004347595386304483,0.009611544820768937
1668680448.9834454,14402,1668680448,983308631,,-0.09228821584087563,-0.6098760119181932,0.07088206676343922,0.9955612156868469,0.09352316526210465,-0.004347595386304483,0.009611544820768937
1668680448.9918153,14403,1668680448,991655705,,-0.09214499504365012,-0.609741144901136,0.07088206676343922,0.9955612156868469,0.09352316526210465,-0.004347595386304483,0.009611544820768937
1668680448.999914,14404,1668680448,999671918,,-0.0920002371356865,-0.6096048355886066,0.07088206676343922,0.9955612156868469,0.09352316526210465,-0.004347595386304483,0.009611544820768937
1668680449.0083594,14405,1668680449,8065158,,-0.09185394303135438,-0.609467085121334,0.07088206676343922,0.9955612156868469,0.09352316526210465,-0.004347595386304483,0.009611544820768937
1668680449.015424,14406,1668680449,15279676,,-0.0917061136547268,-0.6093278946580911,0.07088206676343922,0.9955612156868469,0.09352316526210465,-0.004347595386304483,0.009611544820768937
1668680449.024136,14407,1668680449,23917669,,-0.09155674993957452,-0.6091872653758683,0.07088206676343922,0.9955612156868469,0.09352316526210465,-0.004347595386304483,0.009611544820768937
1668680449.0325718,14408,1668680449,32347247,,-0.09140585282935987,-0.6090451984700479,0.07088206676343922,0.9955612156868469,0.09352316526210465,-0.004347595386304483,0.009611544820768937
1668680449.0406477,14409,1668680449,40407038,,-0.09125342327723104,-0.6089016951545805,0.07088206676343922,0.9955612156868469,0.09352316526210465,-0.004347595386304483,0.009611544820768937
1668680449.0486693,14410,1668680449,48513945,,-0.09109946224601595,-0.6087567566621623,0.07088206676343922,0.9955612156868469,0.09352316526210465,-0.004347595386304483,0.009611544820768937
1668680449.0564532,14411,1668680449,56266463,,-0.09094397070821611,-0.6086103842444135,0.07088206676343922,0.9955612156868469,0.09352316526210465,-0.004347595386304483,0.009611544820768937
1668680449.0639431,14412,1668680449,63788720,,-0.09078694964600059,-0.6084625791720581,0.07088206676343922,0.9955612156868469,0.09352316526210465,-0.004347595386304483,0.009611544820768937
1668680449.072036,14413,1668680449,71812413,,-0.09062840005119976,-0.608313342735105,0.07088206676343922,0.9955612156868469,0.09352316526210465,-0.004347595386304483,0.009611544820768937
1668680449.0800045,14414,1668680449,79791110,,-0.09046832292529908,-0.6081626762430296,0.07088206676343922,0.9955612156868469,0.09352316526210465,-0.004347595386304483,0.009611544820768937
1668680449.0878372,14415,1668680449,87633206,,-0.0903067192794326,-0.6080105810249574,0.07088206676343922,0.9955612156868469,0.09352316526210465,-0.004347595386304483,0.009611544820768937
1668680449.0957499,14416,1668680449,95627640,,-0.09014359013437681,-0.6078570584298487,0.07088206676343922,0.9955612156868469,0.09352316526210465,-0.004347595386304483,0.009611544820768937
1668680449.1034775,14417,1668680449,103245983,,-0.08997893652054403,-0.6077021098266836,0.07088206676343922,0.9955612156868469,0.09352316526210465,-0.004347595386304483,0.009611544820768937
1668680449.1118207,14418,1668680449,111602802,,-0.08981275947797604,-0.6075457366046487,0.07088206676343922,0.9955612156868469,0.09352316526210465,-0.004347595386304483,0.009611544820768937
1668680449.1200104,14419,1668680449,119820228,,-0.08964506005633727,-0.6073879401733248,0.07088206676343922,0.9955612156868469,0.09352316526210465,-0.004347595386304483,0.009611544820768937
1668680449.1277869,14420,1668680449,127538106,,-0.08947583931490846,-0.6072287219628757,0.07088206676343922,0.9955612156868469,0.09352316526210465,-0.004347595386304483,0.009611544820768937
1668680449.135558,14421,1668680449,135428123,,-0.0893050983225798,-0.607068083424238,0.07088206676343922,0.9955612156868469,0.09352316526210465,-0.004347595386304483,0.009611544820768937
1668680449.1441314,14422,1668680449,143963140,,-0.08913283815784415,-0.6069060260293114,0.07088206676343922,0.9955612156868469,0.09352316526210465,-0.004347595386304483,0.009611544820768937
1668680449.1518068,14423,1668680449,151692499,,-0.08895905990879036,-0.6067425512711511,0.07088206676343922,0.9955612156868469,0.09352316526210465,-0.004347595386304483,0.009611544820768937
1668680449.1598291,14424,1668680449,159657740,,-0.08878376467309626,-0.6065776606641601,0.07088206676343922,0.9955612156868469,0.09352316526210465,-0.004347595386304483,0.009611544820768937
1668680449.167686,14425,1668680449,167564643,,-0.08860695355802187,-0.6064113557442827,0.07088206676343922,0.9955612156868469,0.09352316526210465,-0.004347595386304483,0.009611544820768937
1668680449.175497,14426,1668680449,175304788,,-0.0884286276804023,-0.6062436380692,0.07088206676343922,0.9955612156868469,0.09352316526210465,-0.004347595386304483,0.009611544820768937
1668680449.183783,14427,1668680449,183623354,,-0.08824878816664067,-0.6060745092185242,0.07088206676343922,0.9955612156868469,0.09352316526210465,-0.004347595386304483,0.009611544820768937
1668680449.19191,14428,1668680449,191682138,,-0.0880674361527011,-0.6059039707939956,0.07088206676343922,0.9955612156868469,0.09352316526210465,-0.004347595386304483,0.009611544820768937
1668680449.1998913,14429,1668680449,199593308,,-0.0878845727841015,-0.60573202441968,0.07088206676343922,0.9955612156868469,0.09352316526210465,-0.004347595386304483,0.009611544820768937
1668680449.2078834,14430,1668680449,207699793,,-0.08770019921590627,-0.6055586717421664,0.07088206676343922,0.9955612156868469,0.09352316526210465,-0.004347595386304483,0.009611544820768937
1668680449.2162564,14431,1668680449,215974008,,-0.08751431661271905,-0.6053839144307661,0.07088206676343922,0.9955612156868469,0.09352316526210465,-0.004347595386304483,0.009611544820768937
1668680449.2237825,14432,1668680449,223434947,,-0.08732692614867543,-0.6052077541777126,0.07088206676343922,0.9955612156868469,0.09352316526210465,-0.004347595386304483,0.009611544820768937
1668680449.2316463,14433,1668680449,231530478,,-0.08713802900743542,-0.6050301926983613,0.07088206676343922,0.9955612156868469,0.09352316526210465,-0.004347595386304483,0.009611544820768937
1668680449.2397807,14434,1668680449,239633520,,-0.08694762638217601,-0.604851231731392,0.07088206676343922,0.9955612156868469,0.09352316526210465,-0.004347595386304483,0.009611544820768937
1668680449.2477734,14435,1668680449,247562572,,-0.08675571947558366,-0.6046708730390096,0.07088206676343922,0.9955612156868469,0.09352316526210465,-0.004347595386304483,0.009611544820768937
1668680449.255894,14436,1668680449,255657355,,-0.0865623094998467,-0.6044891184071473,0.07088206676343922,0.9955612156868469,0.09352316526210465,-0.004347595386304483,0.009611544820768937
1668680449.2637916,14437,1668680449,263616387,,-0.08636739767664767,-0.6043059696456701,0.07088206676343922,0.9955612156868469,0.09352316526210465,-0.004347595386304483,0.009611544820768937
1668680449.2721252,14438,1668680449,271730735,,-0.08617098523715555,-0.6041214285885785,0.07088206676343922,0.9955612156868469,0.09352316526210465,-0.004347595386304483,0.009611544820768937
1668680449.2802303,14439,1668680449,280057804,,-0.08597307342201807,-0.6039354970942135,0.07088206676343922,0.9955612156868469,0.09352316526210465,-0.004347595386304483,0.009611544820768937
1668680449.2878847,14440,1668680449,287678114,,-0.08577366348135385,-0.6037481770454612,0.07088206676343922,0.9955612156868469,0.09352316526210465,-0.004347595386304483,0.009611544820768937
1668680449.29563,14441,1668680449,295363925,,-0.08557275667474437,-0.6035594703499592,0.07088206676343922,0.9955612156868469,0.09352316526210465,-0.004347595386304483,0.009611544820768937
1668680449.3038874,14442,1668680449,303670283,,-0.0853703542712263,-0.6033693789403028,0.07088206676343922,0.9955612156868469,0.09352316526210465,-0.004347595386304483,0.009611544820768937
1668680449.3120952,14443,1668680449,311959792,,-0.08516645754928318,-0.6031779047742521,0.07088206676343922,0.9955612156868469,0.09352316526210465,-0.004347595386304483,0.009611544820768937
1668680449.319613,14444,1668680449,319501166,,-0.08496106779683751,-0.6029850498349392,0.07088206676343922,0.9955612156868469,0.09352316526210465,-0.004347595386304483,0.009611544820768937
1668680449.3276641,14445,1668680449,327556616,,-0.08475418631124262,-0.6027908161310759,0.07088206676343922,0.9955612156868469,0.09352316526210465,-0.004347595386304483,0.009611544820768937
1668680449.3357697,14446,1668680449,335584462,,-0.08454581439927442,-0.602595205697163,0.07088206676343922,0.9955612156868469,0.09352316526210465,-0.004347595386304483,0.009611544820768937
1668680449.3437748,14447,1668680449,343609182,,-0.08433595337712313,-0.6023982205936982,0.07088206676343922,0.9955612156868469,0.09352316526210465,-0.004347595386304483,0.009611544820768937
1668680449.3524773,14448,1668680449,352186120,,-0.08412460457038504,-0.6021998629073859,0.07088206676343922,0.9955612156868469,0.09352316526210465,-0.004347595386304483,0.009611544820768937
1668680449.360276,14449,1668680449,359852979,,-0.08391176931405406,-0.6020001347513468,0.07088206676343922,0.9955612156868469,0.09352316526210465,-0.004347595386304483,0.009611544820768937
1668680449.3678553,14450,1668680449,367667919,,-0.08369744895251338,-0.6017990382653278,0.07088206676343922,0.9955612156868469,0.09352316526210465,-0.004347595386304483,0.009611544820768937
1668680449.3757563,14451,1668680449,375589482,,-0.08348164483952683,-0.6015965756159121,0.07088206676343922,0.9955612156868469,0.09352316526210465,-0.004347595386304483,0.009611544820768937
1668680449.3834128,14452,1668680449,383278786,,-0.08326435833823051,-0.6013927489967305,0.07088206676343922,0.9955612156868469,0.09352316526210465,-0.004347595386304483,0.009611544820768937
1668680449.3917825,14453,1668680449,391544004,,-0.08304559082112406,-0.601187560628672,0.07088206676343922,0.9955612156868469,0.09352316526210465,-0.004347595386304483,0.009611544820768937
1668680449.3996499,14454,1668680449,399487061,,-0.082825343670062,-0.600981012760095,0.07088206676343922,0.9955612156868469,0.09352316526210465,-0.004347595386304483,0.009611544820768937
1668680449.4079251,14455,1668680449,407747983,,-0.08260361827624507,-0.600773107667039,0.07088206676343922,0.9955612156868469,0.09352316526210465,-0.004347595386304483,0.009611544820768937
1668680449.4158535,14456,1668680449,415665075,,-0.08238041604021132,-0.6005638476534356,0.07088206676343922,0.9955612156868469,0.09352316526210465,-0.004347595386304483,0.009611544820768937
1668680449.4234507,14457,1668680449,423323789,,-0.08215573837182741,-0.6003532350513218,0.07088206676343922,0.9955612156868469,0.09352316526210465,-0.004347595386304483,0.009611544820768937
1668680449.4319127,14458,1668680449,431735099,,-0.08192958669027958,-0.6001412722210501,0.07088206676343922,0.9955612156868469,0.09352316526210465,-0.004347595386304483,0.009611544820768937
1668680449.4397576,14459,1668680449,439612008,,-0.08170196242406477,-0.5999279615515024,0.07088206676343922,0.9955612156868469,0.09352316526210465,-0.004347595386304483,0.009611544820768937
1668680449.447715,14460,1668680449,447526348,,-0.08147286701098158,-0.5997133054603013,0.07088206676343922,0.9955612156868469,0.09352316526210465,-0.004347595386304483,0.009611544820768937
1668680449.455728,14461,1668680449,455475123,,-0.08124230189812115,-0.5994973063940227,0.07088206676343922,0.9955612156868469,0.09352316526210465,-0.004347595386304483,0.009611544820768937
1668680449.464091,14462,1668680449,463795551,,-0.08101026854185803,-0.599279966828408,0.07088206676343922,0.9955612156868469,0.09352316526210465,-0.004347595386304483,0.009611544820768937
1668680449.4720373,14463,1668680449,471808616,,-0.08077676840784098,-0.5990612892685768,0.07088206676343922,0.9955612156868469,0.09352316526210465,-0.004347595386304483,0.009611544820768937
1668680449.4802089,14464,1668680449,480025031,,-0.08054180297098379,-0.5988412762492396,0.07088206676343922,0.9955612156868469,0.09352316526210465,-0.004347595386304483,0.009611544820768937
1668680449.4879432,14465,1668680449,487801519,,-0.08030537371545585,-0.5986199303349089,0.07088206676343922,0.9955612156868469,0.09352316526210465,-0.004347595386304483,0.009611544820768937
1668680449.4956207,14466,1668680449,495457596,,-0.08006748213467282,-0.5983972541201134,0.07088206676343922,0.9955612156868469,0.09352316526210465,-0.004347595386304483,0.009611544820768937
1668680449.5041826,14467,1668680449,503920026,,-0.07982812973128722,-0.5981732502296085,0.07088206676343922,0.9955612156868469,0.09352316526210465,-0.004347595386304483,0.009611544820768937
1668680449.5119662,14468,1668680449,511792747,,-0.07958731801717894,-0.5979479213185899,0.07088206676343922,0.9955612156868469,0.09352316526210465,-0.004347595386304483,0.009611544820768937
1668680449.5198874,14469,1668680449,519662127,,-0.07934504851344565,-0.5977212700729042,0.07088206676343922,0.9955612156868469,0.09352316526210465,-0.004347595386304483,0.009611544820768937
1668680449.527849,14470,1668680449,527658079,,-0.07910132275039317,-0.5974932992092618,0.07088206676343922,0.9955612156868469,0.09352316526210465,-0.004347595386304483,0.009611544820768937
1668680449.5354855,14471,1668680449,535318536,,-0.07885614226752588,-0.5972640114754482,0.07088206676343922,0.9955612156868469,0.09352316526210465,-0.004347595386304483,0.009611544820768937
1668680449.543773,14472,1668680449,543604277,,-0.078609508613537,-0.5970334096505351,0.07088206676343922,0.9955612156868469,0.09352316526210465,-0.004347595386304483,0.009611544820768937
1668680449.5518568,14473,1668680449,551608896,,-0.07836142334629873,-0.5968014965450921,0.07088206676343922,0.9955612156868469,0.09352316526210465,-0.004347595386304483,0.009611544820768937
1668680449.5597317,14474,1668680449,559601175,,-0.0781118880328524,-0.596568275001397,0.07088206676343922,0.9955612156868469,0.09352316526210465,-0.004347595386304483,0.009611544820768937
1668680449.5678406,14475,1668680449,567655904,,-0.07786090424939873,-0.5963337478936466,0.07088206676343922,0.9955612156868469,0.09352316526210465,-0.004347595386304483,0.009611544820768937
1668680449.5756886,14476,1668680449,575526206,,-0.07760847358128767,-0.5960979181281673,0.07088206676343922,0.9955612156868469,0.09352316526210465,-0.004347595386304483,0.009611544820768937
1668680449.5834136,14477,1668680449,583214545,,-0.07735459762300853,-0.5958607886436242,0.07088206676343922,0.9955612156868469,0.09352316526210465,-0.004347595386304483,0.009611544820768937
1668680449.591713,14478,1668680449,591593543,,-0.07709927797817984,-0.5956223624112312,0.07088206676343922,0.9955612156868469,0.09352316526210465,-0.004347595386304483,0.009611544820768937
1668680449.599868,14479,1668680449,599705695,,-0.07684251625953925,-0.5953826424349598,0.07088206676343922,0.9955612156868469,0.09352316526210465,-0.004347595386304483,0.009611544820768937
1668680449.6078167,14480,1668680449,607582621,,-0.07658431408893329,-0.5951416317517472,0.07088206676343922,0.9955612156868469,0.09352316526210465,-0.004347595386304483,0.009611544820768937
1668680449.6157749,14481,1668680449,615562539,,-0.0763246730973072,-0.5948993334317053,0.07088206676343922,0.9955612156868469,0.09352316526210465,-0.004347595386304483,0.009611544820768937
1668680449.6234722,14482,1668680449,623341750,,-0.07606359492469464,-0.5946557505783279,0.07088206676343922,0.9955612156868469,0.09352316526210465,-0.004347595386304483,0.009611544820768937
1668680449.632597,14483,1668680449,632425267,,-0.0758010812202072,-0.5944108863286973,0.07088206676343922,0.9955612156868469,0.09352316526210465,-0.004347595386304483,0.009611544820768937
1668680449.640751,14484,1668680449,640543747,,-0.07553713364202416,-0.5941647438536912,0.07088206676343922,0.9955612156868469,0.09352316526210465,-0.004347595386304483,0.009611544820768937
1668680449.6483889,14485,1668680449,648227737,,-0.07527175385738183,-0.5939173263581887,0.07088206676343922,0.9955612156868469,0.09352316526210465,-0.004347595386304483,0.009611544820768937
1668680449.6563387,14486,1668680449,655689660,,-0.07500494354256318,-0.593668637081275,0.07088206676343922,0.9955612156868469,0.09352316526210465,-0.004347595386304483,0.009611544820768937
1668680449.6638634,14487,1668680449,663510894,,-0.07473670438288715,-0.5934186792964464,0.07088206676343922,0.9955612156868469,0.09352316526210465,-0.004347595386304483,0.009611544820768937
1668680449.6719186,14488,1668680449,671753190,,-0.07446703807269808,-0.5931674563118142,0.07088206676343922,0.9955612156868469,0.09352316526210465,-0.004347595386304483,0.009611544820768937
1668680449.6796868,14489,1668680449,679488038,,-0.07419594631535495,-0.5929149714703075,0.07088206676343922,0.9955612156868469,0.09352316526210465,-0.004347595386304483,0.009611544820768937
1668680449.6880214,14490,1668680449,687790647,,-0.07392343082322061,-0.5926612281498757,0.07088206676343922,0.9955612156868469,0.09352316526210465,-0.004347595386304483,0.009611544820768937
1668680449.695685,14491,1668680449,695530156,,-0.07364949331765103,-0.5924062297636905,0.07088206676343922,0.9955612156868469,0.09352316526210465,-0.004347595386304483,0.009611544820768937
1668680449.703814,14492,1668680449,703667426,,-0.07337413552898439,-0.5921499797603462,0.07088206676343922,0.9955612156868469,0.09352316526210465,-0.004347595386304483,0.009611544820768937
1668680449.7118378,14493,1668680449,711680712,,-0.07309735919653015,-0.5918924816240603,0.07088206676343922,0.9955612156868469,0.09352316526210465,-0.004347595386304483,0.009611544820768937
1668680449.7199428,14494,1668680449,719724992,,-0.07281916606855801,-0.5916337388748715,0.07088206676343922,0.9955612156868469,0.09352316526210465,-0.004347595386304483,0.009611544820768937
1668680449.7278776,14495,1668680449,727649041,,-0.072539557902287,-0.5913737550688392,0.07088206676343922,0.9955612156868469,0.09352316526210465,-0.004347595386304483,0.009611544820768937
1668680449.735578,14496,1668680449,735373094,,-0.07225853646387423,-0.5911125337982398,0.07088206676343922,0.9955612156868469,0.09352316526210465,-0.004347595386304483,0.009611544820768937
1668680449.7436664,14497,1668680449,743528332,,-0.07197610352840386,-0.5908500786917635,0.07088206676343922,0.9955612156868469,0.09352316526210465,-0.004347595386304483,0.009611544820768937
1668680449.7525516,14498,1668680449,752356537,,-0.07169226087987579,-0.5905863934147094,0.07088206676343922,0.9955612156868469,0.09352316526210465,-0.004347595386304483,0.009611544820768937
1668680449.7605655,14499,1668680449,760310714,,-0.07140701031119448,-0.5903214816691799,0.07088206676343922,0.9955612156868469,0.09352316526210465,-0.004347595386304483,0.009611544820768937
1668680449.7685838,14500,1668680449,768318791,,-0.07112035362415756,-0.5900553471942735,0.07088206676343922,0.9955612156868469,0.09352316526210465,-0.004347595386304483,0.009611544820768937
1668680449.7759342,14501,1668680449,775742737,,-0.0708322926294444,-0.5897879937662778,0.07088206676343922,0.9955612156868469,0.09352316526210465,-0.004347595386304483,0.009611544820768937
1668680449.78391,14502,1668680449,783781954,,-0.07054282914660487,-0.5895194251988592,0.07088206676343922,0.9955612156868469,0.09352316526210465,-0.004347595386304483,0.009611544820768937
1668680449.7918286,14503,1668680449,791650104,,-0.07025196500404762,-0.5892496453432545,0.07088206676343922,0.9955612156868469,0.09352316526210465,-0.004347595386304483,0.009611544820768937
1668680449.8000228,14504,1668680449,799642278,,-0.06995970203902865,-0.5889786580884578,0.07088206676343922,0.9955612156868469,0.09352316526210465,-0.004347595386304483,0.009611544820768937
1668680449.8083732,14505,1668680449,807834681,,-0.06966604209763971,-0.5887064673614092,0.07088206676343922,0.9955612156868469,0.09352316526210465,-0.004347595386304483,0.009611544820768937
1668680449.8155286,14506,1668680449,815373753,,-0.06937098703479658,-0.5884330771271805,0.07088206676343922,0.9955612156868469,0.09352316526210465,-0.004347595386304483,0.009611544820768937
1668680449.8239193,14507,1668680449,823715816,,-0.06907453871422739,-0.5881584913891604,0.07088206676343922,0.9955612156868469,0.09352316526210465,-0.004347595386304483,0.009611544820768937
1668680449.8316576,14508,1668680449,831434224,,-0.06877669900846087,-0.5878827141892379,0.07088206676343922,0.9955612156868469,0.09352316526210465,-0.004347595386304483,0.009611544820768937
1668680449.8396854,14509,1668680449,839511568,,-0.06847746979881447,-0.5876057496079848,0.07088206676343922,0.9955612156868469,0.09352316526210465,-0.004347595386304483,0.009611544820768937
1668680449.847894,14510,1668680449,847731115,,-0.06817685297538248,-0.5873276017648368,0.07088206676343922,0.9955612156868469,0.09352316526210465,-0.004347595386304483,0.009611544820768937
1668680449.8558645,14511,1668680449,855678806,,-0.06787485043702418,-0.5870482748182725,0.07088206676343922,0.9955612156868469,0.09352316526210465,-0.004347595386304483,0.009611544820768937
1668680449.8636117,14512,1668680449,863386372,,-0.0675714640913517,-0.5867677729659921,0.07088206676343922,0.9955612156868469,0.09352316526210465,-0.004347595386304483,0.009611544820768937
1668680449.8722773,14513,1668680449,871821594,,-0.06726669585471809,-0.586486100445094,0.07088206676343922,0.9955612156868469,0.09352316526210465,-0.004347595386304483,0.009611544820768937
1668680449.879872,14514,1668680449,879697933,,-0.06696054765220522,-0.5862032615322496,0.07088206676343922,0.9955612156868469,0.09352316526210465,-0.004347595386304483,0.009611544820768937
1668680449.8881474,14515,1668680449,887986254,,-0.06665302141761145,-0.5859192605438771,0.07088206676343922,0.9955612156868469,0.09352316526210465,-0.004347595386304483,0.009611544820768937
