Time,header.seq,header.stamp.secs,header.stamp.nsecs,header.frame_id,pose.position.x,pose.position.y,pose.position.z,pose.orientation.x,pose.orientation.y,pose.orientation.z,pose.orientation.w
1668678456.9662702,48759,1668678456,965784691,,-0.09533224320509663,-0.6129993761799354,0.06373195600192538,0.995557949350485,0.09353957640271902,-0.0043729809323242224,0.00977722707225472
1668678456.9752505,48760,1668678456,974566319,,-0.09533230321701937,-0.612999376170058,0.06373195600162337,0.9955579494113209,0.0935395763515439,-0.004372977173490456,0.009777223048466965
1668678456.981763,48761,1668678456,981519617,,-0.09533235747503145,-0.6129993761604701,0.0637319560013327,0.9955579494731565,0.09353957630024039,-0.004372973385601038,0.009777218937130157
1668678456.988385,48762,1668678456,988210265,,-0.0953324063267405,-0.6129993761511668,0.06373195600105265,0.9955579495359753,0.0935395762488162,-0.004372969569371295,0.009777214739464883
1668678456.995979,48763,1668678456,995797888,,-0.095332450102953,-0.6129993761421446,0.06373195600078312,0.9955579495997621,0.09353957619727896,-0.004372965725514577,0.00977721045669348
1668678457.0034485,48764,1668678457,3234934,,-0.09533248911834935,-0.6129993761333988,0.06373195600052388,0.9955579496645007,0.09353957614563595,-0.004372961854742295,0.009777206090040111
1668678457.0116038,48765,1668678457,11372238,,-0.0953325236721369,-0.6129993761249245,0.06373195600027459,0.9955579497301755,0.09353957609389475,-0.00437295795776327,0.009777201640728907
1668678457.0192494,48766,1668678457,19111304,,-0.09533255404868249,-0.6129993761167172,0.0637319560000349,0.9955579497967705,0.09353957604206274,-0.004372954035284367,0.009777197109985356
1668678457.0272572,48767,1668678457,27131881,,-0.09533258051812453,-0.6129993761087715,0.0637319559998046,0.9955579498642698,0.09353957599014713,-0.004372950088010192,0.009777192499035843
1668678457.0356958,48768,1668678457,35509405,,-0.09533260333696356,-0.6129993761010829,0.06373195599958341,0.9955579499326578,0.09353957593815543,-0.00437294611664269,0.009777187809107097
1668678457.0432918,48769,1668678457,43205425,,-0.09533262274863454,-0.6129993760936459,0.06373195599937154,0.9955579500019186,0.09353957588609475,-0.0043729421218814,0.009777183041426198
1668678457.051508,48770,1668678457,51396683,,-0.09533263898405887,-0.6129993760864552,0.06373195599916771,0.9955579500720364,0.09353957583397239,-0.004372938104423174,0.00977717819722028
1668678457.059211,48771,1668678457,59091376,,-0.09533265226217695,-0.6129993760795056,0.06373195599897247,0.9955579501429953,0.09353957578179556,-0.004372934064962489,0.009777173277716895
1668678457.067249,48772,1668678457,67153184,,-0.09533266279046433,-0.6129993760727919,0.06373195599878527,0.9955579502147797,0.09353957572957129,-0.00437293000419099,0.009777168284143125
1668678457.075724,48773,1668678457,75610042,,-0.09533267076542688,-0.6129993760663082,0.06373195599860604,0.9955579502873738,0.09353957567730649,-0.004372925922797582,0.009777163217726146
1668678457.082951,48774,1668678457,82863910,,-0.09533267637308056,-0.6129993760600494,0.06373195599843423,0.995557950360762,0.09353957562500839,-0.004372921821468207,0.009777158079692294
1668678457.0914426,48775,1668678457,91199147,,-0.0953326797894136,-0.6129993760540101,0.06373195599827013,0.9955579504349283,0.09353957557268397,-0.004372917700886299,0.0097771528712679
1668678457.0992932,48776,1668678457,99180740,,-0.0953326811808315,-0.6129993760481849,0.06373195599811292,0.9955579505098574,0.09353957552033977,-0.004372913561731967,0.009777147593678112
1668678457.107412,48777,1668678457,107295994,,-0.09533268070458503,-0.6129993760425682,0.06373195599796257,0.9955579505855334,0.09353957546798311,-0.0043729094046822585,0.009777142248147389
1668678457.1151478,48778,1668678457,114959464,,-0.09533267850918514,-0.6129993760371545,0.06373195599781882,0.9955579506619409,0.09353957541562047,-0.004372905230411474,0.009777136835899133
1668678457.1228945,48779,1668678457,122763705,,-0.09533267473479902,-0.6129993760319389,0.0637319559976816,0.9955579507390641,0.09353957536325892,-0.004372901039590556,0.009777131358155573
1668678457.1310928,48780,1668678457,130933109,,-0.09533266951363353,-0.6129993760269152,0.06373195599755067,0.9955579508168874,0.09353957531090512,-0.004372896832887257,0.00977712581613773
1668678457.1397047,48781,1668678457,139600761,,-0.09533266297030336,-0.612999376022079,0.06373195599742562,0.9955579508953954,0.09353957525856532,-0.004372892610966007,0.009777120211064819
1668678457.1474574,48782,1668678457,147300025,,-0.0953326552221852,-0.6129993760174252,0.06373195599730636,0.9955579509745727,0.09353957520624648,-0.004372888374488112,0.009777114544154948
1668678457.1552272,48783,1668678457,155068293,,-0.09533264637975784,-0.6129993760129474,0.06373195599719271,0.9955579510544038,0.09353957515395488,-0.004372884124111358,0.009777108816624306
1668678457.1627629,48784,1668678457,162647171,,-0.0953326365469293,-0.6129993760086413,0.06373195599708416,0.9955579511348731,0.09353957510169736,-0.004372879860489838,0.009777103029686571
1668678457.1713572,48785,1668678457,171173384,,-0.09533262582135126,-0.6129993760045019,0.06373195599698095,0.9955579512159656,0.09353957504948002,-0.004372875584274684,0.009777097184554467
1668678457.1790712,48786,1668678457,178970131,,-0.09533261429472054,-0.6129993760005239,0.06373195599688246,0.9955579512976657,0.09353957499730918,-0.004372871296113056,0.009777091282437643
1668678457.1870496,48787,1668678457,186960692,,-0.0953326020530687,-0.6129993759967024,0.06373195599678881,0.9955579513799582,0.09353957494519131,-0.004372866996648729,0.009777085324544153
1668678457.1953409,48788,1668678457,195190965,,-0.09533258917704052,-0.6129993759930328,0.06373195599669981,0.9955579514628278,0.09353957489313253,-0.004372862686521642,0.00977707931207894
1668678457.203041,48789,1668678457,202914157,,-0.0953325757421595,-0.6129993759895099,0.06373195599661492,0.9955579515462594,0.09353957484113933,-0.004372858366368102,0.009777073246244671
1668678457.2111924,48790,1668678457,211081099,,-0.0953325618190848,-0.6129993759861296,0.06373195599653449,0.9955579516302377,0.09353957478921762,-0.004372854036820759,0.009777067128241628
1668678457.2191894,48791,1668678457,219071483,,-0.09533254747385511,-0.6129993759828869,0.06373195599645813,0.9955579517147479,0.09353957473737344,-0.004372849698508346,0.009777060959266655
1668678457.227303,48792,1668678457,227079568,,-0.09533253276812394,-0.6129993759797778,0.06373195599638554,0.9955579517997748,0.09353957468561284,-0.004372845352055604,0.009777054740513937
1668678457.2353442,48793,1668678457,235190567,,-0.09533251775938473,-0.6129993759767974,0.0637319559963168,0.9955579518853034,0.09353957463394195,-0.004372840998083708,0.00977704847317476
1668678457.2472672,48794,1668678457,246665000,,-0.0953325025011856,-0.6129993759739418,0.06373195599625131,0.9955579519713187,0.09353957458236631,-0.0043728366372093345,0.009777042158436553
1668678457.2573874,48795,1668678457,256469198,,-0.09533248704333583,-0.6129993759712066,0.06373195599618958,0.995557952057806,0.0935395745308922,-0.004372832270045651,0.00977703579748406
1668678457.2652605,48796,1668678457,264795892,,-0.09533247143210277,-0.6129993759685874,0.06373195599613095,0.9955579521447502,0.09353957447952506,-0.004372827897201576,0.009777029391498084
1668678457.2727509,48797,1668678457,272133805,,-0.09533245571040092,-0.6129993759660805,0.0637319559960756,0.9955579522321367,0.09353957442827061,-0.004372823519281776,0.009777022941656015
1668678457.2778137,48798,1668678457,277475654,,-0.09533243991797158,-0.6129993759636819,0.06373195599602306,0.995557952319951,0.09353957437713492,-0.004372819136887106,0.00977701644913156
1668678457.2839813,48799,1668678457,283824784,,-0.09533242409155555,-0.6129993759613881,0.06373195599597344,0.9955579524081783,0.09353957432612313,-0.004372814750613913,0.009777009915094425
1668678457.292018,48800,1668678457,291865238,,-0.0953324082650575,-0.6129993759591947,0.06373195599592633,0.995557952496804,0.09353957427524114,-0.004372810361054254,0.0097770033407102
1668678457.2998097,48801,1668678457,299632447,,-0.0953323924697036,-0.6129993759570985,0.06373195599588231,0.9955579525858136,0.09353957422449422,-0.004372805968796402,0.009776996727141087
1668678457.3074682,48802,1668678457,307243335,,-0.09533237673419111,-0.6129993759550959,0.06373195599584058,0.9955579526751926,0.09353957417388786,-0.004372801574423699,0.009776990075543989
1668678457.3153772,48803,1668678457,315251174,,-0.09533236108483158,-0.6129993759531835,0.06373195599580109,0.9955579527649269,0.09353957412342753,-0.004372797178515471,0.00977698338707249
1668678457.323208,48804,1668678457,322982295,,-0.09533234554568831,-0.6129993759513581,0.06373195599576394,0.9955579528550018,0.0935395740731184,-0.0043727927816467425,0.009776976662875471
1668678457.3316166,48805,1668678457,331498708,,-0.09533233013870517,-0.612999375949616,0.06373195599572894,0.9955579529454033,0.09353957402296566,-0.004372788384387699,0.0097769699040967
1668678457.339248,48806,1668678457,339075683,,-0.09533231488383175,-0.6129993759479544,0.063731955995696,0.9955579530361173,0.09353957397297437,-0.004372783987304456,0.009776963111876147
1668678457.3471038,48807,1668678457,346996811,,-0.09533229979914103,-0.61299937594637,0.06373195599566499,0.9955579531271295,0.09353957392315002,-0.004372779590958347,0.009776956287348317
1668678457.3551612,48808,1668678457,355019497,,-0.09533228490094288,-0.6129993759448598,0.06373195599563593,0.995557953218426,0.0935395738734973,-0.004372775195906355,0.009776949431643325
1668678457.3631933,48809,1668678457,363069070,,-0.09533227020389003,-0.6129993759434215,0.06373195599560846,0.9955579533099929,0.09353957382402142,-0.0043727708027008335,0.009776942545886099
1668678457.3711352,48810,1668678457,370998562,,-0.09533225572108071,-0.6129993759420511,0.06373195599558264,0.9955579534018162,0.09353957377472731,-0.0043727664118891315,0.009776935631196302
1668678457.3792603,48811,1668678457,379114768,,-0.09533224146415595,-0.6129993759407473,0.06373195599555864,0.9955579534938823,0.09353957372561979,-0.0043727620240146346,0.009776928688688909
1668678457.3872626,48812,1668678457,387128656,,-0.09533222744339082,-0.6129993759395065,0.06373195599553616,0.9955579535861772,0.0935395736767038,-0.004372757639615491,0.009776921719473272
1668678457.3955958,48813,1668678457,395389064,,-0.0953322136677836,-0.6129993759383264,0.06373195599551482,0.9955579536786876,0.09353957362798375,-0.004372753259225317,0.009776914724653214
1668678457.402906,48814,1668678457,402804740,,-0.09533220014513674,-0.6129993759372044,0.06373195599549521,0.9955579537713997,0.09353957357946459,-0.004372748883373106,0.009776907705327492
1668678457.4113665,48815,1668678457,411226494,,-0.09533218688213833,-0.6129993759361385,0.0637319559954765,0.9955579538643001,0.09353957353115089,-0.004372744512582859,0.009776900662588838
1668678457.419689,48816,1668678457,419557008,,-0.09533217388443502,-0.612999375935126,0.0637319559954593,0.9955579539573756,0.09353957348304728,-0.004372740147373967,0.009776893597524993
1668678457.427579,48817,1668678457,427453860,,-0.0953321611567045,-0.612999375934165,0.0637319559954431,0.9955579540506125,0.09353957343515786,-0.0043727357882606755,0.009776886511216859
1668678457.4351244,48818,1668678457,434993416,,-0.09533214870272197,-0.6129993759332529,0.0637319559954282,0.995557954143998,0.09353957338748764,-0.004372731435752766,0.009776879404740448
1668678457.442619,48819,1668678457,442523406,,-0.09533213652542441,-0.6129993759323881,0.06373195599541422,0.9955579542375186,0.09353957334004052,-0.004372727090354875,0.009776872279165334
1668678457.451709,48820,1668678457,451574098,,-0.09533212462697137,-0.6129993759315683,0.06373195599540109,0.9955579543311616,0.09353957329282099,-0.004372722752566756,0.009776865135555098
1668678457.459385,48821,1668678457,459283924,,-0.09533211300880086,-0.6129993759307916,0.06373195599538915,0.9955579544249138,0.09353957324583352,-0.004372718422883329,0.009776857974967329
1668678457.467695,48822,1668678457,467561603,,-0.0953321016716854,-0.6129993759300562,0.06373195599537809,0.9955579545187625,0.09353957319908167,-0.004372714101794501,0.009776850798453328
1668678457.4755943,48823,1668678457,475418111,,-0.09533209061578125,-0.6129993759293602,0.06373195599536756,0.9955579546126948,0.09353957315257003,-0.004372709789785018,0.009776843607057967
1668678457.4830382,48824,1668678457,482928701,,-0.09533207984067768,-0.6129993759287015,0.0637319559953581,0.995557954706698,0.0935395731063025,-0.004372705487334961,0.009776836401820093
1668678457.4917262,48825,1668678457,491580282,,-0.09533206934544308,-0.6129993759280793,0.06373195599534917,0.9955579548007596,0.09353957306028304,-0.004372701194918946,0.009776829183771455
1668678457.4992275,48826,1668678457,499066356,,-0.09533205912866682,-0.6129993759274914,0.0637319559953412,0.995557954894867,0.09353957301451574,-0.004372696913007057,0.009776821953938171
1668678457.5072274,48827,1668678457,507099568,,-0.09533204918850048,-0.6129993759269362,0.06373195599533367,0.9955579549890079,0.0935395729690044,-0.004372692642063682,0.009776814713338584
1668678457.5151663,48828,1668678457,515060375,,-0.09533203952269645,-0.6129993759264124,0.06373195599532692,0.9955579550831699,0.09353957292375263,-0.0043726883825487926,0.009776807462985395
1668678457.5230904,48829,1668678457,522978944,,-0.09533203012864315,-0.6129993759259186,0.06373195599532062,0.9955579551773407,0.09353957287876426,-0.004372684134916564,0.009776800203883641
1668678457.5312493,48830,1668678457,531078373,,-0.09533202100339924,-0.6129993759254531,0.06373195599531468,0.9955579552715084,0.09353957283404297,-0.004372679899616523,0.009776792937032085
1668678457.5391448,48831,1668678457,538971743,,-0.0953320121437257,-0.6129993759250147,0.06373195599530951,0.9955579553656607,0.09353957278959256,-0.004372675677093152,0.009776785663422723
1668678457.5472543,48832,1668678457,547160078,,-0.09533200354611576,-0.6129993759246025,0.0637319559953048,0.995557955459786,0.09353957274541633,-0.004372671467785315,0.009776778384039815
1668678457.5558882,48833,1668678457,555666551,,-0.09533199520682228,-0.6129993759242148,0.06373195599530057,0.9955579555538722,0.09353957270151789,-0.00437266727212696,0.009776771099861152
1668678457.5630515,48834,1668678457,562857429,,-0.09533198712188498,-0.6129993759238506,0.06373195599529674,0.9955579556479075,0.09353957265790049,-0.004372663090546775,0.009776763811856843
1668678457.5712938,48835,1668678457,571154259,,-0.09533197928715476,-0.6129993759235086,0.0637319559952932,0.9955579557418807,0.09353957261456758,-0.004372658923468339,0.009776756520990432
1668678457.5795028,48836,1668678457,579336464,,-0.09533197169831682,-0.6129993759231881,0.06373195599528993,0.9955579558357798,0.09353957257152257,-0.004372654771309969,0.009776749228217843
1668678457.5877252,48837,1668678457,587498534,,-0.09533196435091201,-0.6129993759228879,0.06373195599528719,0.9955579559295934,0.09353957252876861,-0.004372650634484727,0.009776741934487534
1668678457.5956426,48838,1668678457,595466359,,-0.0953319572403576,-0.6129993759226064,0.06373195599528453,0.9955579560233107,0.0935395724863085,-0.004372646513400295,0.009776734640740574
1668678457.6029422,48839,1668678457,602803065,,-0.09533195036196503,-0.6129993759223434,0.06373195599528242,0.9955579561169198,0.09353957244414583,-0.004372642408459461,0.009776727347911133
1668678457.611789,48840,1668678457,611581790,,-0.09533194371095917,-0.6129993759220977,0.0637319559952804,0.9955579562104099,0.09353957240228337,-0.0043726383200594085,0.00977672005692515
1668678457.6193092,48841,1668678457,619173073,,-0.09533193728249305,-0.6129993759218684,0.06373195599527891,0.99555795630377,0.0935395723607244,-0.004372634248592297,0.00977671276870122
1668678457.6272569,48842,1668678457,627064695,,-0.09533193107166384,-0.6129993759216548,0.06373195599527726,0.9955579563969891,0.09353957231947169,-0.004372630194444749,0.009776705484150288
1668678457.6357057,48843,1668678457,635498049,,-0.09533192507352703,-0.6129993759214559,0.063731955995276,0.9955579564900564,0.09353957227852784,-0.004372626157998412,0.00977669820417555
1668678457.6432714,48844,1668678457,643100381,,-0.09533191928310876,-0.612999375921271,0.0637319559952749,0.9955579565829611,0.09353957223789591,-0.004372622139629365,0.009776690929672776
1668678457.6515372,48845,1668678457,651390758,,-0.09533191369541874,-0.6129993759210993,0.06373195599527422,0.9955579566756928,0.09353957219757855,-0.004372618139708493,0.009776683661529652
1668678457.659036,48846,1668678457,658938562,,-0.09533190830546114,-0.6129993759209403,0.06373195599527355,0.9955579567682409,0.0935395721575784,-0.004372614158601463,0.009776676400626043
1668678457.666969,48847,1668678457,666856447,,-0.09533190310824449,-0.6129993759207931,0.06373195599527305,0.995557956860595,0.09353957211789794,-0.004372610196668564,0.00977666914783378
1668678457.6752584,48848,1668678457,675063498,,-0.09533189809879183,-0.612999375920657,0.0637319559952727,0.9955579569527448,0.09353957207853993,-0.004372606254264667,0.00977666190401685
1668678457.6831331,48849,1668678457,683024802,,-0.09533189327214893,-0.6129993759205316,0.06373195599527262,0.9955579570446803,0.09353957203950666,-0.0043726023317394455,0.009776654670031337
1668678457.691125,48850,1668678457,691030824,,-0.09533188862339231,-0.6129993759204162,0.06373195599527241,0.9955579571363911,0.09353957200080079,-0.004372598429437082,0.009776647446724764
1668678457.6992388,48851,1668678457,699130730,,-0.09533188414763685,-0.6129993759203101,0.06373195599527236,0.9955579572278676,0.0935395719624244,-0.004372594547696766,0.009776640234937291
1668678457.7073777,48852,1668678457,707240584,,-0.09533187984004188,-0.6129993759202128,0.0637319559952723,0.9955579573190996,0.09353957192438014,-0.004372590686852083,0.009776633035500712
1668678457.7156377,48853,1668678457,715404476,,-0.09533187569581783,-0.6129993759201244,0.06373195599527254,0.9955579574100777,0.09353957188666989,-0.004372586847231544,0.009776625849238498
1668678457.723165,48854,1668678457,723047347,,-0.09533187171023096,-0.6129993759200437,0.06373195599527288,0.995557957500792,0.09353957184929584,-0.00437258302915803,0.00977661867696588
1668678457.7315793,48855,1668678457,731483115,,-0.09533186787860873,-0.6129993759199702,0.06373195599527315,0.9955579575912331,0.0935395718122604,-0.004372579232949345,0.009776611519489888
1668678457.7395766,48856,1668678457,739467657,,-0.09533186419634417,-0.612999375919904,0.06373195599527366,0.9955579576813917,0.09353957177556545,-0.0043725754589178465,0.009776604377609202
1668678457.7475734,48857,1668678457,747408432,,-0.09533186065889979,-0.6129993759198442,0.06373195599527402,0.9955579577712582,0.09353957173921292,-0.004372571707370618,0.009776597252114294
1668678457.755582,48858,1668678457,755423053,,-0.09533185726181072,-0.6129993759197909,0.06373195599527462,0.9955579578608238,0.09353957170320482,-0.004372567978609447,0.009776590143787279
1668678457.762783,48859,1668678457,762656682,,-0.09533185400068815,-0.6129993759197431,0.0637319559952753,0.9955579579500792,0.09353957166754306,-0.004372564272930832,0.009776583053401518
1668678457.7712574,48860,1668678457,771126937,,-0.09533185087122183,-0.6129993759197004,0.06373195599527572,0.9955579580390155,0.09353957163222927,-0.004372560590625632,0.009776575981722109
1668678457.7793043,48861,1668678457,779190763,,-0.09533184786918211,-0.6129993759196634,0.06373195599527637,0.9955579581276236,0.0935395715972657,-0.0043725569319801065,0.009776568929506195
1668678457.7871711,48862,1668678457,787068435,,-0.09533184421166684,-0.6129993759196307,0.06373195599527696,0.9955579582158951,0.09353957156265356,-0.004372553297274419,0.009776561897501652
1668678457.7952042,48863,1668678457,795034541,,-0.09533183684266408,-0.6129993759196027,0.06373195599527756,0.9955579583038213,0.09353957152839464,-0.0043725496867841485,0.009776554886448397
1668678457.8028586,48864,1668678457,802751195,,-0.0953318198399518,-0.6129993759195788,0.06373195599527841,0.9955579583913936,0.09353957149449048,-0.0043725461007792996,0.009776547897077444
1668678457.8113348,48865,1668678457,811225649,,-0.09533178465328891,-0.6129993759195574,0.06373195599527927,0.9955579584786036,0.09353957146094262,-0.004372542539524779,0.00977654093011146
1668678457.819584,48866,1668678457,819437221,,-0.09533172032899004,-0.6129993759195371,0.06373195599528014,0.9955579585654432,0.09353957142775259,-0.0043725390032798685,0.00977653398626389
1668678457.8277164,48867,1668678457,827624432,,-0.0953316137215178,-0.6129993759195135,0.06373195599528134,0.9955579586519039,0.09353957139492172,-0.004372535492299195,0.009776527066240489
1668678457.8351262,48868,1668678457,835010008,,-0.09533144969269734,-0.6129993759194778,0.0637319559952828,0.9955579587379779,0.09353957136245156,-0.004372532006831959,0.009776520170737758
1668678457.8437335,48869,1668678457,843487475,,-0.09533121129914358,-0.6129993759194156,0.06373195599528442,0.9955579588236572,0.09353957133034321,-0.004372528547122303,0.009776513300444049
1668678457.8518608,48870,1668678457,851647596,,-0.09533087996845707,-0.6129993759193044,0.06373195599528612,0.9955579589089338,0.09353957129859798,-0.004372525113408862,0.009776506456038794
1668678457.8596497,48871,1668678457,859436053,,-0.09533043566473362,-0.6129993759191095,0.06373195599528726,0.9955579589938,0.09353957126721699,-0.004372521705925537,0.009776499638192895
1668678457.8670387,48872,1668678457,866945858,,-0.09532985704390112,-0.6129993759187827,0.06373195599528705,0.9955579590782485,0.09353957123620148,-0.0043725183249009765,0.009776492847569087
1668678457.8756428,48873,1668678457,875249635,,-0.0953291215993839,-0.6129993759182573,0.06373195599528474,0.9955579591622714,0.09353957120555234,-0.004372514970558714,0.009776486084821226
1668678457.8827474,48874,1668678457,882638232,,-0.09532820579857063,-0.612999375917446,0.06373195599527842,0.9955579592458615,0.09353957117527077,-0.004372511643117617,0.009776479350595613
1668678457.8915277,48875,1668678457,891322081,,-0.09532708521054198,-0.6129993759162365,0.06373195599526629,0.9955579593290117,0.09353957114535746,-0.0043725083427912275,0.009776472645529196
1668678457.899276,48876,1668678457,899168276,,-0.09532573462549912,-0.612999375914489,0.06373195599524537,0.9955579594117144,0.09353957111581364,-0.004372505069788314,0.009776465970251287
1668678457.907734,48877,1668678457,907616780,,-0.0953241281663108,-0.6129993759120321,0.06373195599521236,0.9955579594939629,0.09353957108664021,-0.004372501824312798,0.009776459325383362
1668678457.9156666,48878,1668678457,915549925,,-0.09532223939258382,-0.6129993759086593,0.06373195599516271,0.9955579595757499,0.09353957105783758,-0.004372498606563694,0.009776452711537958
1668678457.922993,48879,1668678457,922851281,,-0.09532004139763986,-0.6129993759041272,0.06373195599509143,0.9955579596570687,0.09353957102940683,-0.00437249541673548,0.009776446129320049
1668678457.9316947,48880,1668678457,931479512,,-0.09531750689877046,-0.612999375898152,0.06373195599499226,0.9955579597379126,0.0935395710013485,-0.0043724922550174945,0.009776439579326598
1668678457.9397016,48881,1668678457,939600679,,-0.095314608321122,-0.6129993758904086,0.0637319559948581,0.995557959818275,0.09353957097366317,-0.0043724891215949566,0.009776433062146976
1668678457.947655,48882,1668678457,947470095,,-0.09531131787554713,-0.6129993758805256,0.06373195599468032,0.9955579598981491,0.09353957094635154,-0.004372486016647935,0.009776426578362252
1668678457.9556875,48883,1668678457,955429221,,-0.09530760763074946,-0.6129993758680868,0.06373195599445002,0.9955579599775286,0.0935395709194141,-0.004372482940352368,0.009776420128546048
1668678457.96306,48884,1668678457,962957868,,-0.09530361851518702,-0.6129993758537647,0.06373195599418435,0.9955579600564073,0.09353957089285148,-0.0043724798928705105,0.009776413713248824
1668678457.9716547,48885,1668678457,971448541,,-0.09529947776194941,-0.6129993758393035,0.06373195599392668,0.9955579601347794,0.09353957086666372,-0.0043724768743505366,0.009776407332996187
1668678457.9791822,48886,1668678457,979056686,,-0.09529534197967919,-0.6129993758256045,0.06373195599369891,0.995557960212639,0.09353957084085136,-0.004372473884942021,0.009776400988314825
1668678457.987295,48887,1668678457,987199275,,-0.09529146404234393,-0.6129993758155157,0.06373195599356954,0.9955579602899807,0.09353957081541499,-0.004372470924773365,0.009776394679693897
1668678457.99506,48888,1668678457,994953247,,-0.09528781963268476,-0.6129993758089287,0.06373195599353415,0.9955579603667988,0.09353957079035445,-0.0043724679939899065,0.009776388407652799
1668678458.0028605,48889,1668678458,2757389,,-0.09528424856335138,-0.6129993758039338,0.0637319559935429,0.9955579604430873,0.0935395707656704,-0.004372465092746989,0.009776382172727048
1668678458.0113842,48890,1668678458,11232000,,-0.09528064247109189,-0.6129993757993734,0.06373195599356635,0.9955579605188403,0.0935395707413626,-0.004372462221189839,0.00977637597543434
1668678458.0191069,48891,1668678458,18985645,,-0.09527687665261582,-0.6129993757942256,0.06373195599357852,0.9955579605940524,0.09353957071743124,-0.004372459379458769,0.009776369816283386
1668678458.0275764,48892,1668678458,27183913,,-0.09527265326536374,-0.6129993757860149,0.06373195599351791,0.9955579606687179,0.09353957069387671,-0.004372456567700729,0.009776363695794816
1668678458.035404,48893,1668678458,35249346,,-0.09526764478532974,-0.6129993757706742,0.06373195599328571,0.9955579607428305,0.09353957067069887,-0.004372453786071414,0.009776357614506567
1668678458.0426848,48894,1668678458,42587706,,-0.09526167776954296,-0.6129993757449257,0.06373195599280324,0.9955579608163848,0.09353957064789742,-0.004372451034715712,0.009776351572941752
1668678458.051112,48895,1668678458,51006038,,-0.09525468660606712,-0.6129993757062157,0.06373195599200983,0.9955579608893749,0.09353957062547255,-0.004372448313768836,0.00977634557160781
1668678458.0591335,48896,1668678458,58980016,,-0.09524663353794696,-0.6129993756525345,0.06373195599085908,0.9955579609617956,0.093539570603424,-0.004372445623358418,0.00977633961099926
1668678458.0672977,48897,1668678458,67188826,,-0.09523746866300063,-0.6129993755813339,0.06373195598929059,0.9955579610336416,0.09353957058175134,-0.004372442963612204,0.009776333691611922
1668678458.0752609,48898,1668678458,75122483,,-0.09522716432995204,-0.6129993754904417,0.06373195598725302,0.9955579611049074,0.09353957056045467,-0.004372440334651763,0.00977632781393074
1668678458.0827816,48899,1668678458,82655048,,-0.09521570438564834,-0.6129993753779788,0.06373195598470265,0.9955579611755878,0.09353957053953343,-0.00437243773659304,0.009776321978429951
1668678458.09123,48900,1668678458,91109986,,-0.09520308060222703,-0.6129993752423428,0.06373195598160196,0.9955579612456782,0.0935395705189873,-0.0043724351695460795,0.009776316185573253
1668678458.0991738,48901,1668678458,99048478,,-0.09518928645862375,-0.6129993750821392,0.06373195597791846,0.9955579613151733,0.09353957049881591,-0.004372432633616408,0.009776310435815347
1668678458.1072845,48902,1668678458,107172686,,-0.09517431405162233,-0.6129993748959989,0.06373195597362023,0.9955579613840685,0.09353957047901901,-0.0043724301289051245,0.009776304729603369
1668678458.1151292,48903,1668678458,114996352,,-0.0951581568336525,-0.6129993746826989,0.06373195596867896,0.9955579614523591,0.09353957045959556,-0.004372427655508861,0.009776299067375527
1668678458.1229005,48904,1668678458,122791049,,-0.09514080881027252,-0.6129993744411358,0.06373195596306874,0.9955579615200405,0.09353957044054537,-0.0043724252135196,0.009776293449561562
1668678458.131446,48905,1668678458,131344502,,-0.0951222642977938,-0.6129993741703085,0.06373195595676637,0.9955579615871083,0.09353957042186771,-0.004372422803024773,0.009776287876582372
1668678458.1390352,48906,1668678458,138926751,,-0.09510251747125766,-0.6129993738693034,0.06373195594975054,0.9955579616535581,0.09353957040356209,-0.004372420424107509,0.0097762823488511
1668678458.1470425,48907,1668678458,146926010,,-0.09508156215541241,-0.6129993735372661,0.0637319559420018,0.9955579617193856,0.09353957038562787,-0.004372418076846663,0.009776276866772259
1668678458.1555896,48908,1668678458,155434763,,-0.09505939207014058,-0.6129993731734125,0.06373195593350155,0.9955579617845868,0.0935395703680641,-0.004372415761316861,0.009776271430742773
1668678458.1631007,48909,1668678458,163028464,,-0.09503600079647163,-0.6129993727770187,0.06373195592423363,0.9955579618491573,0.0935395703508703,-0.004372413477588478,0.009776266041150963
1668678458.171201,48910,1668678458,171073235,,-0.09501138178457941,-0.6129993723474183,0.06373195591418218,0.9955579619130935,0.09353957033404545,-0.004372411225727461,0.009776260698377198
1668678458.179626,48911,1668678458,179491323,,-0.0949855283435448,-0.6129993718839958,0.06373195590333382,0.9955579619763916,0.09353957031758871,-0.004372409005796126,0.009776255402794247
1668678458.187602,48912,1668678458,187381254,,-0.09495820643876407,-0.6129993713761669,0.06373206424177719,0.9955579620390457,0.0935395703014993,-0.004372406817920144,0.009776250154913341
1668678458.1956625,48913,1668678458,195562051,,-0.0949290800946712,-0.6129993707983636,0.06373243765185674,0.9955579621010481,0.09353957028577564,-0.004372404662329634,0.009776244955473395
1668678458.2028399,48914,1668678458,202726454,,-0.09489779871918903,-0.6129995555313775,0.06373370312952721,0.9955579621623901,0.09353957027041628,-0.004372402539268055,0.009776239805245604
1668678458.2111902,48915,1668678458,211030825,,-0.09486416083021376,-0.6130000959378255,0.06373637922179609,0.995557962223062,0.09353957025541977,-0.00437240044901761,0.00977623470508843
1668678458.2191446,48916,1668678458,219017264,,-0.09482798119127807,-0.6130010054771777,0.06374067531668916,0.9955579622830577,0.09353957024078462,-0.004372398391742803,0.009776229655607831
1668678458.2271082,48917,1668678458,227005691,,-0.09478894841253042,-0.6130023184884831,0.0637469536804069,0.9955579623423658,0.0935395702265091,-0.004372396367781923,0.009776224657789902
1668678458.2353172,48918,1668678458,235214889,,-0.09474734833663809,-0.6130039050927052,0.06375541303551069,0.9955579624009837,0.09353957021259207,-0.00437239437715273,0.009776219711922909
1668678458.2428105,48919,1668678458,242728519,,-0.09470374746069932,-0.6130055600032286,0.06376616271198954,0.9955579624589186,0.09353957019903353,-0.004372392419479245,0.009776214817431168
1668678458.251287,48920,1668678458,251171450,,-0.09465836838811503,-0.6130072120862545,0.06377910377137101,0.9955579625161727,0.09353957018583245,-0.004372390494593608,0.009776209974192495
1668678458.2593303,48921,1668678458,259161888,,-0.09461152671917188,-0.613008825260773,0.0637940739673843,0.9955579625727472,0.09353957017298808,-0.004372388602351676,0.00977620518213659
1668678458.2670846,48922,1668678458,266902855,,-0.09456365508948446,-0.6130103489294689,0.0638105268710377,0.9955579626286494,0.09353957016050005,-0.004372386742384755,0.00977620044069914
1668678458.2752597,48923,1668678458,275071566,,-0.09451495742787515,-0.6130117604718416,0.06382771208452703,0.9955579626838819,0.09353957014836772,-0.004372384914503123,0.009776195749708939
1668678458.2828128,48924,1668678458,282720097,,-0.09446551773378337,-0.6130130518558096,0.06384486395441702,0.9955579627384447,0.09353957013658983,-0.00437238311861559,0.00977619110921161
1668678458.291067,48925,1668678458,290970421,,-0.09441533654158715,-0.6130142251644722,0.06386148517843088,0.9955579627923361,0.09353957012516506,-0.004372381354694529,0.009776186519393016
1668678458.2991624,48926,1668678458,299066142,,-0.09436439398176331,-0.6130152848240383,0.06387733829436554,0.995557962845554,0.09353957011409211,-0.004372379622743737,0.009776181980508588
1668678458.307278,48927,1668678458,307146226,,-0.09431268132501403,-0.613016233776448,0.06389207564564002,0.9955579628980965,0.09353957010336925,-0.00437237792274458,0.00977617749276558
1668678458.3150873,48928,1668678458,314935479,,-0.09426017381290006,-0.6130170767998098,0.06390555682100801,0.9955579629499612,0.09353957009299547,-0.004372376254690793,0.009776173056397835
1668678458.322849,48929,1668678458,322731278,,-0.09420683911631282,-0.6130178194832214,0.06391774893219476,0.9955579630011462,0.09353957008296915,-0.004372374618580319,0.009776168671650274
1668678458.331022,48930,1668678458,330901353,,-0.09415264012746788,-0.6130184678935638,0.06392869326239525,0.995557963051649,0.0935395700732886,-0.004372373014412427,0.009776164338770753
1668678458.3389637,48931,1668678458,338855708,,-0.09409753983793323,-0.6130190279838721,0.0639384474931454,0.9955579631014675,0.09353957006395201,-0.00437237144218569,0.009776160058005518
1668678458.3472054,48932,1668678458,347038141,,-0.09404150374706405,-0.6130195053051439,0.06394705687237176,0.9955579631505993,0.09353957005495828,-0.004372369901892673,0.009776155829588748
1668678458.3553383,48933,1668678458,355198444,,-0.09398449767210157,-0.6130199052791736,0.06395457924501205,0.9955579631990428,0.09353957004630523,-0.004372368393523559,0.009776151653749206
1668678458.3628724,48934,1668678458,362770848,,-0.09392648835141092,-0.613020233129641,0.06396107739110257,0.9955579632467957,0.0935395700379914,-0.004372366917065187,0.009776147530709042
1668678458.3711696,48935,1668678458,371058088,,-0.09386744360546408,-0.6130204938670765,0.06396661655934366,0.9955579632938562,0.09353957003001481,-0.004372365472501037,0.009776143460682708
1668678458.3792043,48936,1668678458,379044180,,-0.09380733266299096,-0.6130206922532097,0.06397126008204365,0.9955579633402225,0.0935395700223739,-0.004372364059810789,0.009776139443877402
1668678458.3876414,48937,1668678458,387484897,,-0.09374612629530674,-0.6130208327887121,0.06397506725291656,0.995557963385893,0.09353957001506691,-0.004372362678970426,0.009776135480491664
1668678458.3957808,48938,1668678458,395686100,,-0.09368379659203366,-0.6130209197446738,0.0639780954205651,0.9955579634308661,0.09353957000809186,-0.004372361329952183,0.009776131570716202
1668678458.4029078,48939,1668678458,402798290,,-0.09362031695729606,-0.6130209571668861,0.0639803995156344,0.9955579634751404,0.09353957000144707,-0.004372360012724366,0.009776127714733402
1668678458.4116483,48940,1668678458,411448549,,-0.09355566207286956,-0.6130209488840054,0.06398203198052177,0.9955579635187143,0.09353956999513045,-0.004372358727251835,0.009776123912718097
1668678458.41995,48941,1668678458,419718261,,-0.09348980787584878,-0.6130208985137716,0.06398304254431803,0.9955579635615867,0.09353956998914009,-0.004372357473495914,0.009776120164837023
1668678458.4272122,48942,1668678458,427107489,,-0.09342273152282729,-0.6130208094707275,0.06398347817074883,0.9955579636037563,0.09353956998347446,-0.00437235625141383,0.009776116471248519
1668678458.4351988,48943,1668678458,435027410,,-0.09335441132749862,-0.6130206849770523,0.06398338333224586,0.995557963645222,0.09353956997813122,-0.004372355060959681,0.009776112832103327
1668678458.442942,48944,1668678458,442815723,,-0.09328482671700941,-0.6130205280709489,0.06398280007884645,0.995557963685983,0.09353956997310853,-0.004372353902083536,0.009776109247543881
1668678458.4518247,48945,1668678458,451642689,,-0.09321395818717956,-0.6130203416150312,0.06398176813466976,0.9955579637260382,0.09353956996840425,-0.004372352774732094,0.009776105717704847
1668678458.4595263,48946,1668678458,459281481,,-0.09314178726027458,-0.6130201283042637,0.06398032497840858,0.9955579637653869,0.09353956996401654,-0.0043723516788486076,0.009776102242712904
1668678458.4672751,48947,1668678458,467154415,,-0.09306829644310895,-0.6130198906737284,0.06397850593363384,0.9955579638040283,0.09353956995994318,-0.004372350614372352,0.009776098822686288
1668678458.4750254,48948,1668678458,474919831,,-0.09299346918442081,-0.613019631106363,0.0639763442810175,0.9955579638419619,0.0935395699561824,-0.00437234958123925,0.00977609545773571
1668678458.4829216,48949,1668678458,482798888,,-0.09291728983503758,-0.6130193518402275,0.06397387135095557,0.9955579638791872,0.09353956995273184,-0.004372348579381951,0.009776092147963863
1668678458.4910727,48950,1668678458,490967261,,-0.09283974360923966,-0.6130190549755163,0.06397111661492742,0.9955579639157036,0.09353956994958922,-0.004372347608729425,0.009776088893465514
1668678458.4991941,48951,1668678458,499088951,,-0.09276081654801535,-0.613018742482554,0.06396821870338504,0.995557963951511,0.09353956994675268,-0.004372346669207196,0.00977608569432739
1668678458.5075767,48952,1668678458,507350156,,-0.09268049548392217,-0.6130184162105877,0.06396552635219444,0.995557963986609,0.09353956994421986,-0.004372345760737195,0.00977608255062808
1668678458.515871,48953,1668678458,515716965,,-0.09259876800513601,-0.613018077890604,0.06396336620122552,0.9955579640209977,0.09353956994198856,-0.004372344883238175,0.009776079462438837
1668678458.5228958,48954,1668678458,522714763,,-0.0925156224197033,-0.6130177291344052,0.06396165237610345,0.9955579640546767,0.09353956994005694,-0.0043723440366252465,0.009776076429822181
1668678458.531273,48955,1668678458,531085057,,-0.09243104772436533,-0.6130173714433225,0.06396018811546222,0.9955579640876463,0.09353956993842254,-0.004372343220810233,0.009776073452833526
1668678458.5392084,48956,1668678458,539110505,,-0.09234503357581735,-0.6130170062203066,0.06395882302265125,0.9955579641199067,0.09353956993708301,-0.004372342435701581,0.009776070531520095
1668678458.5479355,48957,1668678458,547784715,,-0.09225757025939077,-0.613016634770762,0.0639573477238001,0.9955579641514579,0.09353956993603625,-0.004372341681204783,0.009776067665921482
1668678458.5551944,48958,1668678458,555096492,,-0.0921686486614965,-0.6130162583109467,0.06395568284839902,0.9955579641823005,0.09353956993528001,-0.004372340957221412,0.00977606485606914
1668678458.5630264,48959,1668678458,562895426,,-0.09207826024174162,-0.6130158779719129,0.06395381558755085,0.9955579642124347,0.09353956993481195,-0.004372340263650154,0.009776062101987178
1668678458.5714188,48960,1668678458,571279797,,-0.09198639700614192,-0.6130154948033204,0.06395175486590493,0.9955579642418612,0.0935395699346298,-0.004372339600386328,0.009776059403691471
1668678458.5798101,48961,1668678458,579684336,,-0.0918930514815312,-0.6130151097775148,0.06394949963346304,0.9955579642705805,0.09353956993473109,-0.0043723389673220505,0.009776056761190836
1668678458.5873177,48962,1668678458,587166438,,-0.09179821669210982,-0.6130147237967738,0.06394733950019992,0.9955579642985933,0.09353956993511368,-0.004372338364346327,0.009776054174485597
1668678458.595004,48963,1668678458,594915073,,-0.09170188613643737,-0.6130143376987978,0.06394571496821487,0.9955579643259004,0.09353956993577514,-0.00437233779134482,0.009776051643569188
1668678458.6028547,48964,1668678458,602727083,,-0.09160405376044489,-0.613013952247433,0.06394451836243988,0.9955579643525029,0.09353956993671303,-0.00437233724820044,0.009776049168427264
1668678458.6115792,48965,1668678458,611374651,,-0.09150471393703087,-0.6130135681400075,0.06394349611064896,0.9955579643784013,0.09353956993792516,-0.0043723367347925915,0.009776046749037863
1668678458.619024,48966,1668678458,618915640,,-0.09140453262041746,-0.6130131861313506,0.06394251893417628,0.9955579644036161,0.09353956993941055,-0.00437233625027149,0.009776044383753221
1668678458.6270895,48967,1668678458,626991054,,-0.09130447697157557,-0.6130128070700877,0.06394140550767391,0.9955579644281944,0.09353956994117103,-0.00437233579272641,0.009776042068560935
1668678458.6351793,48968,1668678458,635036386,,-0.09120564591537549,-0.6130124316974402,0.06394007372394706,0.9955579644521777,0.09353956994320767,-0.004372335360505237,0.009776039800024908
1668678458.6432025,48969,1668678458,642924518,,-0.09110915776828801,-0.6130120607650833,0.06393849316782221,0.9955579644756195,0.09353956994552275,-0.004372334951452553,0.009776037573587493
1668678458.6510544,48970,1668678458,650955372,,-0.09101515227558898,-0.6130116947125268,0.06393666920914083,0.9955579644985315,0.09353956994811428,-0.004372334565040957,0.009776035388319506
1668678458.6591673,48971,1668678458,659062328,,-0.09092336819883222,-0.6130113337942464,0.06393461546665484,0.9955579645209012,0.09353956995097872,-0.004372334201681649,0.009776033245383979
1668678458.6670039,48972,1668678458,666891011,,-0.09083316528015047,-0.6130109781969284,0.063932340063737,0.9955579645427092,0.09353956995411157,-0.004372333862021261,0.009776031146465398
1668678458.6754124,48973,1668678458,675243647,,-0.0907436554968914,-0.6130106279831848,0.06392985754809133,0.9955579645639198,0.09353956995750687,-0.00437233354735974,0.009776029094704366
1668678458.6828957,48974,1668678458,682720450,,-0.0906541763119919,-0.6130102832724245,0.06392718523644468,0.9955579645845095,0.09353956996116,-0.004372333258504551,0.009776027092141157
1668678458.6910326,48975,1668678458,690926441,,-0.09056432194949342,-0.6130099442028661,0.06392434203027357,0.9955579646044626,0.0935395699650671,-0.004372332995998556,0.00977602514022596
1668678458.699169,48976,1668678458,699019388,,-0.09047318225246076,-0.6130096108507108,0.06392134631624051,0.9955579646237559,0.09353956996922318,-0.004372332760629958,0.009776023240954316
1668678458.7079072,48977,1668678458,707808125,,-0.09037951285537853,-0.6130092831085215,0.06391821494411826,0.9955579646423383,0.09353956997362106,-0.00437233255428969,0.009776021398779878
1668678458.7151453,48978,1668678458,715046137,,-0.09028272185146158,-0.6130089610116837,0.0639149642224659,0.9955579646601841,0.09353956997825594,-0.004372332377888627,0.009776019615970624
1668678458.7227788,48979,1668678458,722675061,,-0.09018255939851225,-0.6130086446578998,0.06391160968309063,0.9955579646772809,0.09353956998312385,-0.004372332231822675,0.009776017893644755
1668678458.7313313,48980,1668678458,731149872,,-0.09007901370242409,-0.6130083341779431,0.06390816603836562,0.9955579646936253,0.09353956998822201,-0.00437233211613735,0.009776016232138132
1668678458.7393332,48981,1668678458,739199643,,-0.08997213107256773,-0.6130080297091415,0.06390464706482733,0.9955579647092193,0.09353956999354789,-0.004372332030683476,0.009776014631350867
1668678458.747043,48982,1668678458,746934246,,-0.08986282864142076,-0.6130077315151377,0.06390106557202793,0.9955579647240903,0.09353956999910105,-0.0043723319743392206,0.009776013089010757
1668678458.7552626,48983,1668678458,755092854,,-0.08975247363555008,-0.613007440079899,0.06389743352628988,0.9955579647383095,0.09353957000488482,-0.004372331944291731,0.009776011599070251
1668678458.7629416,48984,1668678458,762803785,,-0.08964171334107444,-0.613006888646613,0.06389376205922968,0.9955579647519163,0.09353957001089964,-0.004372331938957687,0.00977601015822544
1668678458.771557,48985,1668678458,771455322,,-0.08953068107600777,-0.6130058319127771,0.06389006150789074,0.9955579647649296,0.0935395700171444,-0.004372331957537979,0.009776008764922966
1668678458.7791762,48986,1668678458,779012927,,-0.08942035172471534,-0.6130035122417953,0.06388634144813665,0.9955579647773883,0.09353957002361936,-0.004372331998475515,0.009776007415916225
1668678458.787069,48987,1668678458,786961937,,-0.08931220879139411,-0.6129988118142068,0.06388261070668637,0.9955579647893914,0.09353957003032984,-0.004372332057890157,0.009776006102772579
1668678458.7950108,48988,1668678458,794908502,,-0.08920670265300493,-0.6129911795734787,0.06387887744806685,0.9955579648009731,0.09353957003727568,-0.004372332134406519,0.009776004822652205
1668678458.8032858,48989,1668678458,803139718,,-0.0891037591338381,-0.6129803643926552,0.0638751492000852,0.9955579648121324,0.09353957004445403,-0.004372332227979468,0.009776003575686145
1668678458.8112638,48990,1668678458,811135291,,-0.0890030960163905,-0.6129664669861754,0.0638714329009074,0.9955579648228551,0.0935395700518602,-0.0043723323390834545,0.00977600236316427
1668678458.8196557,48991,1668678458,819467874,,-0.08890342827119652,-0.6129501394520583,0.06386773494434868,0.9955579648330922,0.09353957005948745,-0.004372332469519383,0.00977600118933504
1668678458.8275204,48992,1668678458,827409396,,-0.08880226323146512,-0.6129327431473766,0.0638640612290322,0.9955579648427323,0.09353957006732364,-0.004372332623474961,0.009776000063773148
1668678458.8353212,48993,1668678458,835187354,,-0.08869752363536271,-0.6129155527387226,0.0638604171636219,0.9955579648516651,0.09353957007535672,-0.004372332805107606,0.009775998995983921
1668678458.8428268,48994,1668678458,842731389,,-0.08858823965499132,-0.6128991974259252,0.06385680763517049,0.9955579648598335,0.0935395700835794,-0.004372333016531687,0.009775997990907823
1668678458.8511274,48995,1668678458,851020302,,-0.08847421417972363,-0.6128838550673198,0.0638532370506273,0.9955579648672147,0.09353957009198673,-0.004372333258542728,0.009775997050538367
1668678458.8591118,48996,1668678458,858932270,,-0.08835544402622252,-0.6128695878613184,0.06384970937848862,0.9955579648738054,0.09353957010057587,-0.0043723335312042776,0.009775996175232221
1668678458.8672342,48997,1668678458,867117367,,-0.08823183047394748,-0.6128565101820432,0.06384622819504102,0.9955579648795914,0.09353957010934275,-0.004372333834990334,0.009775995366260223
1668678458.8752081,48998,1668678458,875080059,,-0.0881034283191436,-0.6128446444091883,0.06384279669626086,0.9955579648845678,0.09353957011828425,-0.004372334170010875,0.009775994624077907
1668678458.8827252,48999,1668678458,882629310,,-0.0879703681372814,-0.61283396611726,0.0638394177246016,0.9955579648887359,0.09353957012739773,-0.004372334536156225,0.009775993948647827
1668678458.8914835,49000,1668678458,891296880,,-0.0878328305208202,-0.6128244191339965,0.06383609379260588,0.9955579648921011,0.09353957013668082,-0.0043723349331531896,0.009775993339564564
1668678458.899727,49001,1668678458,899612905,,-0.08769100117379874,-0.6128159416938033,0.06383282710503074,0.9955579648946714,0.09353957014613153,-0.0043723353606282935,0.009775992796196032
1668678458.9076262,49002,1668678458,907472667,,-0.08754515139995234,-0.612808479467833,0.06382961958087637,0.9955579648964588,0.09353957015574796,-0.004372335818063901,0.009775992317586597
1668678458.9148593,49003,1668678458,914767615,,-0.08739560141727931,-0.612801974140671,0.06382647287152494,0.9955579648974825,0.09353957016552923,-0.004372336304645538,0.009775991902114043
1668678458.9232132,49004,1668678458,923099228,,-0.087242663121022,-0.6127963667671086,0.06382338837747145,0.9955579648977616,0.09353957017547353,-0.004372336819591407,0.009775991548228414
1668678458.93119,49005,1668678458,931092264,,-0.08708657732214567,-0.6127915988321546,0.06382036726576541,0.9955579648973152,0.09353957018558,-0.004372337362105216,0.009775991254345782
1668678458.939065,49006,1668678458,938930101,,-0.08692733497428687,-0.6127876140878201,0.06381741048417809,0.9955579648961475,0.09353957019584598,-0.004372337931967091,0.009775991020169881
1668678458.9471984,49007,1668678458,947089450,,-0.08676486397585144,-0.612784359500928,0.06381451877795159,0.9955579648942539,0.0935395702062684,-0.004372338529279667,0.009775990846124148
1668678458.955006,49008,1668678458,954890934,,-0.086599192689312,-0.6127817843362885,0.06381172955032523,0.995557964891638,0.09353957021684484,-0.004372339153861466,0.009775990731994562
1668678458.9634857,49009,1668678458,963290441,,-0.08643039895208154,-0.6127798402891423,0.0638090965972701,0.9955579648883064,0.09353957022757294,-0.004372339805377186,0.009775990677221014
1668678458.9712381,49010,1668678458,971117015,,-0.08625859320264695,-0.6127784814481264,0.06380663231316809,0.9955579648842693,0.09353957023845097,-0.004372340483389451,0.009775990681012663
1668678458.9790945,49011,1668678458,978969494,,-0.08608388903846094,-0.6127776643359201,0.06380443215890702,0.995557964879538,0.09353957024947698,-0.0043723411874074915,0.009775990742458763
1668678458.9873738,49012,1668678458,987222988,,-0.08590638864588619,-0.6127773478690247,0.06380270073192507,0.995557964874123,0.09353957026064884,-0.004372341916970848,0.009775990860713587
1668678458.9957395,49013,1668678458,995597838,,-0.08572619591269622,-0.6127774931854262,0.06380158359920586,0.9955579648680353,0.09353957027196473,-0.004372342671597038,0.009775991034881403
1668678459.0031912,49014,1668678459,3053581,,-0.08554341272160099,-0.6127780635600236,0.06380106585032629,0.9955579648612863,0.09353957028342265,-0.004372343450794897,0.009775991264045223
1668678459.0110004,49015,1668678459,10865682,,-0.08535813790709462,-0.6127790243146268,0.06380107058583905,0.9955579648538875,0.09353957029502091,-0.00437234425406981,0.009775991547279168
1668678459.0191212,49016,1668678459,19022531,,-0.08517053104154315,-0.6127803427581385,0.06380149847815858,0.9955579648458537,0.09353957030675775,-0.004372345080794441,0.009775991883358388
1668678459.0272586,49017,1668678459,27160739,,-0.08498077509189181,-0.6127819881067983,0.06380222642802764,0.9955579648372049,0.09353957031863178,-0.004372345930152963,0.009775992270635402
1668678459.0352557,49018,1668678459,35128627,,-0.08478892732670165,-0.6127839313168896,0.06380347209763369,0.9955579648279524,0.09353957033064116,-0.004372346801653204,0.009775992708186007
1668678459.0430174,49019,1668678459,42846616,,-0.08459498229323735,-0.6127861450086007,0.06380561047474832,0.9955579648180999,0.09353957034278321,-0.004372347695107361,0.009775993195765862
1668678459.0513813,49020,1668678459,51231255,,-0.08439898378686596,-0.61278860344851,0.06380871156997049,0.9955579648076547,0.09353957035505578,-0.004372348610173153,0.009775993732783463
1668678459.0598016,49021,1668678459,59537890,,-0.08420098516957916,-0.6127912824631118,0.06381290823142119,0.9955579647966263,0.09353957036745698,-0.0043723495464314055,0.0097759943184729
1668678459.06734,49022,1668678459,67172855,,-0.0840010296214517,-0.6127941593466292,0.06381858711149725,0.9955579647850231,0.09353957037998414,-0.0043723505035138666,0.009775994952181254
1668678459.0751617,49023,1668678459,75053563,,-0.08379916749016596,-0.6127972127972549,0.06382602735568539,0.9955579647728542,0.09353957039263544,-0.004372351481021987,0.009775995633185815
1668678459.0830274,49024,1668678459,82920375,,-0.08359545111511142,-0.6128004228480265,0.06383518385022943,0.9955579647601288,0.09353957040540897,-0.004372352478545199,0.009775996360735867
1668678459.0915353,49025,1668678459,91392480,,-0.08338993322609259,-0.6128037708040817,0.06384587066715613,0.9955579647468564,0.09353957041830233,-0.00437235349566795,0.009775997134068055
1668678459.0992994,49026,1668678459,99167365,,-0.08318266401443106,-0.6128072391807348,0.06385771765318064,0.9955579647330467,0.09353957043131345,-0.004372354531977222,0.009775997952422368
1668678459.107223,49027,1668678459,107043859,,-0.08297368975819011,-0.612810811643258,0.06387026090994029,0.9955579647187087,0.09353957044444038,-0.004372355587071407,0.009775998815064142
1668678459.115665,49028,1668678459,115559812,,-0.08276305434439751,-0.6128144729436673,0.06388304035143781,0.9955579647038515,0.09353957045768081,-0.004372356660555019,0.009775999721270264
1668678459.123472,49029,1668678459,123355559,,-0.08255079902114318,-0.6128182088656424,0.06389561514126312,0.9955579646884839,0.09353957047103263,-0.004372357752039332,0.009776000670330878
1668678459.1310656,49030,1668678459,130854160,,-0.08233696241940136,-0.6128220061613415,0.06390783930105039,0.9955579646726148,0.09353957048449354,-0.004372358861142743,0.00977600166155124
1668678459.139227,49031,1668678459,139035976,,-0.08212158046906323,-0.6128258525055674,0.06391952377181635,0.9955579646562523,0.09353957049806169,-0.004372359987491361,0.009776002694251908
1668678459.1469858,49032,1668678459,146907211,,-0.08190468643049122,-0.6128297364525908,0.06393035882525823,0.9955579646394053,0.09353957051173466,-0.004372361130719792,0.009776003767770845
1668678459.155441,49033,1668678459,155304956,,-0.08168631114261508,-0.6128336473813553,0.06394018121717254,0.9955579646220816,0.09353957052551011,-0.004372362290469995,0.00977600488146141
1668678459.16301,49034,1668678459,162859169,,-0.08146648312940953,-0.6128375754526341,0.06394894101517928,0.9955579646042889,0.09353957053938636,-0.004372363466391299,0.00977600603469159
1668678459.1714156,49035,1668678459,171274237,,-0.08124522872218976,-0.6128415115686336,0.06395666663968519,0.9955579645860353,0.09353957055336062,-0.00437236465814061,0.009776007226844402
1668678459.1792085,49036,1668678459,179083579,,-0.08102257216741632,-0.6128454473335603,0.06396340432148646,0.9955579645673286,0.0935395705674309,-0.004372365865381555,0.009776008457317183
1668678459.1879978,49037,1668678459,187742071,,-0.08079853573806367,-0.6128493750154675,0.06396918787829753,0.9955579645481759,0.09353957058159484,-0.004372367087785011,0.00977600972552095
1668678459.1962576,49038,1668678459,195881636,,-0.08057313985685002,-0.6128532875087745,0.06397406491328934,0.9955579645285845,0.09353957059585043,-0.004372368325028035,0.009776011030879517
1668678459.2031279,49039,1668678459,202988036,,-0.08034640320337667,-0.6128571782989654,0.06397808876805672,0.9955579645085617,0.09353957061019512,-0.004372369576794363,0.00977601237282985
1668678459.2151282,49040,1668678459,214771795,,-0.08011834281774596,-0.6128610414288024,0.06398131591854678,0.9955579644881144,0.09353957062462684,-0.0043723708427739,0.009776013750820827
1668678459.2214305,49041,1668678459,221201370,,-0.07988897419869775,-0.6128648714665896,0.06398388806367096,0.9955579644672493,0.0935395706391435,-0.004372372122662054,0.009776015164312507
1668678459.2281182,49042,1668678459,227866317,,-0.07965831139816072,-0.6128686634774095,0.06398620618511136,0.9955579644459733,0.09353957065374263,-0.004372373416160448,0.009776016612776318
1668678459.2354403,49043,1668678459,235304971,,-0.07942636711172549,-0.6128724129930828,0.0639886973859212,0.995557964424293,0.0935395706684219,-0.004372374722975764,0.009776018095694226
1668678459.2428622,49044,1668678459,242753966,,-0.07919315276244879,-0.6128761159790906,0.06399149834457984,0.9955579644022148,0.09353957068317918,-0.00437237604281985,0.009776019612557661
1668678459.2511187,49045,1668678459,250998157,,-0.07895867858247657,-0.6128797688089102,0.06399459190959624,0.9955579643797451,0.09353957069801225,-0.004372377375409888,0.009776021162867823
1668678459.2591872,49046,1668678459,259051262,,-0.07872295369087406,-0.612883368240672,0.06399790673417842,0.99555796435689,0.09353957071291903,-0.004372378720467352,0.00977602274613502
1668678459.2670593,49047,1668678459,266969193,,-0.07848598616707006,-0.6128869113933196,0.06400135437660431,0.9955579643336558,0.09353957072789716,-0.004372380077718733,0.009776024361877458
1668678459.2750354,49048,1668678459,274941626,,-0.07824778312051169,-0.6128903957234381,0.06400468402691081,0.9955579643100485,0.09353957074294411,-0.004372381446894577,0.009776026009622093
1668678459.2830043,49049,1668678459,282909873,,-0.07800835075652794,-0.6128938190027466,0.06400757547554585,0.9955579642860741,0.09353957075805786,-0.004372382827729718,0.009776027688902447
1668678459.291127,49050,1668678459,291027985,,-0.07776769443985923,-0.612897179300122,0.06400994589371914,0.9955579642617383,0.09353957077323617,-0.004372384219962971,0.0097760293992606
1668678459.2990756,49051,1668678459,298913093,,-0.07752581875391076,-0.6129004749615047,0.06401177264778304,0.995557964237047,0.09353957078847683,-0.004372385623337132,0.009776031140244286
1668678459.307272,49052,1668678459,307162877,,-0.07728272755659837,-0.6129037045899268,0.06401300468478974,0.9955579642120058,0.09353957080377795,-0.00437238703759813,0.009776032911407835
1668678459.3154411,49053,1668678459,315240240,,-0.07703842403403269,-0.6129068670291372,0.0640136387324257,0.9955579641866206,0.09353957081913691,-0.0043723884624957575,0.009776034712311261
1668678459.3228302,49054,1668678459,322699701,,-0.07679291075091951,-0.6129099613468412,0.06401369548128388,0.9955579641608966,0.09353957083455174,-0.004372389897783346,0.00977603654252084
1668678459.3313441,49055,1668678459,331168394,,-0.07654618969823676,-0.6129129868188682,0.06401321167611443,0.9955579641348393,0.09353957085002002,-0.004372391343216678,0.009776038401607578
1668678459.3390956,49056,1668678459,338979921,,-0.07629826233826681,-0.6129159429140907,0.06401222634800476,0.9955579641084545,0.0935395708655397,-0.004372392798555146,0.009776040289147513
1668678459.3476224,49057,1668678459,347413665,,-0.07604912964707555,-0.6129188292799798,0.0640107739824024,0.9955579640817472,0.09353957088110873,-0.004372394263560797,0.00977604220472157
1668678459.3555713,49058,1668678459,355235150,,-0.07579879215473974,-0.6129216457293547,0.0640088905971902,0.9955579640547229,0.09353957089672497,-0.00437239573799853,0.009776044147914439
1668678459.3629742,49059,1668678459,362700103,,-0.07554724998323072,-0.6129243922276568,0.06400661197959488,0.9955579640273867,0.09353957091238609,-0.004372397221635745,0.009776046118315571
1668678459.3711514,49060,1668678459,371046386,,-0.07529450288213263,-0.6129270688809427,0.06400397316567659,0.9955579639997442,0.09353957092808982,-0.0043723987142423575,0.009776048115517624
1668678459.3796794,49061,1668678459,379364136,,-0.07504055026251273,-0.6129296759252733,0.0640010461662006,0.9955579639718,0.09353957094383446,-0.004372400215590853,0.009776050139116916
1668678459.3871877,49062,1668678459,387055299,,-0.07478539123087385,-0.612932213723411,0.06399829803659038,0.9955579639435593,0.09353957095961786,-0.004372401725455743,0.00977605218871305
1668678459.3955224,49063,1668678459,395368892,,-0.07452902461880724,-0.6129346827543042,0.06399633187122392,0.9955579639150277,0.09353957097543757,-0.004372403243613846,0.009776054263908679
1668678459.4030974,49064,1668678459,402979317,,-0.07427144900541306,-0.6129370835854588,0.06399562893676009,0.9955579638862097,0.09353957099129197,-0.0043724047698441544,0.009776056364309192
1668678459.4115767,49065,1668678459,411440852,,-0.07401266274485276,-0.6129394168680183,0.06399641832774088,0.9955579638571105,0.09353957100717875,-0.004372406303927633,0.009776058489523008
1668678459.4191232,49066,1668678459,419001277,,-0.07375266388541203,-0.6129419504266598,0.06399889504866725,0.995557963827729,0.0935395710230957,-0.0043724078458823356,0.009776060639687258
1668678459.4271884,49067,1668678459,427036621,,-0.07349145015987711,-0.6129450718944224,0.06400340171498534,0.9955579637980547,0.09353957103904015,-0.004372409396068316,0.009776062815704067
1668678459.4350457,49068,1668678459,434895857,,-0.07322901924477626,-0.612949095785859,0.06401026810680288,0.9955579637680829,0.09353957105501004,-0.004372410954655151,0.009776065018044615
1668678459.4429126,49069,1668678459,442800281,,-0.0729653686815465,-0.6129542879527036,0.06401980307529669,0.9955579637378075,0.09353957107100284,-0.004372412521837441,0.00977606724723388
1668678459.4513423,49070,1668678459,451244853,,-0.07270049605347428,-0.6129606651447643,0.06403195309571802,0.9955579637072312,0.09353957108701659,-0.004372414097481331,0.009776069503056987
1668678459.459074,49071,1668678459,458939359,,-0.07243439881509622,-0.6129684427428276,0.06404671881858491,0.9955579636763554,0.09353957110304953,-0.004372415681520814,0.009776071785450115
1668678459.4671059,49072,1668678459,466980422,,-0.07216707390414971,-0.6129785676960686,0.0640648459088762,0.995557963645156,0.09353957111909866,-0.004372417274846036,0.00977607409648875
1668678459.4756596,49073,1668678459,475495446,,-0.07189851804379065,-0.6129919834195927,0.06408718013764046,0.9955579636135992,0.09353957113516129,-0.004372418878720572,0.009776076439081953
