Time,header.seq,header.stamp.secs,header.stamp.nsecs,header.frame_id,twist.linear.x,twist.linear.y,twist.linear.z,twist.angular.x,twist.angular.y,twist.angular.z
1668678456.9663548,48759,1668678456,965784691,,-7.872240377725781e-06,1.2528447845573272e-09,-3.8416571381048374e-11,1.0781550547855093e-06,-8.389996043871277e-07,-9.33036802557034e-09
1668678456.9752886,48760,1668678456,974566319,,-7.1307403034295935e-06,1.216455982429377e-09,-3.702439273952176e-11,1.100787197263337e-06,-8.442602585241655e-07,-9.41129007852371e-09
1668678456.9817703,48761,1668678456,981519617,,-6.433762703901659e-06,1.1805594659670065e-09,-3.566486811550229e-11,1.1230988292442718e-06,-8.493710988830888e-07,-9.490365233051125e-09
1668678456.9884014,48762,1668678456,988210265,,-5.779164560367555e-06,1.1451851381180943e-09,-3.433836185462999e-11,1.1450896385005024e-06,-8.543326602457987e-07,-9.567598023614717e-09
1668678456.9959846,48763,1668678456,995797888,,-5.1648885836946e-06,1.1103595374672051e-09,-3.3045030220741456e-11,1.1667593563252915e-06,-8.591454922496614e-07,-9.642993185860499e-09
1668678457.0034552,48764,1668678457,3234934,,-4.588960498785618e-06,1.0761063856525297e-09,-3.178499139086409e-11,1.1881077572355444e-06,-8.638101592017988e-07,-9.716555656976655e-09
1668678457.0116222,48765,1668678457,11372238,,-4.0494863797682154e-06,1.0424465728798143e-09,-3.055829715126481e-11,1.2091346586790917e-06,-8.683272398942789e-07,-9.788290564532187e-09
1668678457.0192611,48766,1668678457,19111304,,-3.5446500373396497e-06,1.00939825596551e-09,-2.9364906924536666e-11,1.2298399206829862e-06,-8.726973274066134e-07,-9.858203231511684e-09
1668678457.0272684,48767,1668678457,27131881,,-3.0727104591695364e-06,9.769771966317762e-10,-2.8204691310410492e-11,1.2502234455503225e-06,-8.769210289251418e-07,-9.926299171561764e-09
1668678457.0357141,48768,1668678457,35509405,,-2.63199930412893e-06,9.4519671842442e-10,-2.707747988869674e-11,1.270285177544772e-06,-8.80998965556236e-07,-9.99258408230037e-09
1668678457.0433044,48769,1668678457,43205425,,-2.2209184513778338e-06,9.140680517902825e-10,-2.5983043650214858e-11,1.290025102558141e-06,-8.849317721289524e-07,-1.0057063855623885e-08
1668678457.0515168,48770,1668678457,51396683,,-1.8379376044017787e-06,8.836002969886154e-10,-2.4921215769731943e-11,1.3094432477814798e-06,-8.887200970082275e-07,-1.0119744560717347e-08
1668678457.0592227,48771,1668678457,59091376,,-1.4815919506146757e-06,8.538006375631699e-10,-2.389152710047112e-11,1.328539681368921e-06,-8.923646019010488e-07,-1.0180632453941863e-08
1668678457.0672703,48772,1668678457,67153184,,-1.1504798768835942e-06,8.246744831034809e-10,-2.2893671609710426e-11,1.3473145121164204e-06,-8.958659616729838e-07,-1.023973397235015e-08
1668678457.0757308,48773,1668678457,75610042,,-8.432607405258965e-07,7.96225574222117e-10,-2.192723311683769e-11,1.3657678891133442e-06,-8.992248641540911e-07,-1.0297055726858815e-08
1668678457.0830276,48774,1668678457,82863910,,-5.586526965422782e-07,7.684559979405957e-10,-2.099180349579558e-11,1.3839000014152504e-06,-9.024420099481225e-07,-1.0352604500375138e-08
1668678457.091447,48775,1668678457,91199147,,-2.954305803680703e-07,7.413664764459154e-10,-2.0086869023358153e-11,1.4017110776887514e-06,-9.055181122385685e-07,-1.0406387255252341e-08
1668678457.0993028,48776,1668678457,99180740,,-5.242384603692174e-08,7.149563871433819e-10,-1.9212020668189688e-11,1.4192013858870802e-06,-9.084538966083946e-07,-1.0458411125502445e-08
1668678457.1074207,48777,1668678457,107295994,,1.7148544043292898e-07,6.892238639326983e-10,-1.836667877339417e-11,1.4363712328882163e-06,-9.112501008382163e-07,-1.0508683401887547e-08
1668678457.1151826,48778,1668678457,114959464,,3.7736455264547524e-07,6.641658636533112e-10,-1.7550294904443232e-11,1.4532209641529919e-06,-9.139074747139693e-07,-1.0557211555939862e-08
1668678457.1229138,48779,1668678457,122763705,,5.662320016347461e-07,6.397782825422077e-10,-1.6762298035037268e-11,1.469750963374185e-06,-9.164267798462202e-07,-1.0604003213032774e-08
1668678457.1311119,48780,1668678457,130933109,,7.390593794894699e-07,6.160561460376999e-10,-1.6002137445429524e-11,1.4859616521235146e-06,-9.188087894724328e-07,-1.0649066172452155e-08
1668678457.139713,48781,1668678457,139600761,,8.967731500426674e-07,5.929934006163625e-10,-1.526924692572639e-11,1.50185348950075e-06,-9.210542882658556e-07,-1.0692408389086859e-08
1668678457.1474574,48782,1668678457,147300025,,1.0402563870763241e-06,5.705833797327789e-10,-1.456299474211453e-11,1.5174269717660578e-06,-9.231640721436274e-07,-1.0734037963186864e-08
1668678457.1552372,48783,1668678457,155068293,,1.1703504608077348e-06,5.488187401213716e-10,-1.3882774497131374e-11,1.5326826319982717e-06,-9.25138948081376e-07,-1.0773963162677402e-08
1668678457.1627727,48784,1668678457,162647171,,1.2878566733148894e-06,5.276911845415428e-10,-1.3227982656544888e-11,1.5476210397286237e-06,-9.26979733917388e-07,-1.0812192399779156e-08
1668678457.1713629,48785,1668678457,171173384,,1.3935378437896814e-06,5.071920009179036e-10,-1.2597929436106203e-11,1.562242800558347e-06,-9.286872581563192e-07,-1.0848734248425375e-08
1668678457.1790867,48786,1668678457,178970131,,1.4881198444982328e-06,4.873119837522011e-10,-1.1992037430021698e-11,1.576548555830503e-06,-9.302623597923668e-07,-1.0883597418880107e-08
1668678457.1870577,48787,1668678457,186960692,,1.5722930882162084e-06,4.680413347089241e-10,-1.1409617142469939e-11,1.5905389822347283e-06,-9.317058881078334e-07,-1.0916790768570906e-08
1668678457.1953504,48788,1668678457,195190965,,1.6467139680611453e-06,4.493698725168332e-10,-1.0850060850756091e-11,1.60421479146335e-06,-9.330187024878412e-07,-1.0948323301078953e-08
1668678457.2030509,48789,1668678457,202914157,,1.7120062508061817e-06,4.312870894182921e-10,-1.0312757474442714e-11,1.617576729820875e-06,-9.342016722270759e-07,-1.0978204157750258e-08
1668678457.2112014,48790,1668678457,211081099,,1.768762424214278e-06,4.13782066404378e-10,-9.79700741184638e-12,1.6306255778636471e-06,-9.352556763411294e-07,-1.100644262960155e-08
1668678457.219212,48791,1668678457,219071483,,1.8175449999120358e-06,3.9684372391762093e-10,-9.30224874903488e-12,1.6433621500389361e-06,-9.36181603379508e-07,-1.1033048135192393e-08
1668678457.2273455,48792,1668678457,227079568,,1.8588877721946812e-06,3.804606420101784e-10,-8.827868427620988e-12,1.6557872942928478e-06,-9.369803512351684e-07,-1.105803022700546e-08
1668678457.2353601,48793,1668678457,235190567,,1.8932970341181888e-06,3.6462136041144686e-10,-8.37322014812012e-12,1.6679018917053376e-06,-9.376528269501306e-07,-1.1081398589023594e-08
1668678457.247356,48794,1668678457,246665000,,1.9212527518318024e-06,3.493141071985391e-10,-7.937729813290965e-12,1.679706856122303e-06,-9.38199946537688e-07,-1.1103163041950074e-08
1668678457.2574782,48795,1668678457,256469198,,1.943209697904724e-06,3.3452709679544904e-10,-7.520715360371622e-12,1.6912031337572068e-06,-9.386226347787921e-07,-1.1123333522319085e-08
1668678457.2652953,48796,1668678457,264795892,,1.959598544894816e-06,3.20248393588151e-10,-7.1216727001393014e-12,1.7023917028359633e-06,-9.389218250479929e-07,-1.1141920104072194e-08
1668678457.2727509,48797,1668678457,272133805,,1.9708269200061944e-06,3.064659781691533e-10,-6.739970739274757e-12,1.7132735732025433e-06,-9.390984591214285e-07,-1.1158932975115439e-08
1668678457.2778492,48798,1668678457,277475654,,1.977280421970726e-06,2.931678083557561e-10,-6.375073825984113e-12,1.7238497859451268e-06,-9.391534869840399e-07,-1.1174382442620482e-08
1668678457.283996,48799,1668678457,283824784,,1.979323600899916e-06,2.8034190276618577e-10,-6.0263665629853175e-12,1.7341214130163934e-06,-9.390878666538894e-07,-1.1188278944931781e-08
1668678457.2920418,48800,1668678457,291865238,,1.977300902314125e-06,2.679763082691577e-10,-5.6933074488006106e-12,1.7440895568466577e-06,-9.389025639857859e-07,-1.1200633021636253e-08
1668678457.2998343,48801,1668678457,299632447,,1.9715375761857057e-06,2.560589879584732e-10,-5.375299898890943e-12,1.7537553499553108e-06,-9.385985524844199e-07,-1.1211455336810518e-08
1668678457.3074718,48802,1668678457,307243335,,1.9623405521353105e-06,2.4457804664348284e-10,-5.0719294589827895e-12,1.7631199545914656e-06,-9.381768131329569e-07,-1.1220756659883036e-08
1668678457.31539,48803,1668678457,315251174,,1.9499992814838593e-06,2.33521664583306e-10,-4.7826174226441175e-12,1.7721845623121844e-06,-9.376383341915795e-07,-1.12285478720237e-08
1668678457.3232248,48804,1668678457,322982295,,1.9347865472581656e-06,2.2287814605496921e-10,-4.506815443860221e-12,1.7809503936303476e-06,-9.369841110216827e-07,-1.1234839964926652e-08
1668678457.3316264,48805,1668678457,331498708,,1.9169592432903863e-06,2.1263590932114454e-10,-4.244044283608309e-12,1.7894186976203806e-06,-9.36215145905481e-07,-1.123964402995428e-08
1668678457.33927,48806,1668678457,339075683,,1.8967591227451033e-06,2.027833952927302e-10,-3.993813103437388e-12,1.7975907515122156e-06,-9.353324478522634e-07,-1.124297125904101e-08
1668678457.3471131,48807,1668678457,346996811,,1.874413517640358e-06,1.9330931203186914e-10,-3.7556478723625605e-12,1.8054678603331594e-06,-9.343370324261351e-07,-1.124483294083845e-08
1668678457.3551705,48808,1668678457,355019497,,1.8501360298045094e-06,1.8420242169850346e-10,-3.5290730150788468e-12,1.8130513564965409e-06,-9.332299215575362e-07,-1.1245240474008309e-08
1668678457.3632078,48809,1668678457,363069070,,1.8241271945514057e-06,1.7545164569631708e-10,-3.3136595383840933e-12,1.8203425994304268e-06,-9.320121433666591e-07,-1.12442053419842e-08
1668678457.3711538,48810,1668678457,370998562,,1.7965751173880236e-06,1.670462435399448e-10,-3.1089221609531505e-12,1.8273429751818213e-06,-9.306847319821856e-07,-1.1241739127903135e-08
1668678457.3792698,48811,1668678457,379114768,,1.7676560851009997e-06,1.5897534778964138e-10,-2.914423150307196e-12,1.8340538960213895e-06,-9.292487273496698e-07,-1.1237853505977653e-08
1668678457.3872714,48812,1668678457,387128656,,1.7375351519337367e-06,1.512286038472761e-10,-2.72980624101091e-12,1.8404768000722571e-06,-9.277051750723072e-07,-1.123256023868663e-08
1668678457.3955998,48813,1668678457,395389064,,1.7063667013857012e-06,1.4379563617610249e-10,-2.5546635951703077e-12,1.8466131509084436e-06,-9.26055126215737e-07,-1.12258711809088e-08
1668678457.4030066,48814,1668678457,402804740,,1.6742949850434453e-06,1.366663237490985e-10,-2.3885263213878477e-12,1.8524644371614529e-06,-9.242996371365157e-07,-1.1217798256961814e-08
1668678457.411376,48815,1668678457,411226494,,1.641454638261892e-06,1.29830697579965e-10,-2.2311089726054773e-12,1.8580321721446335e-06,-9.224397693078541e-07,-1.1208353486101316e-08
1668678457.419699,48816,1668678457,419557008,,1.6079711746984138e-06,1.2327909283696299e-10,-2.0819424873445552e-12,1.8633178934486945e-06,-9.204765891374815e-07,-1.1197548967145601e-08
1668678457.4275901,48817,1668678457,427453860,,1.5739614592459383e-06,1.1700196028476916e-10,-1.9407448334463946e-12,1.8683231625749369e-06,-9.184111677959265e-07,-1.1185396876162368e-08
1668678457.4351332,48818,1668678457,434993416,,1.5395341610178647e-06,1.1099004869478763e-10,-1.80712551556567e-12,1.8730495645105884e-06,-9.162445810353369e-07,-1.1171909453830568e-08
1668678457.4426281,48819,1668678457,442523406,,1.5047901864750086e-06,1.0523421678121658e-10,-1.6808064795415727e-12,1.8774987073715316e-06,-9.139779090250066e-07,-1.1157099033829133e-08
1668678457.4517179,48820,1668678457,451574098,,1.4698230937493725e-06,9.972561606591999e-11,-1.561428395941656e-12,1.8816722219971842e-06,-9.116122361717207e-07,-1.114097800708287e-08
1668678457.4593942,48821,1668678457,459283924,,1.4347194888169484e-06,9.445558536031224e-11,-1.4486496168656538e-12,1.8855717615626452e-06,-9.091486509474938e-07,-1.112355883727375e-08
1668678457.4677043,48822,1668678457,467561603,,1.399559403756839e-06,8.941566318629029e-11,-1.342237209654848e-12,1.8891990011950462e-06,-9.065882457216259e-07,-1.1104854065627496e-08
1668678457.4755988,48823,1668678457,475418111,,1.3644166585674266e-06,8.459762658555569e-11,-1.2418974852342636e-12,1.8925556375824444e-06,-9.039321165879212e-07,-1.108487627653971e-08
1668678457.4830484,48824,1668678457,482928701,,1.3293592061748638e-06,7.999344469122809e-11,-1.1472740671307719e-12,1.8956433885810048e-06,-9.011813631907152e-07,-1.106363813461112e-08
1668678457.4917524,48825,1668678457,491580282,,1.2944494619956036e-06,7.559520863840675e-11,-1.0581719634291293e-12,1.8984639928399396e-06,-8.983370885646574e-07,-1.104115235995149e-08
1668678457.4992814,48826,1668678457,499066356,,1.259744618501604e-06,7.139545034041339e-11,-9.74281209244051e-13,1.901019209392295e-06,-8.954003989556014e-07,-1.1017431730234516e-08
1668678457.5072367,48827,1668678457,507099568,,1.2252969449374561e-06,6.738675137326502e-11,-8.954188056795339e-13,1.9033108172991526e-06,-8.923724036668361e-07,-1.0992489084421177e-08
1668678457.5151799,48828,1668678457,515060375,,1.1911540732301402e-06,6.356187590338163e-11,-8.212859132933683e-13,1.9053406152248947e-06,-8.892542148768822e-07,-1.0966337316978945e-08
1668678457.523099,48829,1668678457,522978944,,1.157359270545828e-06,5.991386561085164e-11,-7.516961638265065e-13,1.9071104210867916e-06,-8.860469474918663e-07,-1.0938989364683527e-08
1668678457.5312617,48830,1668678457,531078373,,1.1239516987236013e-06,5.643596275897603e-11,-6.863921807266994e-13,1.908622071639979e-06,-8.827517189626e-07,-1.091045822235801e-08
1668678457.53915,48831,1668678457,538971743,,1.0909666613895427e-06,5.3121539418584664e-11,-6.251163146866153e-13,1.90987742211273e-06,-8.79369649134895e-07,-1.0880756930329365e-08
1668678457.5472655,48832,1668678457,547160078,,1.05843583921322e-06,4.9964223982327516e-11,-5.677304679006672e-13,1.9108783458279763e-06,-8.759018600894078e-07,-1.0849898582463392e-08
1668678457.555917,48833,1668678457,555666551,,1.0263875137213506e-06,4.69578806792149e-11,-5.140354628625206e-13,1.9116267337952673e-06,-8.723494759682844e-07,-1.0817896309973273e-08
1668678457.5630653,48834,1668678457,562857429,,9.948467799646936e-07,4.409648122120326e-11,-4.638478236462747e-13,1.912124494348432e-06,-8.687136228213852e-07,-1.0784763288870278e-08
1668678457.5713248,48835,1668678457,571154259,,9.638357488751746e-07,4.137420572563422e-11,-4.1698143571688423e-13,1.9123735527467378e-06,-8.649954284460211e-07,-1.0750512730845456e-08
1668678457.5795193,48836,1668678457,579336464,,9.333737394399302e-07,3.878542605651484e-11,-3.7323751911436065e-13,1.9123758508146136e-06,-8.611960222302734e-07,-1.0715157890098631e-08
1668678457.5877411,48837,1668678457,587498534,,9.034774612023827e-07,3.632474524993496e-11,-3.324261992666905e-13,1.912133346550873e-06,-8.57316534995178e-07,-1.0678712058481299e-08
1668678457.5956478,48838,1668678457,595466359,,8.741611874159026e-07,3.398692428407607e-11,-2.9444109783574825e-13,1.9116480137455817e-06,-8.533580988384144e-07,-1.0641188561561314e-08
1668678457.6029515,48839,1668678457,602803065,,8.454369194815011e-07,3.176675995121227e-11,-2.5906789653923714e-13,1.910921841602369e-06,-8.493218469741622e-07,-1.060260074391522e-08
1668678457.611824,48840,1668678457,611581790,,8.173145425969072e-07,2.965938313391971e-11,-2.2622909950402512e-13,1.9099568343806725e-06,-8.452089135895032e-07,-1.0562961998625326e-08
1668678457.61932,48841,1668678457,619173073,,7.898019737136234e-07,2.7660040460012156e-11,-1.95740419417877e-13,1.9087550109960454e-06,-8.410204336824821e-07,-1.0522285735966594e-08
1668678457.627266,48842,1668678457,627064695,,7.629053012744147e-07,2.5764112427671207e-11,-1.67534919456324e-13,1.9073184046540172e-06,-8.367575429173545e-07,-1.048058540134531e-08
1668678457.6357093,48843,1668678457,635498049,,7.366289177241284e-07,2.396721220270102e-11,-1.413867299504862e-13,1.9056490624754094e-06,-8.32421377466146e-07,-1.0437874463920683e-08
1668678457.6432729,48844,1668678457,643100381,,7.109756449134499e-07,2.2265057513686806e-11,-1.172214884724154e-13,1.9037490451234347e-06,-8.28013073868499e-07,-1.03941664053338e-08
1668678457.6515477,48845,1668678457,651390758,,6.859468525056164e-07,2.0653489664935768e-11,-9.491602573757226e-14,1.9016204264419036e-06,-8.23533768874318e-07,-1.034947473563502e-08
1668678457.659043,48846,1668678457,658938562,,6.615425701032602e-07,1.9128545785032254e-11,-7.441862866907149e-14,1.8992652930766137e-06,-8.189845993000764e-07,-1.0303812981782539e-08
1668678457.6669781,48847,1668678457,666856447,,6.377615930844796e-07,1.7686415788933397e-11,-5.5582506424467453e-14,1.8966857441082376e-06,-8.143667018863698e-07,-1.025719468760099e-08
1668678457.6752622,48848,1668678457,675063498,,6.146015824221371e-07,1.6323375407864273e-11,-3.831028311969157e-14,1.8938838906810043e-06,-8.096812131500284e-07,-1.0209633406426766e-08
1668678457.6831422,48849,1668678457,683024802,,5.920591590053537e-07,1.5035834079580626e-11,-2.250899399074015e-14,1.890861855639432e-06,-8.049292692375185e-07,-1.0161142712073275e-08
1668678457.6911337,48850,1668678457,691030824,,5.701299924547668e-07,1.382037900517493e-11,-8.120536725992385e-15,1.8876217731681803e-06,-8.001120057856894e-07,-1.0111736184531977e-08
1668678457.6992486,48851,1668678457,699130730,,5.488088848104403e-07,1.2673733554093607e-11,5.004298407575274e-15,1.8841657884113356e-06,-7.952305577768875e-07,-1.006142742131796e-08
1668678457.7073915,48852,1668678457,707240584,,5.280898493897032e-07,1.1592664248050738e-11,1.6934278218684562e-14,1.8804960571359257e-06,-7.902860594063577e-07,-1.0010230016761467e-08
1668678457.7156503,48853,1668678457,715404476,,5.079661848488528e-07,1.057411418672209e-11,2.7770236013658748e-14,1.8766147453630374e-06,-7.852796439356362e-07,-9.958157583510571e-09
1668678457.7231777,48854,1668678457,723047347,,4.884305449590318e-07,9.615271049832582e-12,3.753299994780519e-14,1.8725240290057176e-06,-7.802124435631984e-07,-9.90522372724671e-09
1668678457.73159,48855,1668678457,731483115,,4.694750039566513e-07,8.713246401142488e-12,4.6286130337229297e-14,1.8682260935105216e-06,-7.750855892778854e-07,-9.851442054918376e-09
1668678457.739588,48856,1668678457,739467657,,4.510911180037554e-07,7.865273407246625e-12,5.4135921184915925e-14,1.863723133504307e-06,-7.699002107316658e-07,-9.796826185140037e-09
1668678457.747578,48857,1668678457,747408432,,4.33269982795779e-07,7.0688339869491306e-12,6.109794264264317e-14,1.8590173524390013e-06,-7.646574361016587e-07,-9.741389729342685e-09
1668678457.7556071,48858,1668678457,755423053,,4.160022875359391e-07,6.321365156177183e-12,6.728565751335439e-14,1.8541109622434766e-06,-7.593583919582793e-07,-9.685146291646888e-09
1668678457.7627919,48859,1668678457,762656682,,3.9927836535818626e-07,5.620563751007136e-12,7.270753802906582e-14,1.849006182973352e-06,-7.540042031347194e-07,-9.628109476969107e-09
1668678457.7712655,48860,1668678457,771126937,,3.830882405683849e-07,4.964037135879664e-12,7.74089157728197e-14,1.8437052424518658e-06,-7.485959925982004e-07,-9.570292884553648e-09
1668678457.7793117,48861,1668678457,779190763,,3.674216727187237e-07,4.349529366368171e-12,8.151693835712344e-14,1.8382103759269904e-06,-7.431348813100517e-07,-9.511710096866787e-09
1668678457.7871802,48862,1668678457,787068435,,5.469571431475195e-07,3.776461443687962e-12,8.522759556015639e-14,1.8325238283992198e-06,-7.376219814037522e-07,-9.452374704883459e-09
1668678457.7952144,48863,1668678457,795034541,,1.295293524344428e-06,3.2508422227363088e-12,8.998672239378123e-14,1.8266478537494478e-06,-7.320583966807337e-07,-9.392300272256598e-09
1668678457.8028677,48864,1668678457,802751195,,2.955384544721163e-06,2.808322751737271e-12,9.848169739583088e-14,1.820584710746677e-06,-7.264452295925573e-07,-9.331500353257188e-09
1668678457.811344,48865,1668678457,811225649,,5.84128119423059e-06,2.5570233809913304e-12,1.1312208831228635e-13,1.8143366613820094e-06,-7.207835805746738e-07,-9.26998848684493e-09
1668678457.819594,48866,1668678457,819437221,,1.0239793467887943e-05,2.731564215316954e-12,1.3446277706553267e-13,1.8079059687957967e-06,-7.15074547251612e-07,-9.207778196923197e-09
1668678457.827725,48867,1668678457,827624432,,1.6412074543540345e-05,3.751904639335192e-12,1.5936519516407236e-13,1.8012948949186588e-06,-7.093192235457484e-07,-9.144882991366106e-09
1668678457.835138,48868,1668678457,835010008,,2.459513039854063e-05,6.281446142354761e-12,1.7918978313923656e-13,1.794505698044932e-06,-7.035186987743132e-07,-9.08131635787569e-09
1668678457.8437395,48869,1668678457,843487475,,3.500325777868521e-05,1.1280998896334724e-11,1.7828800188836397e-13,1.7875406303443969e-06,-6.97674056726961e-07,-9.017091768924327e-09
1668678457.8518653,48870,1668678457,851647596,,4.7829413345162655e-05,2.0056077726866404e-11,1.3259766802542798e-13,1.7804019354869161e-06,-6.917863747807395e-07,-8.95222266969638e-09
1668678457.8596714,48871,1668678457,859436053,,6.324651673622198e-05,3.429587073001246e-11,8.453103213834521e-15,1.7730918463838561e-06,-6.858567230541575e-07,-8.88672248561663e-09
1668678457.8670468,48872,1668678457,866945858,,8.140869019560328e-05,5.6101976641536276e-11,-2.382086991023252e-13,1.7656125831354663e-06,-6.798861636534443e-07,-8.8206046145779e-09
1668678457.8756452,48873,1668678457,875249635,,0.00010245243733424278,8.800776042600516e-11,-6.625011229501565e-13,1.7579663512143563e-06,-6.738757499801124e-07,-8.753882433818957e-09
1668678457.8827562,48874,1668678457,882638232,,0.00012649776350968846,1.3298684390453344e-10,-1.3310164723994487e-12,1.7501553398754e-06,-6.678265261325069e-07,-8.68656928752396e-09
1668678457.8915422,48875,1668678457,891322081,,0.00015364924022625534,1.9445232124755975e-10,-2.3217209398658138e-12,1.7421817208700955e-06,-6.617395264086074e-07,-8.618678497013949e-09
1668678457.899285,48876,1668678457,899168276,,0.0001839970158791927,2.762461848161017e-10,-3.723928865694529e-12,1.7340476473668025e-06,-6.556157748860642e-07,-8.550223345364736e-09
1668678457.9077606,48877,1668678457,907616780,,0.00021761777508896065,3.8262059654683093e-10,-5.637750729817634e-12,1.7257552531909478e-06,-6.49456285107447e-07,-8.48121709413072e-09
1668678457.9156742,48878,1668678457,915549925,,0.00025457564879504324,5.182112338800422e-10,-8.173581973826843e-12,1.717306652314109e-06,-6.432620598507776e-07,-8.411672975999415e-09
1668678457.9230025,48879,1668678457,922851281,,0.0002949230772049201,6.880038815795525e-10,-1.1451172044468903e-11,1.7087039385519431e-06,-6.370340909886219e-07,-8.341604176278702e-09
1668678457.9316998,48880,1668678457,931479512,,0.0003387016276206694,8.972956720454494e-10,-1.559879308928631e-11,1.6999491855367258e-06,-6.30773359434198e-07,-8.27102385463508e-09
1668678457.9397156,48881,1668678457,939600679,,0.0003859427690954129,1.1516513320855434e-09,-2.0752061769955046e-11,1.6910444468854282e-06,-6.24480835144219e-07,-8.199945130348517e-09
1668678457.9476647,48882,1668678457,947470095,,0.0004366686058025533,1.4568563285502713e-09,-2.7052801220737193e-11,1.6819917565791235e-06,-6.181574772195764e-07,-8.128381081824558e-09
1668678457.9556866,48883,1668678457,955429221,,0.0004908925709329131,1.8188664159373913e-09,-3.464765404800613e-11,1.6727931294897327e-06,-6.118042340383279e-07,-8.056344753099541e-09
1668678457.9630704,48884,1668678457,962957868,,0.0005063863127076752,1.8126363856677178e-09,-3.3024440281496526e-11,1.6634630240171253e-06,-6.054277521365257e-07,-7.98384789909342e-09
1668678457.9716556,48885,1668678457,971448541,,0.0005288019862767592,1.8792977271275234e-09,-3.3293266370244757e-11,1.6539918334624547e-06,-5.990233979036933e-07,-7.910904651405731e-09
1668678457.979192,48886,1668678457,979056686,,0.0005051435922930098,1.464745651458173e-09,-2.1714510268104227e-11,1.6443977555985096e-06,-5.925994345371471e-07,-7.837526302110522e-09
1668678457.9873137,48887,1668678457,987199275,,0.00046434075932841134,9.268092496539564e-10,-7.361096737973187e-12,1.6346737487340606e-06,-5.861526778582821e-07,-7.76372662025012e-09
1668678457.9950695,48888,1668678457,994953247,,0.0004467616627134884,6.670731559453193e-10,-2.1928279008480733e-13,1.6248108018724801e-06,-5.7967891318102e-07,-7.689519526655163e-09
1668678458.0028691,48889,1668678458,2757389,,0.00044600567095340836,5.794643751358542e-10,2.473527413393022e-12,1.6148137446077259e-06,-5.731802522403047e-07,-7.614917501360015e-09
1668678458.011395,48890,1668678458,11232000,,0.00045551739003976644,5.889543887656658e-10,2.6656101844171428e-12,1.6046866955636612e-06,-5.666585590530066e-07,-7.539933054973545e-09
1668678458.0191183,48891,1668678458,18985645,,0.00048593721610584457,7.925317126000055e-10,-1.986451572627835e-12,1.5944289489558935e-06,-5.601134727771355e-07,-7.46457911660666e-09
1668678458.0275884,48892,1668678458,27183913,,0.0005699095569850815,1.5528478473145782e-09,-2.0356130954567e-11,1.5840318286081996e-06,-5.535412056715457e-07,-7.3888693375573355e-09
1668678458.035411,48893,1668678458,35249346,,0.0006822103882166287,2.7465490016636355e-09,-4.9179654671105233e-11,1.5734998349918132e-06,-5.46944387048463e-07,-7.312816008124556e-09
1668678458.0426955,48894,1668678458,42587706,,0.0008095434729516395,4.317760572326916e-09,-8.698978145568851e-11,1.5628358239239678e-06,-5.40324661943954e-07,-7.236431527569628e-09
1668678458.051121,48895,1668678458,51006038,,0.0009382472947438474,6.102434787746957e-09,-1.2970235011471563e-10,1.5520460057999536e-06,-5.336848038377271e-07,-7.159727907985261e-09
1668678458.0591624,48896,1668678458,58980016,,0.0010750196113192398,8.22706430342368e-09,-1.804842408955245e-10,1.5411284186699996e-06,-5.27024135505257e-07,-7.082717908479461e-09
1668678458.067306,48897,1668678458,67188826,,0.0012161989796884735,1.0641023836607381e-08,-2.380854371083129e-10,1.5300860263406198e-06,-5.203439860019905e-07,-7.005413743673902e-09
1668678458.0752752,48898,1668678458,75122483,,0.0013598841158859816,1.3304253378637314e-08,-3.015314662394416e-10,1.5189215893039716e-06,-5.136455502594071e-07,-6.927827582003249e-09
1668678458.0827923,48899,1668678458,82655048,,0.0015051017728815721,1.6185216713202795e-08,-3.7006444218981146e-10,1.5076376956697996e-06,-5.069299284841635e-07,-6.849971556557172e-09
1668678458.0912511,48900,1668678458,91109986,,0.0016508438755562552,1.924237828547957e-08,-4.426801872237792e-10,1.4962372903958766e-06,-5.001983371599945e-07,-6.7718576917882856e-09
1668678458.0991821,48901,1668678458,99048478,,0.0017976917975873906,2.248060319724268e-08,-5.195247688818313e-10,1.4847220198421734e-06,-4.934514972749547e-07,-6.693498075683452e-09
1668678458.107293,48902,1668678458,107172686,,0.0019454097041786173,2.588012683333935e-08,-6.001286157230433e-10,1.4730942415417192e-06,-4.866903922985145e-07,-6.6149046574516535e-09
1668678458.1151404,48903,1668678458,114996352,,0.0020938945187475434,2.9425101986151934e-08,-6.84117321684367e-10,1.461356229593236e-06,-4.79915968513162e-07,-6.536089335561213e-09
1668678458.1229095,48904,1668678458,122791049,,0.0022431110355075837,3.3102423204404806e-08,-7.711820493253719e-10,1.4495102013310149e-06,-4.7312914624628947e-07,-6.457063924346362e-09
1668678458.131453,48905,1668678458,131344502,,0.002393016772111658,3.6899040065636713e-08,-8.610127437561536e-10,1.4375583917591854e-06,-4.6633084747062746e-07,-6.3778401826301845e-09
1668678458.1390448,48906,1668678458,138926751,,0.0025436895280278025,4.080816551631031e-08,-9.53451902148798e-10,1.425502868412317e-06,-4.5952192925497284e-07,-6.298429802015226e-09
1668678458.1470516,48907,1668678458,146926010,,0.0026951390772645047,4.482072593332946e-08,-1.0482825903660733e-09,1.4133457730847198e-06,-4.527032714525634e-07,-6.218844400378287e-09
1668678458.1556947,48908,1668678458,155434763,,0.002847381862224512,4.8928684353092863e-08,-1.1453112043923857e-09,1.40108922775488e-06,-4.4587574255064736e-07,-6.139095529676675e-09
1668678458.1632435,48909,1668678458,163028464,,0.003000436153762828,5.312479450418791e-08,-1.244361236009774e-09,1.3887353398522493e-06,-4.390402016035889e-07,-6.059194649493671e-09
1668678458.1712093,48910,1668678458,171073235,,0.0031543163948775776,5.740223512154531e-08,-1.3452645927042903e-09,1.376286211564311e-06,-4.321975015810739e-07,-5.9791531665034925e-09
1668678458.1796312,48911,1668678458,179491323,,0.003309043415889469,6.175519367867942e-08,-1.4478758288311452e-09,1.3637439215537602e-06,-4.253484828822639e-07,-5.898982394572649e-09
1668678458.1876507,48912,1668678458,187381254,,0.0035214321213079118,6.996860233830423e-08,2.708587500952811e-05,1.3509950074895339e-06,-4.1845321554748367e-07,-5.818703372427458e-09
1668678458.1956718,48913,1668678458,195562051,,0.00376015311390283,8.019414067521069e-08,6.626640022193049e-05,1.3380900619782131e-06,-4.115299060048383e-07,-5.738322842938071e-09
1668678458.20285,48914,1668678458,202726454,,0.004060190808546933,-4.6255739250788693e-05,0.00025010260012605414,1.3249015189857816e-06,-4.0453405458697623e-07,-5.6578623487679724e-09
1668678458.2112,48915,1668678458,211030825,,0.004349281602740032,-8.883764387407326e-05,0.0004189201374073787,1.3116195833687294e-06,-3.975327700618081e-07,-5.577316798503762e-09
1668678458.2191544,48916,1668678458,219017264,,0.004695628551116464,-0.00013853616411097286,0.000655103216827538,1.2980570353893578e-06,-3.904607440802189e-07,-5.4967121609558744e-09
1668678458.2271175,48917,1668678458,227005691,,0.005062566841317033,-0.00018970356288457353,0.000914487427810451,1.2842946331583893e-06,-3.8334654384983595e-07,-5.416052125881143e-09
1668678458.2353265,48918,1668678458,235214889,,0.0053374524382711706,-0.00020693596963843893,0.0012003510018343032,1.2707182621934826e-06,-3.763243860033401e-07,-5.33531705100565e-09
1668678458.2428217,48919,1668678458,242728519,,0.005562766668613834,-0.00020678079686886318,0.0014870677700534215,1.2572238304979104e-06,-3.6935772874339273e-07,-5.254526713044383e-09
1668678458.2512956,48920,1668678458,251171450,,0.005782001670139941,-0.00020622868620692576,0.001748196796715634,1.2436665370608844e-06,-3.623962603835091e-07,-5.173703259211959e-09
1668678458.2593417,48921,1668678458,259161888,,0.005928415822253544,-0.00019705588087355977,0.001994352006426077,1.2302978808077211e-06,-3.5552709065969895e-07,-5.092839098358448e-09
1668678458.2670896,48922,1668678458,266902855,,0.00603949130116973,-0.00018385503894406677,0.0021188736201483605,1.2169981574996304e-06,-3.487086837661345e-07,-5.011954552769371e-09
1668678458.2752802,48923,1668678458,275071566,,0.006134923446961936,-0.0001690258419294341,0.002177429387536339,1.2037007406649655e-06,-3.4191799933377823e-07,-4.9310654066936355e-09
1668678458.2828248,48924,1668678458,282720097,,0.006224998708451086,-0.00015381764476488918,0.002110537581066785,1.190370213999248e-06,-3.3514283664590194e-07,-4.85018481453936e-09
1668678458.2910752,48925,1668678458,290970421,,0.0063202979810071174,-0.00013950668338023105,0.0020447679424674455,1.1769678940003572e-06,-3.283698877060094e-07,-4.769325778058997e-09
1668678458.299171,48926,1668678458,299066142,,0.006415340315659516,-0.00012540615883924219,0.0019185105671030837,1.1635170254159993e-06,-3.216072461351973e-07,-4.688497002094949e-09
1668678458.3072865,48927,1668678458,307146226,,0.0065128221290675385,-0.00011182993157091729,0.0017658268458964862,1.1500088719226337e-06,-3.1485195260041034e-07,-4.607709215911915e-09
1668678458.3151014,48928,1668678458,314935479,,0.006614054177395137,-9.892356388059635e-05,0.0016044666817852833,1.1364398246893885e-06,-3.081028185256639e-07,-4.526972669990914e-09
1668678458.3228574,48929,1668678458,322731278,,0.006719618310415951,-8.674444889646746e-05,0.001443560893022902,1.1228090076015042e-06,-3.013595965584994e-07,-4.44629733725721e-09
1668678458.3310323,48930,1668678458,330901353,,0.00683012733092013,-7.535468308241057e-05,0.0012925215113917972,1.10911524765611e-06,-2.946219344698202e-07,-4.3656931004304456e-09
1668678458.338974,48931,1668678458,338855708,,0.006944943543904289,-6.46639246242792e-05,0.0011460361039165416,1.0953625553130578e-06,-2.8789126299026886e-07,-4.285169431100799e-09
1668678458.34721,48932,1668678458,347038141,,0.007064077723195543,-5.466190103638467e-05,0.0010063086923624274,1.0815522187331553e-06,-2.8116807029049287e-07,-4.204735859839048e-09
1668678458.3553586,48933,1668678458,355198444,,0.007187439618246436,-4.5326604512267744e-05,0.0008742845077175174,1.067685931415422e-06,-2.7445298019066096e-07,-4.124401816602008e-09
1668678458.3628907,48934,1668678458,362770848,,0.007314889196604631,-3.663052264083868e-05,0.0007502520946422115,1.053765595955791e-06,-2.677466843680116e-07,-4.04417659950751e-09
1668678458.3711812,48935,1668678458,371058088,,0.007446295964442337,-2.8547879649864196e-05,0.000634540074491804,1.0397930717452396e-06,-2.610498554507577e-07,-3.9640694338149984e-09
1668678458.3792095,48936,1668678458,379044180,,0.007581438350299853,-2.1042257824823346e-05,0.0005263407322897595,1.0257706458379677e-06,-2.543633088903383e-07,-3.884089404271318e-09
1668678458.3876615,48937,1668678458,387484897,,0.007720152281427182,-1.4084802679496735e-05,0.00042545213336401264,1.0117003632301326e-06,-2.476877726253503e-07,-3.804245527969097e-09
1668678458.395791,48938,1668678458,395686100,,0.007862272254533764,-7.646971823824928e-06,0.0003315899355917109,9.975842947950331e-07,-2.4102397926459166e-07,-3.7245467231217244e-09
1668678458.4029145,48939,1668678458,402798290,,0.00800763514816013,-1.7009807377123054e-06,0.00024443399271478674,9.834245224215704e-07,-2.3437266098832923e-07,-3.645001809063353e-09
1668678458.411663,48940,1668678458,411448549,,0.008156084671741922,3.7796715280495206e-06,0.00016368238949817548,9.692231188196003e-07,-2.2773454265017116e-07,-3.565619499310002e-09
1668678458.4199529,48941,1668678458,419718261,,0.008307463286964762,8.82121491917163e-06,8.895871566968343e-05,9.549821889848252e-07,-2.2111035603009695e-07,-3.486408417172071e-09
1668678458.427222,48942,1668678458,427107489,,0.008461623657878385,1.3448220676770522e-05,1.9948040585810062e-05,9.407038136298007e-07,-2.145008204488684e-07,-3.4073770818765503e-09
1668678458.435213,48943,1668678458,435027410,,0.00861842384634508,1.7684209840728766e-05,-4.3657528175752035e-05,9.263900726672931e-07,-2.079066508842045e-07,-3.3285339259142566e-09
1668678458.4429493,48944,1668678458,442815723,,0.008777727427387461,2.1551656800051793e-05,-0.00010215569620943446,9.120430443475806e-07,-2.0132855769420133e-07,-3.249887274223151e-09
1668678458.4518366,48945,1668678458,451642689,,0.008939403658432576,2.507198555976857e-05,-0.00015583023719770468,8.976648037076912e-07,-1.9476724614239747e-07,-3.1714453441883395e-09
1668678458.4595451,48946,1668678458,459281481,,0.009103326670999428,2.8265685606155342e-05,-0.0002049587335745473,8.832574262040359e-07,-1.8822341767664452e-07,-3.093216268193477e-09
1668678458.467288,48947,1668678458,467154415,,0.009269376196605908,3.115223851622809e-05,-0.00024980238313259307,8.688229827883825e-07,-1.8169776827239208e-07,-3.015208071069364e-09
1668678458.475041,48948,1668678458,474919831,,0.009437437023138378,3.375020009081163e-05,-0.0002906107123800615,8.54363541727296e-07,-1.75190989120885e-07,-2.9374286839717323e-09
1668678458.4829488,48949,1668678458,482798888,,0.009607398840796583,3.607723402624999e-05,-0.0003276217638994709,8.398811682567387e-07,-1.6870376654540883e-07,-2.859885932238182e-09
1668678458.491084,48950,1668678458,490967261,,0.009779156096343567,3.8150144008656094e-05,-0.00036106222374047617,8.253779241064175e-07,-1.6223678188229855e-07,-2.782587545796522e-09
1668678458.4992044,48951,1668678458,499088951,,0.009952607611029542,3.998443143150201e-05,-0.000363415879347032,8.108558673936808e-07,-1.5579071148684757e-07,-2.705541147021706e-09
1668678458.5075967,48952,1668678458,507350156,,0.010127656678902953,4.1594886219142764e-05,-0.000309672579924089,7.963170517172883e-07,-1.4936622645802871e-07,-2.6287542594094493e-09
1668678458.5158825,48953,1668678458,515716965,,0.01030421122026239,4.2996634293391925e-05,-0.00023036603363251574,7.817635257812604e-07,-1.4296399258959674e-07,-2.5522343127803993e-09
1668678458.5229008,48954,1668678458,522714763,,0.010482183396273959,4.420449064478248e-05,-0.00019809076419374498,7.671973328379105e-07,-1.3658467016696308e-07,-2.4759886189940072e-09
1668678458.5312808,48955,1668678458,531085057,,0.01066148867337265,4.523067191371334e-05,-0.00016797490627760235,7.526205100304113e-07,-1.3022891384950564e-07,-2.400024408377721e-09
1668678458.539232,48956,1668678458,539110505,,0.010842046723436085,4.608793045667748e-05,-0.00017329853476073014,7.380350878060792e-07,-1.2389737246972041e-07,-2.324348814114474e-09
1668678458.5479584,48957,1668678458,547784715,,0.011023780641446997,4.67876817236839e-05,-0.00019552628177628762,7.234430892023185e-07,-1.175906888603996e-07,-2.248968861834344e-09
1668678458.555216,48958,1668678458,555096492,,0.011206617069444804,4.734081703893339e-05,-0.00022069264542715406,7.088465292262277e-07,-1.1130949966581781e-07,-2.173891452267318e-09
1668678458.5630357,48959,1668678458,562895426,,0.011390486081960386,4.7757792442141356e-05,-0.00024612263805366317,6.942474141432404e-07,-1.0505443516451926e-07,-2.0991234306322326e-09
1668678458.5714245,48960,1668678458,571279797,,0.011575321001194697,4.8048496797061386e-05,-0.0002690578629121558,6.796477408226606e-07,-9.882611906424088e-08,-2.0246715068394927e-09
1668678458.5798101,48961,1668678458,579684336,,0.011761058314813267,4.822241200856021e-05,-0.0002947503100831597,6.650494960564314e-07,-9.262516834866036e-08,-1.9505423110022235e-09
1668678458.5873375,48962,1668678458,587166438,,0.0119476370373333,4.828711072102734e-05,-0.00024528373580568326,6.504546558991537e-07,-8.645219304705739e-08,-1.8767423656806947e-09
1668678458.5950122,48963,1668678458,594915073,,0.012134999799613137,4.825186066666132e-05,-0.0001608503094503615,6.358651850180532e-07,-8.030779611071463e-08,-1.8032780754739797e-09
1668678458.6028647,48964,1668678458,602727083,,0.012323092196461728,4.81260612916877e-05,-0.00013830164770969785,6.21283036037661e-07,-7.419257320323298e-08,-1.7301557998783412e-09
1668678458.6115973,48965,1668678458,611374651,,0.012511861631416706,4.791617280302298e-05,-0.000117261807879243,6.067101489533962e-07,-6.810711254126231e-08,-1.6573817179788009e-09
1668678458.6190362,48966,1668678458,618915640,,0.012533467406688432,4.758781421919517e-05,-0.00012703223346595679,5.934097933242598e-07,-6.248145612529343e-08,-1.5850133670836097e-09
1668678458.6270988,48967,1668678458,626991054,,0.012480445549976304,4.71732260856377e-05,-0.0001513240464898981,5.806969881753433e-07,-5.70823771144373e-08,-1.5130399190488308e-09
1668678458.6352022,48968,1668678458,635036386,,0.01222732145573518,4.6649422941107944e-05,-0.0001816211304941803,5.69489455130547e-07,-5.2222275520965623e-08,-1.4415173915649504e-09
1668678458.6432102,48969,1668678458,642924518,,0.011894719059102504,4.6057323729562406e-05,-0.00021351701800348256,5.588318794955225e-07,-4.7576073575108374e-08,-1.3704182615092986e-09
1668678458.6510623,48970,1668678458,650955372,,0.011606657290435628,4.543359893079385e-05,-0.00024247189918438964,5.478107740859912e-07,-4.2832779845961705e-08,-1.299703632912097e-09
1668678458.659188,48971,1668678458,659062328,,0.011339364785026057,4.4775856947485775e-05,-0.0002709630302919095,5.366162129909354e-07,-3.805694307850967e-08,-1.2293861310908039e-09
1668678458.667016,48972,1668678458,666891011,,0.01121136632270617,4.41140766888029e-05,-0.00029788725219865426,5.244661030472147e-07,-3.298216490139937e-08,-1.1594215136578878e-09
1668678458.6754308,48973,1668678458,675243647,,0.011166080094425386,4.343614275029407e-05,-0.0003227413592425692,5.117839735250504e-07,-2.775242545705525e-08,-1.0898331161135477e-09
1668678458.682913,48974,1668678458,682720450,,0.011203715908828314,4.274445075974699e-05,-0.0003453363946391846,4.985820517739874e-07,-2.237176094496609e-08,-1.020621913372377e-09
1668678458.6910403,48975,1668678458,690926441,,0.011259874308240268,4.2027217591390336e-05,-0.00036546503625607403,4.852955694610161e-07,-1.6988188698168535e-08,-9.51818800859483e-10
1668678458.6991944,48976,1668678458,699019388,,0.011525047432540248,4.133088276141616e-05,-0.00038346368505572266,4.7062853500101057e-07,-1.1160622534164052e-08,-8.833322927281895e-10
1668678458.7079225,48977,1668678458,707808125,,0.011892298202747021,4.0633166317034074e-05,-0.0003993797336884872,4.552576860716265e-07,-5.119256117592456e-09,-8.152058091071002e-10
1668678458.7151544,48978,1668678458,715046137,,0.012305448541019635,3.992414935119053e-05,-0.0004133011664421586,4.395346613037833e-07,1.0163765905291111e-09,-7.47464843492418e-10
1668678458.7227964,48979,1668678458,722675061,,0.012735160142913628,3.9199910981527676e-05,-0.0004253342223047435,4.236517122309944e-07,7.181012529945165e-09,-6.801257994293319e-10
1668678458.7313426,48980,1668678458,731149872,,0.013151259339116454,3.8455716521873345e-05,-0.0004355775139962174,4.078345935577951e-07,1.3298045374989052e-08,-6.132104060641019e-10
1668678458.7393553,48981,1668678458,739199643,,0.013569393427636555,3.769843572304163e-05,-0.00044416646059751707,3.91969164116341e-07,1.9406415342217674e-08,-5.467124669644718e-10
1668678458.7470617,48982,1668678458,746934246,,0.013756212329313384,3.686696357859122e-05,-0.0004512069526753126,3.779819410338551e-07,2.4851685995544437e-08,-4.808183226567841e-10
1668678458.7552733,48983,1668678458,755092854,,0.01383253842231098,3.599882796177619e-05,-0.0004568045170353994,3.649525285755314e-07,2.9946623149681474e-08,-4.154623312047079e-10
1668678458.7629533,48984,1668678458,762803785,,0.013857529772428736,0.0001018623007383546,-0.0004610630355367096,3.5258766632184093e-07,3.47908987744709e-08,-3.5062942133068375e-10
1668678458.771567,48985,1668678458,771455322,,0.013900531267605126,0.00016232558718584354,-0.00046407559215541,3.4011101678445635e-07,3.964827168038672e-08,-2.862482265109101e-10
1668678458.7791939,48986,1668678458,779012927,,0.013681789650830152,0.0004175743105865935,-0.00046594239541311914,3.303861266299563e-07,4.3546282421397676e-08,-2.2263884139062107e-10
1668678458.7870786,48987,1668678458,786961937,,0.013353923164400474,0.0007575062915052409,-0.00046674750661455553,3.217368565714047e-07,4.7053925376840285e-08,-1.5964442615090668e-10
1668678458.7950199,48988,1668678458,794908502,,0.013022589090959975,0.0011505288078427543,-0.0004665732882878816,3.131608979464642e-07,5.0511582211734164e-08,-9.716135535020598e-11
1668678458.8032942,48989,1668678458,803139718,,0.01271326950754549,0.0015532443662577297,-0.00046549596918002016,3.043455005161523e-07,5.402562636418629e-08,-3.5154917171764666e-11
1668678458.8112726,48990,1668678458,811135291,,0.012452491954077426,0.0019210898181299936,-0.00046358633004365646,2.950124656926861e-07,5.769075846700318e-08,2.6409690406792308e-11
1668678458.8196647,48991,1668678458,819467874,,0.012464429442080429,0.0021607977997894464,-0.00046090878511186154,2.8341785516419033e-07,6.209956684158835e-08,8.77597022830301e-11
1668678458.8275301,48992,1668678458,827409396,,0.012826820362274128,0.0021883093413221774,-0.000457522108004957,2.6887966681583483e-07,6.748400253235934e-08,1.4900497502523535e-10
1668678458.8353312,48993,1668678458,835187354,,0.013358071253343817,0.0021093381699971614,-0.00045349418260138,2.528231000120955e-07,7.336028581139556e-08,2.0997949906620406e-10
1668678458.8428364,48994,1668678458,842731389,,0.013962918559591744,0.00197954336074354,-0.0004488868233513167,2.359622557542582e-07,7.948612426779021e-08,2.705981966277804e-10
1668678458.8511348,48995,1668678458,851020302,,0.01454344578115547,0.0018560997361376996,-0.00044375829324005256,2.1916837831775066e-07,8.556602365880758e-08,3.307443520450537e-10
1668678458.859128,48996,1668678458,858932270,,0.015149089921001077,0.00171075965049062,-0.00043815827077282063,2.01965462723108e-07,9.17617247509525e-08,3.904865111814537e-10
1668678458.867242,48997,1668678458,867117367,,0.015754296897657952,0.0015587203219131313,-0.0004321359751375559,1.8459737992566113e-07,9.799072927206814e-08,4.497924567525846e-10
1668678458.8752315,48998,1668678458,875080059,,0.01634624166651071,0.001407784018674333,-0.00042573711173749364,1.6721079985557163e-07,1.0420353220596569e-07,5.086414622823554e-10
1668678458.8827415,48999,1668678458,882629310,,0.016918804524347093,0.00126185027234703,-0.000419004275488619,1.4989661266344282e-07,1.1036955031731941e-07,5.67019382835543e-10
1668678458.8914967,49000,1668678458,891296880,,0.0174656008473193,0.0011249561266152904,-0.0004119773463267835,1.327587168284232e-07,1.1645378586921593e-07,6.249083819853674e-10
1668678458.899736,49001,1668678458,899612905,,0.017991737719179716,0.0009944640770506363,-0.00040469326995405674,1.1576598868263369e-07,1.2246700797555448e-07,6.823115683562975e-10
1668678458.9076436,49002,1668678458,907472667,,0.01847070848364752,0.0008711486941549713,-0.0003971865200602755,9.923353540372982e-08,1.2830261161595087e-07,7.391720742433439e-10
1668678458.9148831,49003,1668678458,914767615,,0.01891679042207782,0.0007552368452070928,-0.00038948964755893987,8.304881914092854e-08,1.339989057883061e-07,7.95503437428513e-10
1668678458.9232192,49004,1668678458,923099228,,0.019317787525035438,0.0006466559167342655,-0.00038163273239906936,6.738165464012665e-08,1.3949850353339472e-07,8.512689442241594e-10
1668678458.931207,49005,1668678458,931092264,,0.019703666029894432,0.000545376362048626,-0.0003736441862933135,5.1918122109524505e-08,1.449079153865258e-07,9.06520299798208e-10
1668678458.9390764,49006,1668678458,938930101,,0.02010692408107469,0.0004508616230534223,-0.00036555040768350574,3.628179500329083e-08,1.5035486861439667e-07,9.61328253112903e-10
1668678458.9472132,49007,1668678458,947089450,,0.020510828294539377,0.000362838225073608,-0.00035737548845983833,2.0667220058652545e-08,1.557736901655919e-07,1.0156568155950119e-09
1668678458.9550183,49008,1668678458,954890934,,0.020906995843971626,0.0002810060464797197,-0.00033993100715925466,5.180613391075374e-09,1.611286064070322e-07,1.0694841262592902e-09
1668678458.963487,49009,1668678458,963290441,,0.02129144077890733,0.00020505826076141958,-0.00031830699254618584,-1.0120143699996528e-08,1.6640020048333277e-07,1.122796265684567e-09
1668678458.9712465,49010,1668678458,971117015,,0.021659998784887127,0.00013470328021236697,-0.0002977638152299633,-2.5171625154911392e-08,1.715671656982859e-07,1.1755767817533957e-09
1668678458.9791052,49011,1668678458,978969494,,0.022016044219201412,6.962499259217387e-05,-0.00025227497022770577,-4.000710798242194e-08,1.7664093536874995e-07,1.2278294492240605e-09
1668678458.9873774,49012,1668678458,987222988,,0.022359055646171293,9.540740715764483e-06,-0.00018058243033650798,-5.4610839527298666e-08,1.816163414527323e-07,1.2795475304305803e-09
1668678458.9957511,49013,1668678458,995597838,,0.022689129182159706,-4.5821970917052107e-05,-9.870158643918186e-05,-6.897559107346208e-08,1.8649109739647413e-07,1.3307259044692543e-09
1668678459.0032113,49014,1668678459,3053581,,0.02300666997640231,-9.672481595822346e-05,-3.0736301033400266e-05,-8.309898884669353e-08,1.912645571601132e-07,1.3813604357593157e-09
1668678459.0110092,49015,1668678459,10865682,,0.023312034862813732,-0.00014341807621815196,3.1919554206009064e-05,-9.69787395147751e-08,1.9593609955630316e-07,1.4314469470866342e-09
1668678459.0191433,49016,1668678459,19022531,,0.023589682876155402,-0.00018615057970829946,7.505318690912467e-05,-1.1038681341728586e-07,2.004286658879471e-07,1.4809228149337272e-09
1668678459.0272682,49017,1668678459,27160739,,0.023849305833903732,-0.00022514659057530788,0.00010693408111133216,-1.2345019954028424e-07,2.0478534042969124e-07,1.529813442591177e-09
1668678459.0352776,49018,1668678459,35128627,,0.024112636214009654,-0.00026061512956449776,0.00020448215177160727,-1.364780733345279e-07,2.0911091869191267e-07,1.578197121598901e-09
1668678459.0430267,49019,1668678459,42846616,,0.024373622562109596,-0.00029276688662910945,0.00033011055084129797,-1.493821838889891e-07,2.1337573002455992e-07,1.626049773995053e-09
1668678459.0513937,49020,1668678459,51231255,,0.02462600427499715,-0.0003218029521842842,0.0004451618143856246,-1.6206780015075046e-07,2.17547887363897e-07,1.6733432486870647e-09
1668678459.0598161,49021,1668678459,59537890,,0.024873650046068847,-0.0003479108080333056,0.0006040015369549653,-1.7458965475148757e-07,2.216460731772809e-07,1.7200904312009158e-09
1668678459.067351,49022,1668678459,67172855,,0.02511523683765687,-0.0003712704876779794,0.0008157158392543046,-1.8692554124412428e-07,2.2566294145007302e-07,1.7662828352693616e-09
1668678459.0751812,49023,1668678459,75053563,,0.025350295760037063,-0.0003920528456013527,0.001044342424422975,-1.9906583130301731e-07,2.295953973282562e-07,1.8119151595774596e-09
1668678459.0830379,49024,1668678459,82920375,,0.025578797674078526,-0.0004104209579065733,0.0012447788166059608,-2.1100762775109376e-07,2.3344262122350964e-07,1.8569840665172421e-09
1668678459.0915458,49025,1668678459,91392480,,0.02580067413527882,-0.0004265297205936278,0.0014269232663859596,-2.2274753007524685e-07,2.3720362221472946e-07,1.9014859686805607e-09
1668678459.099308,49026,1668678459,99167365,,0.02601662805608335,-0.0004405270794130029,0.001534821908276793,-2.3429443807195796e-07,2.40881570987418e-07,1.9454213032177314e-09
1668678459.1072314,49027,1668678459,107043859,,0.026226935027980423,-0.0004525520853357263,0.0016009913784001285,-2.4565084086157355e-07,2.4447747141152255e-07,1.988788571327671e-09
1668678459.1156745,49028,1668678459,115559812,,0.026431917097632842,-0.0004627377350595163,0.0015938688417420606,-2.5682019089899545e-07,2.4799265401669653e-07,2.0315868293208084e-09
1668678459.1234822,49029,1668678459,123355559,,0.026631912145430304,-0.0004712083430663446,0.0015498288309065476,-2.678064025630816e-07,2.514286068206568e-07,2.0738154249411167e-09
1668678459.1310704,49030,1668678459,130854160,,0.02682723657611104,-0.0004780816962224044,0.0015062113127421275,-2.786132455103482e-07,2.5478677015270453e-07,2.1154737614437202e-09
1668678459.139247,49031,1668678459,139035976,,0.027018249057686718,-0.0004834712724249999,0.001414907090368955,-2.8924538002879276e-07,2.580688870787093e-07,2.156561831889725e-09
1668678459.1469934,49032,1668678459,146907211,,0.027205258471032282,-0.0004874829499828467,0.0012938573286698663,-2.9970681938014344e-07,2.612764833897748e-07,2.1970794697456775e-09
1668678459.1554515,49033,1668678459,155304956,,0.02738856128121945,-0.000490217056197148,0.0011617418655277783,-3.100015281019201e-07,2.6441106991252107e-07,2.237026792972774e-09
1668678459.163019,49034,1668678459,162859169,,0.027568439729124334,-0.0004917688234640996,0.0010282089055386149,-3.2013337715561686e-07,2.6747412742024294e-07,2.2764039819822557e-09
1668678459.1714678,49035,1668678459,171274237,,0.02774515972528308,-0.0004922284215843093,0.0009031984239325497,-3.301060921326836e-07,2.704670890221056e-07,2.3152113420854548e-09
1668678459.1792169,49036,1668678459,179083579,,0.02791897655454671,-0.0004916812368884718,0.0007812232266313097,-3.3992333594424053e-07,2.733913681664604e-07,2.3534493451271565e-09
1668678459.1880174,49037,1668678459,187742071,,0.028090128310809623,-0.0004902078243431674,0.0006646671412603182,-3.495885836275487e-07,2.762483163125081e-07,2.391118560096661e-09
1668678459.196266,49038,1668678459,195881636,,0.028258839461510796,-0.0004878842293182076,0.000554592719031325,-3.5910517148308226e-07,2.790392395286747e-07,2.4282196947611467e-09
1668678459.2031465,49039,1668678459,202988036,,0.028425321317881145,-0.0004847821757266802,0.0004513720228329071,-3.6847629468809116e-07,2.817653975844842e-07,2.464753512398943e-09
1668678459.2151372,49040,1668678459,214771795,,0.02858977244307145,-0.0004809692610004682,0.0003554165770077713,-3.7770500488398025e-07,2.844280031444541e-07,2.500720908127363e-09
1668678459.2214534,49041,1668678459,221201370,,0.028752379591996613,-0.0004765093446786468,0.000287620307219979,-3.867942191279161e-07,2.8702822482446107e-07,2.536122908902705e-09
1668678459.2281454,49042,1668678459,227866317,,0.028913317676341303,-0.00047146287791910815,0.00029190963739890506,-3.957467125582535e-07,2.895671845276398e-07,2.570960562497948e-09
1668678459.2354484,49043,1668678459,235304971,,0.02907275096802542,-0.000465885781440965,0.00033088964893954295,-4.045651253219368e-07,2.920459598495769e-07,2.6052350415861625e-09
1668678459.242872,49044,1668678459,242753966,,0.02923083333223059,-0.0004598305382104326,0.00036934910023038,-4.132519657448698e-07,2.944655851014723e-07,2.6389476021071445e-09
1668678459.251138,49045,1668678459,250998157,,0.02938770859503208,-0.00045334678036170064,0.00040404128554816725,-4.218096137200474e-07,2.968270523597558e-07,2.672099624900781e-09
1668678459.2591963,49046,1668678459,259051262,,0.029543511204301202,-0.0004464810271910281,0.00042466418596684674,-4.302403250365039e-07,2.99131312879561e-07,2.704692490806959e-09
1668678459.2670662,49047,1668678459,266969193,,0.02969836660845533,-0.00043927700436661597,0.00043724585645362477,-4.3854623470765105e-07,3.013792782669651e-07,2.7367277125045497e-09
1668678459.2750452,49048,1668678459,274941626,,0.029852391895494077,-0.00043177526634565903,0.00039516693818109983,-4.4672936137796345e-07,3.0357182175487756e-07,2.7682068928780446e-09
1668678459.2830229,49049,1668678459,282909873,,0.03000569596048911,-0.00042401419035042104,0.00032769581832817017,-4.547916115950606e-07,3.057097797894452e-07,2.7991316348119355e-09
1668678459.291136,49050,1668678459,291027985,,0.030158380043954675,-0.0004160297260714382,0.0002649092717676455,-4.6273478405175605e-07,3.0779395317269247e-07,2.8295036591519107e-09
1668678459.2990897,49051,1668678459,298913093,,0.030310538279710034,-0.00040785506111627024,0.00019177996394798347,-4.705605739397257e-07,3.0982510872720574e-07,2.859324783888173e-09
1668678459.3072813,49052,1668678459,307162877,,0.030462257881452716,-0.0003995213599029053,0.00011623006681687674,-4.782705771636388e-07,3.1180398052345e-07,2.8885967992553496e-09
1668678459.3154461,49053,1668678459,315240240,,0.030613619587517994,-0.00039105763593476296,4.228262008272912e-05,-4.858662947021986e-07,3.1373127137596796e-07,2.91732160651037e-09
1668678459.3228567,49054,1668678459,322699701,,0.030764698011511805,-0.0003824908627687806,-2.809466062327224e-05,-4.933491368397293e-07,3.1560765409639237e-07,2.9455012387491486e-09
1668678459.3313537,49055,1668678459,331168394,,0.030915561969869117,-0.0003738461041326789,-9.285595453286062e-05,-5.007204272273807e-07,3.1743377298574203e-07,2.9731376527397657e-09
1668678459.3391175,49056,1668678459,338979921,,0.031066274826969907,-0.00036514653558648115,-0.00015347544268581458,-5.079814071360191e-07,3.192102450853742e-07,3.000232923211499e-09
1668678459.347639,49057,1668678459,347413665,,0.031216894768918448,-0.0003564136429664307,-0.00020961538252616156,-5.151332393620663e-07,3.209376614947239e-07,3.026789208160352e-09
1668678459.3555715,49058,1668678459,355235150,,0.03136747510756035,-0.000347667275843432,-0.0002612304029955805,-5.22177012201642e-07,3.226165887131125e-07,3.0528086586434355e-09
1668678459.3629804,49059,1668678459,362700103,,0.03151806455783211,-0.00033892573902508154,-0.00030842353660653275,-5.291137432540541e-07,3.242475697517056e-07,3.078293529801268e-09
1668678459.3711612,49060,1668678459,371046386,,0.03166870750161047,-0.0003302058820069092,-0.00035127954259138943,-5.359443831400696e-07,3.258311254818267e-07,3.103246055957687e-09
1668678459.379705,49061,1668678459,379364136,,0.03181944415872415,-0.0003215234455068764,-0.00038047014559654133,-5.426698191473276e-07,3.273677557234962e-07,3.127668617153301e-09
1668678459.3871977,49062,1668678459,387055299,,0.03197031022189687,-0.00031289510830609965,-0.0003065638217212662,-5.492908786805962e-07,3.2885794040769627e-07,3.1515635517953555e-09
1668678459.395532,49063,1668678459,395368892,,0.03212133917091873,-0.00030433179435855834,-0.00018497987695691447,-5.558083326456212e-07,3.30302140656236e-07,3.1749332676800357e-09
1668678459.4031053,49064,1668678459,402979317,,0.03227256045653936,-0.000295845343283989,9.24273265811899e-06,-5.622228988076054e-07,3.317007998718084e-07,3.197780255870253e-09
1668678459.4115865,49065,1668678459,411440852,,0.032424001093760695,-0.00028744407058790166,0.00018810179383983662,-5.68535244885955e-07,3.3305434470249674e-07,3.220106958856661e-09
1668678459.4191337,49066,1668678459,419001277,,0.03257572336047216,-0.0003459148365429897,0.0004310760820861687,-5.75156311568507e-07,3.3450191804710976e-07,3.242189842989074e-09
1668678459.4271958,49067,1668678459,427036621,,0.03272772389335186,-0.0004344209166975977,0.0006955888939657017,-5.818602017670081e-07,3.3596753173026003e-07,3.2638898250780812e-09
1668678459.4350548,49068,1668678459,434895857,,0.03288003096812632,-0.0005715201719871059,0.0010210083354907137,-5.887629832337644e-07,3.374907156612414e-07,3.2852941270200553e-09
1668678459.4429185,49069,1668678459,442800281,,0.03303264027406518,-0.000726488519481504,0.0013627338961794606,-5.956748600866946e-07,3.390076438603961e-07,3.306281790016463e-09
1668678459.451355,49070,1668678459,451244853,,0.033185545104415265,-0.0008677752003941612,0.0016747717961104215,-6.02399062691575e-07,3.40452047823802e-07,3.3267198301656364e-09
1668678459.4590836,49071,1668678459,458939359,,0.033338807589301495,-0.001076588834572183,0.0020166617091762055,-6.094462637498514e-07,3.419967436707298e-07,3.3469734622704195e-09
1668678459.4671142,49072,1668678459,466980422,,0.03349250044285576,-0.0014546106260984867,0.002515118198961263,-6.174627504526055e-07,3.4386063328174267e-07,3.3675261260079914e-09
1668678459.4756677,49073,1668678459,475495446,,0.033646561827814496,-0.0018992769058541331,0.0030684493477912468,-6.258048952321993e-07,3.458268374629831e-07,3.387939595533851e-09
1668678459.4830225,49074,1668678459,482846993,,0.033800977971566996,-0.0023798817813863956,0.003711375673954014,-6.342800680253654e-07,3.4783065366752845e-07,3.408086556022649e-09
1668678459.4912758,49075,1668678459,491144105,,0.033955697695460585,-0.00281780723673875,0.004296183167088882,-6.423817757350201e-07,3.4970118637997483e-07,3.427595575422604e-09
1668678459.499413,49076,1668678459,499227578,,0.034110756900339705,-0.0032560654915697504,0.004945555576533929,-6.503865785392423e-07,3.5153201803270716e-07,3.446673418894264e-09
1668678459.5080059,49077,1668678459,507768078,,0.034266141813262395,-0.003674733553843523,0.005596915825622185,-6.581632588035092e-07,3.5327900984520426e-07,3.465222227216902e-09
1668678459.515725,49078,1668678459,515497427,,0.03442188965360598,-0.004129759276841796,0.006209065229684247,-6.660793172788971e-07,3.550665510360096e-07,3.4835299853042123e-09
1668678459.5233042,49079,1668678459,522950893,,0.03457796948152697,-0.004581149020305771,0.006773019110353908,-6.738708051835752e-07,3.5680575094184687e-07,3.501398095073771e-09
1668678459.5316272,49080,1668678459,531528108,,0.03473434901618889,-0.004987835388878264,0.007279050204689691,-6.812620358677109e-07,3.5840362143163204e-07,3.5186076621784856e-09
1668678459.5397499,49081,1668678459,539613687,,0.034891070655069634,-0.005409959966424042,0.007753019490057425,-6.88654618518237e-07,3.5999598709522164e-07,3.5354804708842558e-09
1668678459.5475724,49082,1668678459,547429590,,0.035048122091126836,-0.0058359415694835765,0.008209335027843923,-6.959704852866353e-07,3.6155672495188397e-07,3.5519591226607083e-09
1668678459.555688,49083,1668678459,555567166,,0.0352054796244656,-0.0062421272586779585,0.008631945866775452,-7.030480273426381e-07,3.6303143300048593e-07,3.5679129650745267e-09
1668678459.5631876,49084,1668678459,563083139,,0.0353631143307755,-0.006601826910091887,0.00896853106995132,-7.097025317651258e-07,3.643578150487343e-07,3.5831849640177715e-09
