Time,header.seq,header.stamp.secs,header.stamp.nsecs,header.frame_id,wrench.force.x,wrench.force.y,wrench.force.z,wrench.torque.x,wrench.torque.y,wrench.torque.z
1668678456.9664874,48759,1668678456,965784691,,-1.0152668840514514e-131,-4.588870047558615e-172,1.5e-323,0.0,-5e-324,0.0
1668678456.9754493,48760,1668678456,974566319,,-5.3715517782075486e-132,-2.4278693071877704e-172,1e-323,0.0,-5e-324,0.0
1668678456.9822168,48761,1668678456,981519617,,-2.841968841810706e-132,-1.2845317718074106e-172,5e-324,0.0,-5e-324,0.0
1668678456.9885683,48762,1668678456,988210265,,-1.5036226459904027e-132,-6.796172544781355e-173,5e-324,0.0,-5e-324,0.0
1668678456.9960492,48763,1668678456,995797888,,-7.955333740023351e-133,-3.595704074602276e-173,5e-324,0.0,-5e-324,0.0
1668678457.0035095,48764,1668678457,3234934,,-7.955333740023351e-133,-3.595704074602276e-173,5e-324,0.0,-5e-324,0.0
1668678457.0116856,48765,1668678457,11372238,,-4.20899053920992e-133,-1.9024072309699376e-173,5e-324,0.0,-5e-324,0.0
1668678457.019295,48766,1668678457,19111304,,-2.226883489504818e-133,-1.0065214481942659e-173,5e-324,0.0,-5e-324,0.0
1668678457.027369,48767,1668678457,27131881,,-1.1781946358948155e-133,-5.325281617850891e-174,5e-324,0.0,-5e-324,0.0
1668678457.0357497,48768,1668678457,35509405,,-6.233566356720314e-134,-2.817488326781009e-174,5e-324,0.0,-5e-324,0.0
1668678457.043402,48769,1668678457,43205425,,-6.233566356720314e-134,-2.817488326781009e-174,5e-324,0.0,-5e-324,0.0
1668678457.0515954,48770,1668678457,51396683,,-3.298041625705076e-134,-1.490670548753225e-174,5e-324,0.0,-5e-324,0.0
1668678457.059288,48771,1668678457,59091376,,-1.7449206349038003e-134,-7.886807067836185e-175,5e-324,0.0,-5e-324,0.0
1668678457.0673606,48772,1668678457,67153184,,-9.231987851160479e-135,-4.172734597681253e-175,5e-324,0.0,-5e-324,0.0
1668678457.0757647,48773,1668678457,75610042,,-4.8844398982463454e-135,-2.2077012754241476e-175,5e-324,0.0,-5e-324,0.0
1668678457.0830793,48774,1668678457,82863910,,-4.8844398982463454e-135,-2.2077012754241476e-175,5e-324,0.0,-5e-324,0.0
1668678457.0914872,48775,1668678457,91199147,,-2.5842487559796564e-135,-1.168045752111292e-175,5e-324,0.0,-5e-324,0.0
1668678457.0993989,48776,1668678457,99180740,,-1.3672686678323382e-135,-6.1798708648348084e-176,5e-324,0.0,-5e-324,0.0
1668678457.1074595,48777,1668678457,107295994,,-7.233915100898797e-136,-3.269632532544434e-176,5e-324,0.0,-5e-324,0.0
1668678457.115219,48778,1668678457,114959464,,-3.827303946778409e-136,-1.729890014159494e-176,5e-324,0.0,-5e-324,0.0
1668678457.1230319,48779,1668678457,122763705,,-3.827303946778409e-136,-1.729890014159494e-176,5e-324,0.0,-5e-324,0.0
1668678457.131164,48780,1668678457,130933109,,-2.024941583735974e-136,-9.152464172357467e-177,5e-324,0.0,-5e-324,0.0
1668678457.1398244,48781,1668678457,139600761,,-1.071351654993226e-136,-4.842365684559861e-177,5e-324,0.0,-5e-324,0.0
1668678457.1475618,48782,1668678457,147300025,,-5.66828385507827e-137,-2.561988223217823e-177,5e-324,0.0,-5e-324,0.0
1668678457.1552851,48783,1668678457,155068293,,-2.9989631986842004e-137,-1.355491113947835e-177,5e-324,0.0,-5e-324,0.0
1668678457.1629083,48784,1668678457,162647171,,-2.9989631986842004e-137,-1.355491113947835e-177,5e-324,0.0,-5e-324,0.0
1668678457.1714184,48785,1668678457,171173384,,-1.5866848762354335e-137,-7.171602676939116e-178,5e-324,0.0,-5e-324,0.0
1668678457.1792092,48786,1668678457,178970131,,-8.394797567302061e-138,-3.794335826081971e-178,5e-324,0.0,-5e-324,0.0
1668678457.187143,48787,1668678457,186960692,,-4.4415010977594906e-138,-2.0074988826951961e-178,5e-324,0.0,-5e-324,0.0
1668678457.1954103,48788,1668678457,195190965,,-2.3498996662213316e-138,-1.0621231089563019e-178,5e-324,0.0,-5e-324,0.0
1668678457.2031043,48789,1668678457,202914157,,-2.3498996662213316e-138,-1.0621231089563019e-178,5e-324,0.0,-5e-324,0.0
1668678457.2113175,48790,1668678457,211081099,,-1.2432797650534649e-138,-5.619457665971132e-179,5e-324,0.0,-5e-324,0.0
1668678457.2192552,48791,1668678457,219071483,,-6.5779173315811216e-139,-2.97313034556533e-179,5e-324,0.0,-5e-324,0.0
1668678457.2276795,48792,1668678457,227079568,,-3.4802300847592896e-139,-1.5730172869259995e-179,5e-324,0.0,-5e-324,0.0
1668678457.235473,48793,1668678457,235190567,,-1.8413125055118795e-139,-8.32248538534067e-180,5e-324,0.0,-5e-324,0.0
1668678457.2475915,48794,1668678457,246665000,,-1.8413125055118795e-139,-8.32248538534067e-180,5e-324,0.0,-5e-324,0.0
1668678457.2576256,48795,1668678457,256469198,,-9.741975847521976e-140,-4.4032423270163e-180,5e-324,0.0,-5e-324,0.0
1668678457.2657998,48796,1668678457,264795892,,-5.154263229604141e-140,-2.3296577996495067e-180,5e-324,0.0,-5e-324,0.0
1668678457.2729669,48797,1668678457,272133805,,-2.727006292753938e-140,-1.232570242652396e-180,5e-324,0.0,-5e-324,0.0
1668678457.2779489,48798,1668678457,277475654,,-1.4427985125025758e-140,-6.521255625185603e-181,5e-324,0.0,-5e-324,0.0
1668678457.2841778,48799,1668678457,283824784,,-1.4427985125025758e-140,-6.521255625185603e-181,5e-324,0.0,-5e-324,0.0
1668678457.292126,48800,1668678457,291865238,,-7.633526747668115e-141,-3.450251633326839e-181,5e-324,0.0,-5e-324,0.0
1668678457.2999175,48801,1668678457,299632447,,-4.0387296010093796e-141,-1.825451572132738e-181,5e-324,0.0,-5e-324,0.0
1668678457.3075204,48802,1668678457,307243335,,-2.1368022054880678e-141,-9.658059168828807e-182,5e-324,0.0,-5e-324,0.0
1668678457.315498,48803,1668678457,315251174,,-1.1305346275812899e-141,-5.109864777164051e-182,5e-324,0.0,-5e-324,0.0
1668678457.3232863,48804,1668678457,322982295,,-1.1305346275812899e-141,-5.109864777164051e-182,5e-324,0.0,-5e-324,0.0
1668678457.3317387,48805,1668678457,331498708,,-5.981407829314892e-142,-2.7035160568464558e-182,5e-324,0.0,-5e-324,0.0
1668678457.3393211,48806,1668678457,339075683,,-3.1646301446893955e-142,-1.430370349972953e-182,5e-324,0.0,-5e-324,0.0
1668678457.347224,48807,1668678457,346996811,,-1.6743355809302714e-142,-7.567772097748435e-183,5e-324,0.0,-5e-324,0.0
1668678457.3552344,48808,1668678457,355019497,,-8.858537994632735e-143,-4.003940274946463e-183,5e-324,0.0,-5e-324,0.0
1668678457.3632696,48809,1668678457,363069070,,-8.858537994632735e-143,-4.003940274946463e-183,5e-324,0.0,-5e-324,0.0
1668678457.371184,48810,1668678457,370998562,,-4.686855866656747e-143,-2.118395945103588e-183,5e-324,0.0,-5e-324,0.0
1668678457.3793213,48811,1668678457,379114768,,-2.4797114295975286e-143,-1.120796283678664e-183,5e-324,0.0,-5e-324,0.0
1668678457.3873773,48812,1668678457,387128656,,-1.3119602883079131e-143,-5.929884412833305e-184,5e-324,0.0,-5e-324,0.0
1668678457.3956585,48813,1668678457,395389064,,-6.941290738722569e-144,-3.1373702484228515e-184,5e-324,0.0,-5e-324,0.0
1668678457.40305,48814,1668678457,402804740,,-6.941290738722569e-144,-3.1373702484228515e-184,5e-324,0.0,-5e-324,0.0
1668678457.4114408,48815,1668678457,411226494,,-3.672482890592466e-144,-1.6599129747599625e-184,5e-324,0.0,-5e-324,0.0
1668678457.419792,48816,1668678457,419557008,,-1.9430291986554193e-144,-8.782231186011776e-185,5e-324,0.0,-5e-324,0.0
1668678457.4276242,48817,1668678457,427453860,,-1.0280136298248234e-144,-4.646483627595664e-185,5e-324,0.0,-5e-324,0.0
1668678457.43518,48818,1668678457,434993416,,-5.438991981370765e-145,-2.45835137384023e-185,5e-324,0.0,-5e-324,0.0
1668678457.4427302,48819,1668678457,442523406,,-5.438991981370765e-145,-2.45835137384023e-185,5e-324,0.0,-5e-324,0.0
1668678457.4517558,48820,1668678457,451574098,,-2.8776499566894315e-145,-1.300659156823365e-185,5e-324,0.0,-5e-324,0.0
1668678457.459514,48821,1668678457,459283924,,-1.522500732046988e-145,-6.881498959954666e-186,5e-324,0.0,-5e-324,0.0
1668678457.4679127,48822,1668678457,467561603,,-8.05521350397443e-146,-3.640848387329515e-186,5e-324,0.0,-5e-324,0.0
1668678457.4756465,48823,1668678457,475418111,,-4.261834705811456e-146,-1.9262920850034186e-186,5e-324,0.0,-5e-324,0.0
1668678457.4831383,48824,1668678457,482928701,,-4.261834705811456e-146,-1.9262920850034186e-186,5e-324,0.0,-5e-324,0.0
1668678457.4918134,48825,1668678457,491580282,,-2.254842165350094e-146,-1.0191583944170948e-186,5e-324,0.0,-5e-324,0.0
1668678457.4993126,48826,1668678457,499066356,,-1.192986950833102e-146,-5.392140895958606e-187,5e-324,0.0,-5e-324,0.0
1668678457.5073164,48827,1668678457,507099568,,-6.311829212387862e-147,-2.852862087104602e-187,5e-324,0.0,-5e-324,0.0
1668678457.515281,48828,1668678457,515060375,,-3.339448765850436e-147,-1.5093860203354196e-187,5e-324,0.0,-5e-324,0.0
1668678457.5231826,48829,1668678457,522978944,,-3.339448765850436e-147,-1.5093860203354196e-187,5e-324,0.0,-5e-324,0.0
1668678457.5313706,48830,1668678457,531078373,,-1.7668282338585424e-147,-7.985826474690232e-188,5e-324,0.0,-5e-324,0.0
1668678457.5391943,48831,1668678457,538971743,,-9.347896095554312e-148,-4.225123568435563e-188,5e-324,0.0,-5e-324,0.0
1668678457.5473409,48832,1668678457,547160078,,-4.945764378150396e-148,-2.2354191172482403e-188,5e-324,0.0,-5e-324,0.0
1668678457.5559857,48833,1668678457,555666551,,-2.61669417740045e-148,-1.1827106471134947e-188,5e-324,0.0,-5e-324,0.0
1668678457.5631316,48834,1668678457,562857429,,-2.61669417740045e-148,-1.1827106471134947e-188,5e-324,0.0,-5e-324,0.0
1668678457.5713413,48835,1668678457,571154259,,-1.3844348202859746e-148,-6.257459569897227e-189,5e-324,0.0,-5e-324,0.0
1668678457.5796342,48836,1668678457,579336464,,-7.324737404064395e-149,-3.3106829945651904e-189,5e-324,0.0,-5e-324,0.0
1668678457.58779,48837,1668678457,587498534,,-3.875356011879091e-149,-1.7516089026338136e-189,5e-324,0.0,-5e-324,0.0
1668678457.5957177,48838,1668678457,595466359,,-2.0503648650221813e-149,-9.267373991477512e-190,5e-324,0.0,-5e-324,0.0
1668678457.6030574,48839,1668678457,602803065,,-2.0503648650221813e-149,-9.267373991477512e-190,5e-324,0.0,-5e-324,0.0
1668678457.6118646,48840,1668678457,611581790,,-1.0848025489351067e-149,-4.903161919808336e-190,5e-324,0.0,-5e-324,0.0
1668678457.6193523,48841,1668678457,619173073,,-5.739449549938389e-150,-2.594154162114016e-190,5e-324,0.0,-5e-324,0.0
1668678457.6273127,48842,1668678457,627064695,,-3.036615388544643e-150,-1.3725093983999068e-190,5e-324,0.0,-5e-324,0.0
1668678457.6357605,48843,1668678457,635498049,,-1.6066058143232773e-150,-7.261642643322907e-191,5e-324,0.0,-5e-324,0.0
1668678457.6433914,48844,1668678457,643100381,,-1.6066058143232773e-150,-7.261642643322907e-191,5e-324,0.0,-5e-324,0.0
1668678457.6515906,48845,1668678457,651390758,,-8.500194829923597e-151,-3.8419739741528075e-191,5e-324,0.0,-5e-324,0.0
1668678457.6591475,48846,1668678457,658938562,,-4.497264450464712e-151,-2.032703169666448e-191,5e-324,0.0,-5e-324,0.0
1668678457.667104,48847,1668678457,666856447,,-2.379402818652271e-151,-1.0754581378660029e-191,5e-324,0.0,-5e-324,0.0
1668678457.6753218,48848,1668678457,675063498,,-1.2588892282786151e-151,-5.6900103446584476e-192,5e-324,0.0,-5e-324,0.0
1668678457.683235,48849,1668678457,683024802,,-1.2588892282786151e-151,-5.6900103446584476e-192,5e-324,0.0,-5e-324,0.0
1668678457.6912472,48850,1668678457,691030824,,-6.6605035374951045e-152,-3.0104582021726326e-192,5e-324,0.0,-5e-324,0.0
1668678457.6993291,48851,1668678457,699130730,,-3.523924613577408e-152,-1.5927666274871233e-192,5e-324,0.0,-5e-324,0.0
1668678457.7074306,48852,1668678457,707240584,,-1.8644303110522611e-152,-8.426974763528796e-193,5e-324,0.0,-5e-324,0.0
1668678457.7156947,48853,1668678457,715404476,,-9.864287026394624e-153,-4.458525338215333e-193,5e-324,0.0,-5e-324,0.0
1668678457.7233117,48854,1668678457,723047347,,-9.864287026394624e-153,-4.458525338215333e-193,5e-324,0.0,-5e-324,0.0
1668678457.7316983,48855,1668678457,731483115,,-5.218975360048724e-153,-2.3589068140491313e-193,5e-324,0.0,-5e-324,0.0
1668678457.7396984,48856,1668678457,739467657,,-2.7612440448978937e-153,-1.2480452470849407e-193,5e-324,0.0,-5e-324,0.0
1668678457.7476368,48857,1668678457,747408432,,-1.4609129473669138e-153,-6.603130439466646e-194,5e-324,0.0,-5e-324,0.0
1668678457.7557714,48858,1668678457,755423053,,-7.729366202628441e-154,-3.493569780618981e-194,5e-324,0.0,-5e-324,0.0
1668678457.7628713,48859,1668678457,762656682,,-7.729366202628441e-154,-3.493569780618981e-194,5e-324,0.0,-5e-324,0.0
1668678457.7713635,48860,1668678457,771126937,,-4.0894361297853635e-154,-1.8483702425602834e-194,5e-324,0.0,-5e-324,0.0
1668678457.7794178,48861,1668678457,779190763,,-2.1636299045977302e-154,-9.77931676801097e-195,5e-324,0.0,-5e-324,0.0
1668678457.7872822,48862,1668678457,787068435,,-1.1447285678270963e-154,-5.1740194819751576e-195,5e-324,0.0,-5e-324,0.0
1668678457.7952714,48863,1668678457,795034541,,-6.056504817274237e-155,-2.7374588874579798e-195,5e-324,0.0,-5e-324,0.0
1668678457.802954,48864,1668678457,802751195,,-6.056504817274237e-155,-2.7374588874579798e-195,5e-324,0.0,-5e-324,0.0
1668678457.8114147,48865,1668678457,811225649,,-3.204362294486434e-155,-1.448328748399301e-195,5e-324,0.0,-5e-324,0.0
1668678457.8196254,48866,1668678457,819437221,,-1.6953569796626539e-155,-7.662785998542544e-196,5e-324,0.0,-5e-324,0.0
1668678457.8278413,48867,1668678457,827624432,,-8.969757550313244e-156,-4.054210021333579e-196,5e-324,0.0,-5e-324,0.0
1668678457.8352597,48868,1668678457,835010008,,-4.745699665412702e-156,-2.1449925523442584e-196,5e-324,0.0,-5e-324,0.0
1668678457.8437886,48869,1668678457,843487475,,-4.745699665412702e-156,-2.1449925523442584e-196,5e-324,0.0,-5e-324,0.0
1668678457.8519406,48870,1668678457,851647596,,-2.5108443776734774e-156,-1.1348679583449157e-196,5e-324,0.0,-5e-324,0.0
1668678457.8597145,48871,1668678457,859436053,,-1.3284320402408494e-156,-6.004334520744075e-197,5e-324,0.0,-5e-324,0.0
1668678457.8671637,48872,1668678457,866945858,,-7.028439122832646e-157,-3.176760148341578e-197,5e-324,0.0,-5e-324,0.0
1668678457.8756952,48873,1668678457,875249635,,-3.7185911666515e-157,-1.6807532966768478e-197,5e-324,0.0,-5e-324,0.0
1668678457.8828404,48874,1668678457,882638232,,-3.7185911666515e-157,-1.6807532966768478e-197,5e-324,0.0,-5e-324,0.0
1668678457.8915937,48875,1668678457,891322081,,-1.9674240642957364e-157,-8.892492704445573e-198,5e-324,0.0,-5e-324,0.0
1668678457.8993962,48876,1668678457,899168276,,-1.0409204118707882e-157,-4.70482055010489e-198,5e-324,0.0,-5e-324,0.0
1668678457.9078376,48877,1668678457,907616780,,-5.507278900937449e-158,-2.489216144942496e-198,5e-324,0.0,-5e-324,0.0
1668678457.9157622,48878,1668678457,915549925,,-2.9137790504271277e-158,-1.3169890222708371e-198,5e-324,0.0,-5e-324,0.0
1668678457.9230494,48879,1668678457,922851281,,-2.9137790504271277e-158,-1.3169890222708371e-198,5e-324,0.0,-5e-324,0.0
1668678457.9317563,48880,1668678457,931479512,,-1.5416158337764277e-158,-6.967896654157221e-199,5e-324,0.0,-5e-324,0.0
1668678457.939801,48881,1668678457,939600679,,-8.156347265252698e-159,-3.6865594900175887e-199,5e-324,0.0,-5e-324,0.0
1668678457.9477558,48882,1668678457,947470095,,-4.315342334570434e-159,-1.9504768150271258e-199,5e-324,0.0,-5e-324,0.0
1668678457.9557333,48883,1668678457,955429221,,-0.052792286236601836,-1.0319539983715846e-199,5e-324,0.0,-5e-324,0.0
1668678457.963158,48884,1668678457,962957868,,-0.052792286236601836,-1.0319539983715846e-199,5e-324,0.0,-5e-324,0.0
1668678457.9717255,48885,1668678457,971448541,,-0.1187842850796666,-5.459839596915641e-200,5e-324,0.0,-5e-324,0.0
1668678457.9792473,48886,1668678457,979056686,,-0.15370889460761933,-2.888679967429523e-200,5e-324,0.0,-5e-324,0.0
1668678457.9873784,48887,1668678457,987199275,,-0.14045281894708367,-1.528336465954525e-200,5e-324,0.0,-5e-324,0.0
1668678457.9951718,48888,1668678457,994953247,,-0.1334327537035696,-8.086089077028764e-201,5e-324,0.0,-5e-324,0.0
1668678458.0029764,48889,1668678458,2757389,,-0.1334327537035696,-8.086089077028764e-201,5e-324,0.0,-5e-324,0.0
1668678458.0114894,48890,1668678458,11232000,,-0.1195801049675802,-4.278170286332053e-201,5e-324,0.0,-5e-324,0.0
1668678458.019213,48891,1668678458,18985645,,-0.06326717984867306,-2.263484958488712e-201,5e-324,0.0,-5e-324,0.0
1668678458.0277028,48892,1668678458,27183913,,-0.03347326084961657,-1.1975596608841936e-201,5e-324,0.0,-5e-324,0.0
1668678458.0354507,48893,1668678458,35249346,,-0.017709959485889326,-6.336022406504615e-202,5e-324,0.0,-5e-324,0.0
1668678458.0427926,48894,1668678458,42587706,,-0.017709959485889326,-6.336022406504615e-202,5e-324,0.0,-5e-324,0.0
1668678458.0511894,48895,1668678458,51006038,,-0.009369946549304713,-3.3522488479687236e-202,5e-324,0.0,-5e-324,0.0
1668678458.0592031,48896,1668678458,58980016,,-0.0049574307838919675,-1.773600473251333e-202,5e-324,0.0,-5e-324,0.0
1668678458.0673838,48897,1668678458,67188826,,-0.002622866613780563,-9.383726511304333e-203,5e-324,0.0,-5e-324,0.0
1668678458.0753374,48898,1668678458,75122483,,-0.0013877005193976368,-4.964721455984739e-203,5e-324,0.0,-5e-324,0.0
1668678458.0828352,48899,1668678458,82655048,,-0.0013877005193976368,-4.964721455984739e-203,5e-324,0.0,-5e-324,0.0
1668678458.0912962,48900,1668678458,91109986,,-0.0007342015493348996,-2.6267239465922054e-203,5e-324,0.0,-5e-324,0.0
1668678458.0992785,48901,1668678458,99048478,,-0.0003884497465488842,-1.3897413485873798e-203,5e-324,0.0,-5e-324,0.0
1668678458.1073875,48902,1668678458,107172686,,-0.00020552014052624092,-7.352813067696576e-204,5e-324,0.0,-5e-324,0.0
1668678458.1152563,48903,1668678458,114996352,,-0.00010873614550450051,-3.890210222459268e-204,5e-324,0.0,-5e-324,0.0
1668678458.1230173,48904,1668678458,122791049,,-0.00010873614550450051,-3.890210222459268e-204,5e-324,0.0,-5e-324,0.0
1668678458.1315882,48905,1668678458,131344502,,-5.752988154300269e-05,-2.0582238981994882e-204,5e-324,0.0,-5e-324,0.0
1668678458.1390889,48906,1668678458,138926751,,-3.0437783636674302e-05,-1.0889605889836595e-204,5e-324,0.0,-5e-324,0.0
1668678458.1471374,48907,1668678458,146926010,,-1.6103955855019178e-05,-5.761448817094168e-205,5e-324,0.0,-5e-324,0.0
1668678458.1558669,48908,1668678458,155434763,,-8.52024566821391e-06,-3.0482547125949183e-205,5e-324,0.0,-5e-324,0.0
1668678458.1633132,48909,1668678458,163028464,,-8.52024566821391e-06,-3.0482547125949183e-205,5e-324,0.0,-5e-324,0.0
1668678458.1713252,48910,1668678458,171073235,,-4.5078729040412815e-06,-1.6127639223815147e-205,5e-324,0.0,-5e-324,0.0
1668678458.179693,48911,1668678458,179491323,,0.0710010938794215,-8.532776013068878e-206,0.03385964666428781,0.0,-5e-324,0.0
1668678458.1877022,48912,1668678458,187381254,,0.10858070431981683,-4.5145024314339866e-206,0.05171849878509202,0.0,-5e-324,0.0
1668678458.1957796,48913,1668678458,195562051,,0.19259417142112467,-0.057938681761612584,0.2365719421713715,0.0,-5e-324,0.0
1668678458.2029042,48914,1668678458,202726454,,0.19259417142112467,-0.057938681761612584,0.2365719421713715,0.0,-5e-324,0.0
1668678458.2112563,48915,1668678458,211030825,,0.27699694927269075,-0.07126942037332215,0.3384856319271172,0.0,-5e-324,0.0
1668678458.2192044,48916,1668678458,219017264,,0.32159550162258466,-0.07836334798117861,0.39242919637954343,0.0,-5e-324,0.0
1668678458.2272043,48917,1668678458,227005691,,0.22784812103494217,-0.04146030839840384,0.45340215667267847,0.0,-5e-324,0.0
1668678458.235404,48918,1668678458,235214889,,0.17830591334256948,-0.021935729097531883,0.4856623423016353,0.0,-5e-324,0.0
1668678458.2429304,48919,1668678458,242728519,,0.17830591334256948,-0.021935729097531883,0.4856623423016353,0.0,-5e-324,0.0
1668678458.2513642,48920,1668678458,251171450,,0.0943377018324634,-0.011605707473676957,0.49704637838875615,0.0,-5e-324,0.0
1668678458.2594216,48921,1668678458,259161888,,0.049911984522534855,-0.00614032227356948,0.3742343152574631,0.0,-5e-324,0.0
1668678458.2671413,48922,1668678458,266902855,,0.02640732337747587,-0.0032487082505576977,0.30930058140954,0.0,-5e-324,0.0
1668678458.2753263,48923,1668678458,275071566,,0.013971528774772262,-0.0017188194409063753,0.16364407370809564,0.0,-5e-324,0.0
1668678458.2829647,48924,1668678458,282720097,,0.013971528774772262,-0.0017188194409063753,0.16364407370809564,0.0,-5e-324,0.0
1668678458.2911704,48925,1668678458,290970421,,0.007392025822306106,-0.0009093892226027193,0.08658044785348297,0.0,-5e-324,0.0
1668678458.2992952,48926,1668678458,299066142,,0.003910956820724219,-0.0004811376567569464,0.04580779358915972,0.0,-5e-324,0.0
1668678458.3073263,48927,1668678458,307146226,,0.0020692004629385198,-0.00025455925691203913,0.02423588703373344,0.0,-5e-324,0.0
1668678458.3151526,48928,1668678458,314935479,,0.0010947680457980952,-0.00013468165372128502,0.012822669993232113,0.0,-5e-324,0.0
1668678458.3229482,48929,1668678458,322731278,,0.0010947680457980952,-0.00013468165372128502,0.012822669993232113,0.0,-5e-324,0.0
1668678458.331072,48930,1668678458,330901353,,0.0005792174782324079,-7.125707416473157e-05,0.006784190136159703,0.0,-5e-324,0.0
1668678458.3390563,48931,1668678458,338855708,,0.00030645111389356706,-3.7700536622647646e-05,0.0035893644481109644,0.0,-5e-324,0.0
1668678458.347261,48932,1668678458,347038141,,0.00016213648368001459,-1.9946517286827903e-05,0.0018990530752806783,0.0,-5e-324,0.0
1668678458.3553953,48933,1668678458,355198444,,8.578281542565956e-05,-1.0553259648689402e-05,0.001004746838853604,0.0,-5e-324,0.0
1668678458.3629498,48934,1668678458,362770848,,8.578281542565956e-05,-1.0553259648689402e-05,0.001004746838853604,0.0,-5e-324,0.0
1668678458.371258,48935,1668678458,371058088,,4.538578397244364e-05,-5.58349548500892e-06,0.0005315892553646002,0.0,-5e-324,0.0
1668678458.3792522,48936,1668678458,379044180,,2.401261111065339e-05,-2.954103553681315e-06,0.0002812520781269801,0.0,-5e-324,0.0
1668678458.3877206,48937,1668678458,387484897,,1.2704539657209965e-05,-1.5629506335776384e-06,0.0001488042330661685,0.0,-5e-324,0.0
1668678458.3958983,48938,1668678458,395686100,,6.721689996887174e-06,-8.269224956439252e-07,7.87290174916097e-05,0.0,-5e-324,0.0
1668678458.4030223,48939,1668678458,402798290,,6.721689996887174e-06,-8.269224956439252e-07,7.87290174916097e-05,0.0,-5e-324,0.0
1668678458.411692,48940,1668678458,411448549,,3.5562970114082267e-06,-4.3750634160257386e-07,4.165377602153305e-05,0.0,-5e-324,0.0
1668678458.4200146,48941,1668678458,419718261,,1.8815578283449618e-06,-2.3147489631832487e-07,2.2038088523547855e-05,0.0,-5e-324,0.0
1668678458.4273422,48942,1668678458,427107489,,9.954904919497522e-07,-1.224682308131006e-07,1.165986357444903e-05,0.0,-5e-324,0.0
1668678458.4352462,48943,1668678458,435027410,,5.266919276321445e-07,-6.479522314102239e-08,6.168975064670294e-06,0.0,-5e-324,0.0
1668678458.4430666,48944,1668678458,442815723,,5.266919276321445e-07,-6.479522314102239e-08,6.168975064670294e-06,0.0,-5e-324,0.0
1668678458.4519498,48945,1668678458,451642689,,2.786610107039237e-07,-3.428171464567097e-08,3.26386780647407e-06,0.0,-5e-324,0.0
1668678458.4596093,48946,1668678458,459281481,,1.4743335679290388e-07,-1.813769444839152e-08,1.726840025524922e-06,0.0,-5e-324,0.0
1668678458.4673784,48947,1668678458,467154415,,7.80037172775446e-08,-9.596251625784855e-09,9.136327359337258e-07,0.0,-5e-324,0.0
1668678458.4751363,48948,1668678458,474919831,,4.127003577393938e-08,-5.077163777755943e-09,4.833828054894703e-07,0.0,-5e-324,0.0
1668678458.4830315,48949,1668678458,482798888,,4.127003577393938e-08,-5.077163777755943e-09,4.833828054894703e-07,0.0,-5e-324,0.0
1668678458.4911816,48950,1668678458,490967261,,2.1835060074406874e-08,-2.6862146837514495e-09,0.03466675841454435,0.0,-5e-324,0.0
1668678458.4992487,48951,1668678458,499088951,,1.1552445727561522e-08,-1.4212165774158247e-09,0.10366105160329563,0.0,-5e-324,0.0
1668678458.507646,48952,1668678458,507350156,,6.112142665670213e-09,-7.519341518529368e-10,0.14016038927717625,0.0,-5e-324,0.0
1668678458.5159662,48953,1668678458,515716965,,3.23379904537251e-09,-3.9783167302401025e-10,0.08863481742788229,0.0,-5e-324,0.0
1668678458.5229523,48954,1668678458,522714763,,3.23379904537251e-09,-3.9783167302401025e-10,0.08863481742788229,0.0,-5e-324,0.0
1668678458.5313234,48955,1668678458,531085057,,1.7109313113039823e-09,-2.1048390962302965e-10,0.04689471494095483,0.0,-5e-324,0.0
1668678458.5393138,48956,1668678458,539110505,,9.052157882813533e-10,-1.1136236557897661e-10,0.024810953000300603,0.0,-5e-324,0.0
1668678458.5479884,48957,1668678458,547784715,,4.789295852732487e-10,-5.891935630403523e-11,0.018460090635709844,0.0,-5e-324,0.0
1668678458.5552995,48958,1668678458,555096492,,2.5339101529094585e-10,-3.117292389788473e-11,0.015100748559956266,0.0,-5e-324,0.0
1668678458.5631342,48959,1668678458,562895426,,2.5339101529094585e-10,-3.117292389788473e-11,0.015100748559956266,0.0,-5e-324,0.0
1668678458.5715315,48960,1668678458,571279797,,1.3406356300486984e-10,-1.649290225318976e-11,0.008725440904627475,0.0,-5e-324,0.0
1668678458.579873,48961,1668678458,579684336,,7.093005608317998e-11,-8.726028576091632e-12,0.09941235917213835,0.0,-5e-324,0.0
1668678458.587382,48962,1668678458,587166438,,3.752751861279641e-11,-4.616748073920188e-12,0.1474029813454139,0.0,-5e-324,0.0
1668678458.5951092,48963,1668678458,594915073,,1.9854977297384967e-11,-2.4426189522739814e-12,0.07798764630236146,0.0,-5e-324,0.0
1668678458.6030388,48964,1668678458,602727083,,1.9854977297384967e-11,-2.4426189522739814e-12,0.07798764630236146,0.0,-5e-324,0.0
1668678458.6116467,48965,1668678458,611374651,,-0.2097459652079589,-1.29233548170235e-12,0.04126153297761276,0.0,-5e-324,0.0
1668678458.6191447,48966,1668678458,618915640,,-0.32074485511617157,-6.837460242057073e-13,0.02183056143356224,0.0,-5e-324,0.0
1668678458.6271784,48967,1668678458,626991054,,-0.5965631394401838,-3.6175484789853354e-13,0.01155006559652326,0.0,-5e-324,0.0
1668678458.6353178,48968,1668678458,635036386,,-0.7424530608026662,-1.9139646205638408e-13,0.006110883391157099,0.0,-5e-324,0.0
1668678458.643282,48969,1668678458,642924518,,-0.7424530608026662,-1.9139646205638408e-13,0.006110883391157099,0.0,-5e-324,0.0
1668678458.6511695,48970,1668678458,650955372,,-0.7689480400676715,-1.0126362065499046e-13,0.0032331327911731037,0.0,-5e-324,0.0
1668678458.6592557,48971,1668678458,659062328,,-0.6463586684771967,-5.357633447339772e-14,0.0017105788109924114,0.0,-5e-324,0.0
1668678458.6670952,48972,1668678458,666891011,,-0.5815247299855331,-2.8346049618204378e-14,0.0009050292881890937,0.0,-5e-324,0.0
1668678458.6754844,48973,1668678458,675243647,,-0.5088385610623316,-1.4997265805048046e-14,0.00047883091221319427,0.0,-5e-324,0.0
1668678458.6829531,48974,1668678458,682720450,,-0.5088385610623316,-1.4997265805048046e-14,0.00047883091221319427,0.0,-5e-324,0.0
1668678458.6911466,48975,1668678458,690926441,,-0.2692151906489666,-7.934720522143474e-15,0.0002533388095645972,0.0,-5e-324,0.0
1668678458.6992843,48976,1668678458,699019388,,-0.14243578302093576,-4.1980845430726895e-15,0.00013403594211359426,0.0,-5e-324,0.0
1668678458.7080142,48977,1668678458,707808125,,-0.0753596118996154,-2.221113368971556e-15,7.091544248256149e-05,0.0,-5e-324,0.0
1668678458.715224,48978,1668678458,715046137,,-0.039871098295755664,-1.1751417931696365e-15,3.751978688101028e-05,0.0,-5e-324,0.0
1668678458.7228262,48979,1668678458,722675061,,-0.039871098295755664,-1.1751417931696365e-15,3.751978688101028e-05,0.0,-5e-324,0.0
1668678458.7314,48980,1668678458,731149872,,-0.021094913299545843,-6.217414443340076e-16,1.9850886609677448e-05,0.0,-5e-324,0.0
1668678458.7393813,48981,1668678458,739199643,,-0.29324959787931104,-3.289496006774529e-16,1.050266357961948e-05,0.0,-5e-324,0.0
1668678458.7471356,48982,1668678458,746934246,,-0.4372213672448356,-1.7403993375697353e-16,5.556726227678442e-06,0.0,-5e-324,0.0
1668678458.7553906,48983,1668678458,755092854,,-0.5184118605063641,0.08343316525846381,2.939940533683951e-06,0.0,-5e-324,0.0
1668678458.7630978,48984,1668678458,762803785,,-0.5184118605063641,0.08343316525846381,2.939940533683951e-06,0.0,-5e-324,0.0
1668678458.7717028,48985,1668678458,771455322,,-0.8666367221754937,0.3333708066378827,1.5554572939989809e-06,0.0,-5e-324,0.0
1668678458.7792382,48986,1668678458,779012927,,-1.0509729618354529,0.4654967090042943,8.229579359630432e-07,0.0,-5e-324,0.0
1668678458.7871842,48987,1668678458,786961937,,-1.1152934689173692,0.5672973720636252,4.3540878105586614e-07,0.0,-5e-324,0.0
1668678458.795104,48988,1668678458,794908502,,-1.149394422073251,0.6210568599901041,2.3036512358156388e-07,0.0,-5e-324,0.0
1668678458.8033853,48989,1668678458,803139718,,-1.149394422073251,0.6210568599901041,2.3036512358156388e-07,0.0,-5e-324,0.0
1668678458.8113017,48990,1668678458,811135291,,-0.8654877376296192,0.5018719485548576,1.2188107468585982e-07,0.0,-5e-324,0.0
1668678458.8197086,48991,1668678458,819467874,,-0.45791035530767965,0.2655293105724617,6.448457186411087e-08,0.0,-5e-324,0.0
1668678458.8275998,48992,1668678458,827409396,,-0.2422702071692871,0.14048566566852083,3.411735594894705e-08,0.0,-5e-324,0.0
1668678458.8353937,48993,1668678458,835187354,,-0.1281797902176966,0.07432784808493482,1.8050735909359086e-08,0.0,-5e-324,0.0
1668678458.8429573,48994,1668678458,842731389,,-0.1281797902176966,0.07432784808493482,1.8050735909359086e-08,0.0,-5e-324,0.0
1668678458.8512206,48995,1668678458,851020302,,-0.06781708247259702,0.0393252149580345,9.550243792543411e-09,0.0,-5e-324,0.0
1668678458.8591652,48996,1668678458,858932270,,-0.035880513357713875,0.020806098539654455,5.052822054181412e-09,0.0,-5e-324,0.0
1668678458.8673556,48997,1668678458,867117367,,-0.018983583366820458,0.011008045013962908,2.6733360179931778e-09,0.0,-5e-324,0.0
1668678458.8752909,48998,1668678458,875080059,,-0.010043792680785204,0.0058241123293000675,1.4144027611630255e-09,0.0,-5e-324,0.0
1668678458.8828707,48999,1668678458,882629310,,-0.010043792680785204,0.0058241123293000675,1.4144027611630255e-09,0.0,-5e-324,0.0
1668678458.8915265,49000,1668678458,891296880,,-0.005313947818245357,0.0030814085862911744,7.483291128839667e-10,0.0,-5e-324,0.0
1668678458.8999085,49001,1668678458,899612905,,-0.034918890123689636,0.0016303049012123152,3.959243269075878e-10,0.0,-5e-324,0.0
1668678458.9077263,49002,1668678458,907472667,,-0.05060950857743299,0.0008625581439415585,2.0947477512014488e-10,0.0,-5e-324,0.0
1668678458.9149902,49003,1668678458,914767615,,-0.08415015434505001,0.0004563603723000855,1.1082845490794298e-10,0.0,-5e-324,0.0
1668678458.9234104,49004,1668678458,923099228,,-0.08415015434505001,0.0004563603723000855,1.1082845490794298e-10,0.0,-5e-324,0.0
1668678458.9313033,49005,1668678458,931092264,,-0.0445219792262707,0.00024145014555677696,5.8636876016394e-11,0.0,-5e-324,0.0
1668678458.9391222,49006,1668678458,938930101,,-0.023555591188776943,0.00012774591381710523,3.102346984642068e-11,0.0,-5e-324,0.0
1668678458.9473069,49007,1668678458,947089450,,-0.012462740558608883,6.758752809751304e-05,0.011514101385642456,0.0,-5e-324,0.0
1668678458.955134,49008,1668678458,954890934,,-0.006593759459758199,3.575906123206618e-05,0.01762382258648442,0.0,-5e-324,0.0
1668678458.963545,49009,1668678458,963290441,,-0.006593759459758199,3.575906123206618e-05,0.01762382258648442,0.0,-5e-324,0.0
1668678458.9712944,49010,1668678458,971117015,,-0.0034886118032135143,1.8919325742373318e-05,0.05010233120321418,0.0,-5e-324,0.0
1668678458.9791493,49011,1668678458,978969494,,-0.001845747086741158,1.000979539767822e-05,0.08672934054586655,0.0,-5e-324,0.0
1668678458.987555,49012,1668678458,987222988,,-0.0009765438232695695,5.295960610212056e-06,0.10610099909453741,0.0,-5e-324,0.0
1668678458.9958475,49013,1668678458,995597838,,-0.0005166676656928584,2.8019752323232527e-06,0.09654967355039246,0.0,-5e-324,0.0
1668678459.003265,49014,1668678459,3053581,,-0.0005166676656928584,2.8019752323232527e-06,0.09654967355039246,0.0,-5e-324,0.0
1668678459.011058,49015,1668678459,10865682,,-0.02084438053275121,1.482462914738065e-06,0.0784128646893996,0.0,-5e-324,0.0
1668678459.0191798,49016,1668678459,19022531,,-0.031559753024568794,7.84338229767814e-07,0.06879166647600252,0.0,-5e-324,0.0
1668678459.0273066,49017,1668678459,27160739,,-0.01669756495970989,4.1497595154615044e-07,0.15429174594490236,0.0,-5e-324,0.0
1668678459.0353718,49018,1668678459,35128627,,-0.008834311072291445,2.1955456692785521e-07,0.19953244192692468,0.0,-5e-324,0.0
1668678459.043067,49019,1668678459,42846616,,-0.008834311072291445,2.1955456692785521e-07,0.19953244192692468,0.0,-5e-324,0.0
1668678459.0515587,49020,1668678459,51231255,,-0.004674037939683344,1.1616144906536145e-07,0.2667311219573341,0.0,-5e-324,0.0
1668678459.059854,49021,1668678459,59537890,,-0.002472929748887905,6.14584448767056e-08,0.3500042110777734,0.0,-5e-324,0.0
1668678459.0673964,49022,1668678459,67172855,,-0.0013083722515416936,3.2516299314910826e-08,0.3940668799825383,0.0,-5e-324,0.0
1668678459.0752506,49023,1668678459,75053563,,-0.0006922307232440013,1.7203652374510682e-08,0.3839835617410938,0.0,-5e-324,0.0
1668678459.083117,49024,1668678459,82920375,,-0.0006922307232440013,1.7203652374510682e-08,0.3839835617410938,0.0,-5e-324,0.0
1668678459.091653,49025,1668678459,91392480,,-0.0003662439138695255,9.102070692506133e-09,0.31268155392374053,0.0,-5e-324,0.0
1668678459.099357,49026,1668678459,99167365,,-0.0001937715272414858,4.815703612689132e-09,0.2749598267593234,0.0,-5e-324,0.0
1668678459.107295,49027,1668678459,107043859,,-0.00010252021493761708,2.547881912668581e-09,0.19382504615994356,0.0,-5e-324,0.0
1668678459.1157646,49028,1668678459,115559812,,-5.424117062233158e-05,1.3480277780796983e-09,0.15090345422918267,0.0,-5e-324,0.0
1668678459.123574,49029,1668678459,123355559,,-5.424117062233158e-05,1.3480277780796983e-09,0.15090345422918267,0.0,-5e-324,0.0
1668678459.1311405,49030,1668678459,130854160,,-2.8697799670739467e-05,7.132115823104318e-10,0.09069914368285714,0.0,-5e-324,0.0
1668678459.1392806,49031,1668678459,139035976,,-1.5183368951901374e-05,3.773444207999668e-10,0.047986904151486466,0.0,-5e-324,0.0
1668678459.147108,49032,1668678459,146907211,,-8.03318356719236e-06,1.9964455911890447e-10,0.025388806074022347,0.0,-5e-324,0.0
1668678459.155493,49033,1668678459,155304956,,-4.250179155142521e-06,1.0562750577120829e-10,0.01343265387217831,0.0,-5e-324,0.0
1668678459.1631186,49034,1668678459,162859169,,-4.250179155142521e-06,1.0562750577120829e-10,0.01343265387217831,0.0,-5e-324,0.0
1668678459.1715293,49035,1668678459,171274237,,-2.24867547214802e-06,5.588516924621844e-11,0.0071069190699112085,0.0,-5e-324,0.0
1668678459.1793246,49036,1668678459,179083579,,-1.1897242903094894e-06,2.95676028594607e-11,0.003760113165044794,0.0,-5e-324,0.0
1668678459.1880715,49037,1668678459,187742071,,-6.294567199598315e-07,1.5643562516614293e-11,0.001989392432200557,0.0,-5e-324,0.0
1668678459.1963365,49038,1668678459,195881636,,-3.330315817957453e-07,8.276661769789588e-12,0.00105254338781309,0.0,-5e-324,0.0
1668678459.203218,49039,1668678459,202988036,,-3.330315817957453e-07,8.276661769789588e-12,0.00105254338781309,0.0,-5e-324,0.0
1668678459.2152097,49040,1668678459,214771795,,-1.7619961938042994e-07,4.3789980689336306e-12,0.027652039119857502,0.0,-5e-324,0.0
1668678459.221585,49041,1668678459,221201370,,-9.322330843940706e-08,2.3168307007200506e-12,0.11177600943280111,0.0,-5e-324,0.0
1668678459.2282126,49042,1668678459,227866317,,-4.932238370858856e-08,1.2257837092643657e-12,0.15628466454710827,0.0,-5e-324,0.0
1668678459.2355514,49043,1668678459,235304971,,-2.609537867108029e-08,6.485349583078855e-13,0.16029980421446632,0.0,-5e-324,0.0
1668678459.242995,49044,1668678459,242753966,,-2.609537867108029e-08,6.485349583078855e-13,0.16029980421446632,0.0,-5e-324,0.0
1668678459.251195,49045,1668678459,250998157,,-1.3806485753211767e-08,3.4312545432654317e-13,0.147135190126728,0.0,-5e-324,0.0
1668678459.2592454,49046,1668678459,259051262,,-7.3047052221889944e-09,1.815400633359584e-13,0.14016722937477427,0.0,-5e-324,0.0
1668678459.267168,49047,1668678459,266969193,,-3.8647574289976334e-09,9.604881882257472e-14,0.0741593705085665,0.0,-5e-324,0.0
1668678459.2751439,49048,1668678459,274941626,,-2.0447573900205158e-09,5.081729854935263e-14,0.03923607721118729,0.0,-5e-324,0.0
1668678459.2831302,49049,1668678459,282909873,,-2.0447573900205158e-09,5.081729854935263e-14,0.03923607721118729,0.0,-5e-324,0.0
1668678459.2912107,49050,1668678459,291027985,,-1.0818357583513093e-09,2.6886304938578655e-14,0.02075893773591861,0.0,-5e-324,0.0
1668678459.2991347,49051,1668678459,298913093,,-5.72375291934174e-10,1.422494728932118e-14,0.010983093279286201,0.0,-5e-324,0.0
1668678459.307421,49052,1668678459,307162877,,-3.0283106496313795e-10,7.526103934558112e-15,0.005810910920204837,0.0,-5e-324,0.0
1668678459.3154948,49053,1668678459,315240240,,-1.602211961260812e-10,3.981894574491185e-15,0.003074424013701024,0.0,-5e-324,0.0
1668678459.3229148,49054,1668678459,322699701,,-1.602211961260812e-10,3.981894574491185e-15,0.003074424013701024,0.0,-5e-324,0.0
1668678459.3314297,49055,1668678459,331168394,,-8.4769479284422e-11,2.1067320542249827e-15,0.0016266095188546316,0.0,-5e-324,0.0
1668678459.3391848,49056,1668678459,338979921,,-4.484965030779919e-11,1.1146251778567375e-15,0.0008606029991430439,0.0,-5e-324,0.0
1668678459.3476858,49057,1668678459,347413665,,-2.3728954686424757e-11,5.897234461404773e-16,0.0004553259485752414,0.0,-5e-324,0.0
1668678459.35566,49058,1668678459,355235150,,-1.2554463337978016e-11,3.120095883680996e-16,0.00024090285491961628,0.0,-5e-324,0.0
1668678459.3630638,49059,1668678459,362700103,,-1.2554463337978016e-11,3.120095883680996e-16,0.00024090285491961628,0.0,-5e-324,0.0
1668678459.3713284,49060,1668678459,371046386,,-6.6422879468350454e-12,1.6507734917231242e-16,0.012224540577890445,0.0,-5e-324,0.0
1668678459.3797436,49061,1668678459,379364136,,-3.5142871487946815e-12,8.733876209473471e-17,0.13728102233547423,0.0,-5e-324,0.0
1668678459.3872566,49062,1668678459,387055299,,-1.8593313423077586e-12,4.62090008258994e-17,0.2034246316644962,0.0,-5e-324,0.0
1668678459.3955798,49063,1668678459,395368892,,-9.837309514316952e-13,2.4448156879208826e-17,0.30577976360581266,0.0,-5e-324,0.0
1668678459.4031463,49064,1668678459,402979317,,-9.837309514316952e-13,2.4448156879208826e-17,0.30577976360581266,0.0,-5e-324,0.0
1668678459.41163,49065,1668678459,411440852,,-5.204702157086152e-13,-0.08346712655429454,0.4040498887194949,0.0,-5e-324,0.0
1668678459.4193244,49066,1668678459,419001277,,-2.7536924099574956e-13,-0.12764078079766514,0.456031077809695,0.0,-5e-324,0.0
1668678459.4272292,49067,1668678459,427036621,,-1.45691754490381e-13,-0.19819688386259104,0.5600015231195569,0.0,-5e-324,0.0
1668678459.4351282,49068,1668678459,434895857,,-7.708227414845176e-14,-0.23548801929401936,0.615039396427262,0.0,-5e-324,0.0
1668678459.4430268,49069,1668678459,442800281,,-7.708227414845176e-14,-0.23548801929401936,0.615039396427262,0.0,-5e-324,0.0
1668678459.451439,49070,1668678459,451244853,,-4.0782520662755575e-14,-0.33599519081976426,0.6872949158766504,0.0,-5e-324,0.0
1668678459.4591622,49071,1668678459,458939359,,-2.1577126647884347e-14,-0.5707954330018936,0.9217265948878237,0.0,-5e-324,0.0
1668678459.46727,49072,1668678459,466980422,,-1.1415978875577998e-14,-0.695040266164061,1.0457415526117837,0.0,-5e-324,0.0
1668678459.475712,49073,1668678459,475495446,,-6.039941082721572e-15,-0.788589936841769,1.2199429976933769,0.0,-5e-324,0.0
1668678459.4830697,49074,1668678459,482846993,,-6.039941082721572e-15,-0.788589936841769,1.2199429976933769,0.0,-5e-324,0.0
1668678459.4913778,49075,1668678459,491144105,,-3.195598790112582e-15,-0.8392331346296701,1.3689940149677737,0.0,-5e-324,0.0
1668678459.499475,49076,1668678459,499227578,,-1.6907204039757914e-15,-0.8660795177659424,1.4478037428744313,0.0,-5e-324,0.0
1668678459.5080507,49077,1668678459,507768078,,-8.945226457290517e-16,-0.9619521674869,1.4769138453203576,0.0,-5e-324,0.0
1668678459.5157688,49078,1668678459,515497427,,-4.732720808481826e-16,-1.0125402401812718,1.4924359735650392,0.0,-5e-324,0.0
1668678459.5233636,49079,1668678459,522950893,,-4.732720808481826e-16,-1.0125402401812718,1.4924359735650392,0.0,-5e-324,0.0
1668678459.5317397,49080,1668678459,531528108,,-2.5039775524946685e-16,-1.0843107654590134,1.520282849331569,0.0,-5e-324,0.0
1668678459.5397816,49081,1668678459,539613687,,-1.3247989554254873e-16,-1.1441721056784746,1.5641427277996023,0.0,-5e-324,0.0
1668678459.54763,49082,1668678459,547429590,,-7.00921727731902e-17,-1.1758912912471051,1.5873249195063195,0.0,-5e-324,0.0
1668678459.5558362,49083,1668678459,555567166,,-3.7084213147562904e-17,-1.1732741538881728,1.5428283317622133,0.0,-5e-324,0.0
1668678459.563316,49084,1668678459,563083139,,-3.7084213147562904e-17,-1.1732741538881728,1.5428283317622133,0.0,-5e-324,0.0
1668678459.571697,49085,1668678459,571497741,,-1.9620434213446116e-17,-1.1404825134995573,1.4715788312877258,0.0,-5e-324,0.0
1668678459.5793693,49086,1668678459,579185875,,-1.0380736330911359e-17,-1.1231049194798204,1.433906184732181,0.0,-5e-324,0.0
1668678459.5877929,49087,1668678459,587586807,,-5.492217226163834e-18,-1.0757432433847285,1.357677022844916,0.0,-5e-324,0.0
1668678459.595312,49088,1668678459,595092578,,-2.905810252549062e-18,-1.0506837467195937,1.3173466545203294,0.0,-5e-324,0.0
1668678459.6028643,49089,1668678459,602666879,,-2.905810252549062e-18,-1.0506837467195937,1.3173466545203294,0.0,-5e-324,0.0
1668678459.6111207,49090,1668678459,610894096,,-1.537399719660572e-18,-1.0303274308034502,1.3102219258903904,0.0,-5e-324,0.0
1668678459.6192603,49091,1668678459,619069595,,-8.134040741094462e-19,-1.010933272785096,1.2070766191768305,0.0,-5e-324,0.0
1668678459.6271482,49092,1668678459,626970878,,-4.3035404476587233e-19,-1.0007113409528468,1.1524684109389214,0.0,-5e-324,0.0
1668678459.635432,49093,1668678459,635178106,,-2.276907747838826e-19,-0.9929574871872735,1.1610481681015712,0.0,-5e-324,0.0
1668678459.642919,49094,1668678459,642692596,,-2.276907747838826e-19,-0.9929574871872735,1.1610481681015712,0.0,-5e-324,0.0
1668678459.651179,49095,1668678459,650992933,,-1.2046613608543913e-19,-1.0283156222754521,1.2978730391975135,0.0,-5e-324,0.0
1668678459.661515,49096,1668678459,661247911,,-6.373595925056688e-20,-1.0470129417197145,1.3702737701665038,0.0,-5e-324,0.0
1668678459.668012,49097,1668678459,667590503,,-3.372128162813161e-20,-1.021622547130627,1.4637537059398014,0.0,-5e-324,0.0
1668678459.6751366,49098,1668678459,674949465,,-1.7841181775790924e-20,-0.9805079295563549,1.5027095883308728,0.0,-5e-324,0.0
1668678459.6828382,49099,1668678459,682651074,,-1.7841181775790924e-20,-0.9805079295563549,1.5027095883308728,0.0,-5e-324,0.0
1668678459.6912405,49100,1668678459,690999698,,-9.439373350841724e-21,-0.958757196815691,1.5233073077341146,0.0,-5e-324,0.0
1668678459.6993883,49101,1668678459,699176268,,-4.994162963884208e-21,-0.923463683500567,1.58929146353811,0.0,-5e-324,0.0
1668678459.7072465,49102,1668678459,707046935,,-2.6423007950637537e-21,-0.9048597221878698,1.6241987476668718,0.0,-5e-324,0.0
1668678459.7154875,49103,1668678459,715237706,,-1.3979827134364253e-21,-0.9118852548885017,1.652138499771092,0.0,-5e-324,0.0
1668678459.7230608,49104,1668678459,722730848,,-1.3979827134364253e-21,-0.9118852548885017,1.652138499771092,0.0,-5e-324,0.0
1668678459.731526,49105,1668678459,731301046,,-7.396416300211254e-22,-0.9286163796635596,1.6810727657283924,0.0,-5e-324,0.0
1668678459.7392406,49106,1668678459,739026203,,-3.913279725151522e-22,-0.9374422976670849,1.6963682357539027,0.0,-5e-324,0.0
1668678459.7472363,49107,1668678459,747030518,,0.05080713835248711,-0.984862026106812,1.723718829785601,0.0,-5e-324,0.0
1668678459.755192,49108,1668678459,755002959,,0.208728609437314,-1.1351838205591713,1.9141009333626475,0.0,-5e-324,0.0
1668678459.7633033,49109,1668678459,763082957,,0.208728609437314,-1.1351838205591713,1.9141009333626475,0.0,-5e-324,0.0
1668678459.7712824,49110,1668678459,771064254,,0.292202923937331,-1.2146212912480787,2.014932202133967,0.0,-5e-324,0.0
1668678459.782926,49111,1668678459,779053017,,0.49641725128780206,-1.3807639327455585,2.276740025720641,0.0,-5e-324,0.0
1668678459.787195,49112,1668678459,786971045,,0.6044821172617452,-1.468644565500953,2.4152629027130867,0.0,-5e-324,0.0
1668678459.7953694,49113,1668678459,795210858,,0.714556526562018,-1.536986216012496,2.568841507149598,0.0,-5e-324,0.0
1668678459.803094,49114,1668678459,802909433,,0.714556526562018,-1.536986216012496,2.568841507149598,0.0,-5e-324,0.0
1668678459.8116524,49115,1668678459,811438794,,0.7914080492107975,-1.615703965611919,2.7450912369304583,0.0,-5e-324,0.0
1668678459.8196473,49116,1668678459,819397788,,0.8320141650719266,-1.6574740302667568,2.838283081415727,0.0,-5e-324,0.0
1668678459.8279357,49117,1668678459,827584499,,0.9695933583369112,-1.7569039533289414,2.949669344340902,0.0,-5e-324,0.0
1668678459.8354464,49118,1668678459,835138016,,1.2224449320615502,-1.9399608676107332,3.174828773998194,0.0,-5e-324,0.0
1668678459.8432755,49119,1668678459,843011598,,1.2224449320615502,-1.9399608676107332,3.174828773998194,0.0,-5e-324,0.0
1668678459.8517795,49120,1668678459,851500990,,1.3560768445130473,-2.0368382862620393,3.2940198931067424,0.0,-5e-324,0.0
1668678459.8595216,49121,1668678459,859323533,,1.4365393004466007,-2.1387733428360542,3.3627945055716975,0.0,-5e-324,0.0
1668678459.8675346,49122,1668678459,867300694,,1.4790405398262259,-2.1928773912182695,3.399094889311871,0.0,-5e-324,0.0
1668678459.8757815,49123,1668678459,875498720,,1.4591707570266141,-2.224049639299248,3.456341125524359,0.0,-5e-324,0.0
1668678459.8832448,49124,1668678459,883008409,,1.4591707570266141,-2.224049639299248,3.456341125524359,0.0,-5e-324,0.0
1668678459.8914423,49125,1668678459,891213923,,1.536596175626941,-2.3241845095259235,3.5019029934788293,0.0,-5e-324,0.0
1668678459.8992934,49126,1668678459,899097008,,1.5775967081577649,-2.3770705303886652,3.526058038631569,0.0,-5e-324,0.0
1668678459.9072556,49127,1668678459,907050077,,1.6405195472582759,-2.444849035924454,3.54423511266725,0.0,-5e-324,0.0
1668678459.9151528,49128,1668678459,914941928,,1.6797066270370715,-2.5136144197617107,3.5356026990374083,0.0,-5e-324,0.0
1668678459.9232254,49129,1668678459,922998952,,1.6797066270370715,-2.5136144197617107,3.5356026990374083,0.0,-5e-324,0.0
1668678459.9312687,49130,1668678459,931017837,,1.7004426780429291,-2.550058117920397,3.530984889230199,0.0,-5e-324,0.0
1668678459.9391522,49131,1668678459,938958630,,1.589830030259232,-2.5582753369102544,3.5667089095765663,0.0,-5e-324,0.0
1668678459.947183,49132,1668678459,946983831,,1.5311205861551307,-2.562727410479722,3.5856286875107286,0.0,-5e-324,0.0
1668678459.95536,49133,1668678459,955162525,,1.434328582948234,-2.5497346082540724,3.5439757314795814,0.0,-5e-324,0.0
1668678459.9628675,49134,1668678459,962641525,,1.434328582948234,-2.5497346082540724,3.5439757314795814,0.0,-5e-324,0.0
1668678459.973732,49135,1668678459,973373430,,1.167268257245263,-2.44700384100414,3.403680484839549,0.0,-5e-324,0.0
1668678459.9801693,49136,1668678459,979921046,,1.025926236506753,-2.392684372218943,3.3294477842548065,0.0,-5e-324,0.0
1668678459.9874048,49137,1668678459,987145621,,0.9168462231892662,-2.361468551941976,3.2527313844475305,0.0,-5e-324,0.0
1668678459.9953017,49138,1668678459,995102100,,0.8256564181741206,-2.3468692187768996,3.1843007864003328,0.0,-5e-324,0.0
1668678460.002924,49139,1668678460,2745154,,0.8256564181741206,-2.3468692187768996,3.1843007864003328,0.0,-5e-324,0.0
1668678460.0113287,49140,1668678460,11103377,,0.777533506053581,-2.3391224355923947,3.148062145886232,0.0,-5e-324,0.0
1668678460.0195997,49141,1668678460,19300252,,0.6606456426828431,-2.2094933126888785,3.079835573617145,0.0,-5e-324,0.0
1668678460.0276244,49142,1668678460,27421609,,0.5989931792487846,-2.140742029269581,3.0437938001680136,0.0,-5e-324,0.0
1668678460.0352669,49143,1668678460,35011569,,0.5279596149992863,-2.0313372849652414,2.966905974492371,0.0,-5e-324,0.0
1668678460.0428674,49144,1668678460,42648063,,0.5279596149992863,-2.0313372849652414,2.966905974492371,0.0,-5e-324,0.0
1668678460.0512521,49145,1668678460,51073678,,0.5018334433395073,-1.9472390860137638,2.6853285077729963,0.0,-5e-324,0.0
1668678460.0592494,49146,1668678460,59061734,,0.4882082651369392,-1.9027204524815053,2.5362861834843184,0.0,-5e-324,0.0
1668678460.0671585,49147,1668678460,66964087,,0.39122780691740966,-1.8401167035750996,2.3865432496216874,0.0,-5e-324,0.0
1668678460.0752165,49148,1668678460,75001834,,0.32891517768137907,-1.7222328047767825,2.324686099207101,0.0,-5e-324,0.0
1668678460.082986,49149,1668678460,82755456,,0.32891517768137907,-1.7222328047767825,2.324686099207101,0.0,-5e-324,0.0
1668678460.091232,49150,1668678460,91022497,,0.2959744365141281,-1.6602216219323438,2.29166287650797,0.0,-5e-324,0.0
1668678460.0992768,49151,1668678460,99069311,,0.3141143146115708,-1.5632104736476253,2.2540515674811945,0.0,-5e-324,0.0
1668678460.1074393,49152,1668678460,107085599,,0.32365151099301626,-1.5120654363146522,2.2340386405452763,0.0,-5e-324,0.0
1668678460.115788,49153,1668678460,115472434,,0.34094857735805384,-1.4491706931745105,2.217992037648564,0.0,-5e-324,0.0
1668678460.1232455,49154,1668678460,122964111,,0.34094857735805384,-1.4491706931745105,2.217992037648564,0.0,-5e-324,0.0
1668678460.1316257,49155,1668678460,131440316,,0.4407152647007865,-1.413145794594468,2.2134171614747196,0.0,-5e-324,0.0
1668678460.1397192,49156,1668678460,139530648,,0.493483408269906,-1.3940124729319798,2.211058775825274,0.0,-5e-324,0.0
1668678460.1473587,49157,1668678460,147151193,,0.5382534248707059,-1.370946618888035,2.2188293293675043,0.0,-5e-324,0.0
1668678460.1552534,49158,1668678460,154999771,,0.5844834984980192,-1.3021159605276171,2.212127151812461,0.0,-5e-324,0.0
1668678460.1628978,49159,1668678460,162695792,,0.5844834984980192,-1.3021159605276171,2.212127151812461,0.0,-5e-324,0.0
1668678460.171273,49160,1668678460,171065856,,0.6089472904458346,-1.265663716068242,2.208603512472664,0.0,-5e-324,0.0
1668678460.1794448,49161,1668678460,179161750,,0.6872774764824516,-1.262907198652859,2.197199728823514,0.0,-5e-324,0.0
1668678460.1870537,49162,1668678460,186887252,,0.7286471023209313,-1.2614446805818873,2.19120992498922,0.0,-5e-324,0.0
1668678460.1954777,49163,1668678460,195243702,,0.8030756145791632,-1.2840757027021656,2.2068713257601855,0.0,-5e-324,0.0
1668678460.2028983,49164,1668678460,202637434,,0.8030756145791632,-1.2840757027021656,2.2068713257601855,0.0,-5e-324,0.0
1668678460.2115626,49165,1668678460,211355192,,0.7410649148008324,-1.2603023214947906,2.3329031401365965,0.0,-5e-324,0.0
1668678460.2193975,49166,1668678460,219100811,,0.7083850986971935,-1.2474943422163902,2.3996697201972843,0.0,-5e-324,0.0
1668678460.227368,49167,1668678460,227139359,,0.7004892809042209,-1.2621476242240839,2.477688900763127,0.0,-5e-324,0.0
1668678460.2354777,49168,1668678460,235233974,,0.6750366166165213,-1.21288318023286,2.4427431411630316,0.0,-5e-324,0.0
1668678460.243373,49169,1668678460,243112073,,0.6750366166165213,-1.21288318023286,2.4427431411630316,0.0,-5e-324,0.0
1668678460.2513478,49170,1668678460,251130689,,0.6615427019038442,-1.1869494910568794,2.42418433355968,0.0,-5e-324,0.0
1668678460.2596195,49171,1668678460,259341486,,0.7151666711928517,-1.1905558776358895,2.4049249955065104,0.0,-5e-324,0.0
1668678460.267595,49172,1668678460,267280510,,0.7436805372980283,-1.1922373554838672,2.3948074194550566,0.0,-5e-324,0.0
1668678460.2756085,49173,1668678460,275389929,,0.7472581666492573,-1.3038464113496175,2.4765939939732124,0.0,-5e-324,0.0
1668678460.2829115,49174,1668678460,282712370,,0.7472581666492573,-1.3038464113496175,2.4765939939732124,0.0,-5e-324,0.0
1668678460.291387,49175,1668678460,291205058,,0.855242353869976,-1.4837335008844492,2.662945689328077,0.0,-5e-324,0.0
1668678460.2992842,49176,1668678460,299039021,,0.912207076235451,-1.5788537068445145,2.7616631233058637,0.0,-5e-324,0.0
1668678460.3071759,49177,1668678460,306963903,,1.0339362281168167,-1.6536400692654398,2.8890698554755376,0.0,-5e-324,0.0
1668678460.3153102,49178,1668678460,315067087,,1.1380964569200773,-1.6999827415901287,2.9516798670631603,0.0,-5e-324,0.0
1668678460.323015,49179,1668678460,322776850,,1.1380964569200773,-1.6999827415901287,2.9516798670631603,0.0,-5e-324,0.0
1668678460.331267,49180,1668678460,331025704,,1.1931046882040248,-1.724561497857552,2.9848208856517324,0.0,-5e-324,0.0
1668678460.3396163,49181,1668678460,339363600,,1.1090154962657899,-1.7040962573822647,2.8705189889977425,0.0,-5e-324,0.0
1668678460.3473399,49182,1668678460,347138073,,1.0644304983981085,-1.6935259007452004,2.8099112730292517,0.0,-5e-324,0.0
1668678460.3552883,49183,1668678460,355058630,,0.9949202918030894,-1.6725706742528945,2.7778852148269197,0.0,-5e-324,0.0
1668678460.3631508,49184,1668678460,362908606,,0.9949202918030894,-1.6725706742528945,2.7778852148269197,0.0,-5e-324,0.0
1668678460.3715801,49185,1668678460,371389691,,0.9301087063351875,-1.6675303705481603,2.732885630958469,0.0,-5e-324,0.0
1668678460.3794012,49186,1668678460,379154720,,0.8956455297313552,-1.6648895033604556,2.709145815801716,0.0,-5e-324,0.0
1668678460.3871973,49187,1668678460,386993622,,0.8553542310178195,-1.6490002339206358,2.6635039834758456,0.0,-5e-324,0.0
1668678460.3952107,49188,1668678460,395046982,,0.805366986320627,-1.5247437450878765,2.4722326047784717,0.0,-5e-324,0.0
1668678460.403103,49189,1668678460,402893232,,0.805366986320627,-1.5247437450878765,2.4722326047784717,0.0,-5e-324,0.0
1668678460.411388,49190,1668678460,411165932,,0.7790089248580108,-1.4590423252998668,2.370958082417645,0.0,-5e-324,0.0
1668678460.4194376,49191,1668678460,419148679,,0.7441286330729899,-1.397254502222602,2.1850490576500037,0.0,-5e-324,0.0
1668678460.4278665,49192,1668678460,427493309,,0.7256318805936042,-1.3646016251033726,2.086683507368927,0.0,-5e-324,0.0
1668678460.4358106,49193,1668678460,435522598,,0.7110014814108907,-1.3724089564002697,2.0210605585612256,0.0,-5e-324,0.0
1668678460.443029,49194,1668678460,442820601,,0.7110014814108907,-1.3724089564002697,2.0210605585612256,0.0,-5e-324,0.0
1668678460.451112,49195,1668678460,450898973,,0.8725179833039886,-1.459044589907982,2.0103813600028144,0.0,-5e-324,0.0
1668678460.4595747,49196,1668678460,459382022,,0.9578638513747024,-1.504859480145044,2.0048246878380573,0.0,-5e-324,0.0
1668678460.4676793,49197,1668678460,467460046,,1.0495611159058404,-1.5198655085745227,2.020184520083369,0.0,-5e-324,0.0
1668678460.4758542,49198,1668678460,475579149,,1.1578330378881228,-1.463606802845081,2.036013169054436,0.0,-5e-324,0.0
1668678460.4831114,49199,1668678460,482913586,,1.1578330378881228,-1.463606802845081,2.036013169054436,0.0,-5e-324,0.0
1668678460.4916804,49200,1668678460,491410540,,1.2150436298287892,-1.4339263151661918,2.044376135820378,0.0,-5e-324,0.0
1668678460.4994862,49201,1668678460,499290019,,1.2365754337278978,-1.4490565242271454,2.0305875272704657,0.0,-5e-324,0.0
1668678460.5075338,49202,1668678460,507178266,,1.2478750205851683,-1.4571201031133056,2.0233137041234226,0.0,-5e-324,0.0
1668678460.5153923,49203,1668678460,515089119,,1.304937586460225,-1.451378788558228,2.0376892609619404,0.0,-5e-324,0.0
1668678460.5230303,49204,1668678460,522739234,,1.304937586460225,-1.451378788558228,2.0376892609619404,0.0,-5e-324,0.0
1668678460.5316012,49205,1668678460,531370490,,1.359257402168205,-1.4484606200737864,2.049797341994454,0.0,-5e-324,0.0
1668678460.539126,49206,1668678460,538924057,,1.387862239172116,-1.4468617699264006,2.05635359476809,0.0,-5e-324,0.0
1668678460.5471787,49207,1668678460,546987883,,1.3590589817047312,-1.439329398257939,2.097565579437261,0.0,-5e-324,0.0
1668678460.5555646,49208,1668678460,555368502,,1.3016553910948883,-1.3905111937942285,2.1235645974945943,0.0,-5e-324,0.0
1668678460.563642,49209,1668678460,563416962,,1.3016553910948883,-1.3905111937942285,2.1235645974945943,0.0,-5e-324,0.0
1668678460.5716248,49210,1668678460,571349429,,1.2713831838400982,-1.364514602709185,2.13737444083944,0.0,-5e-324,0.0
1668678460.5796502,49211,1668678460,579368632,,1.274397632137628,-1.37641903830409,2.112126328362795,0.0,-5e-324,0.0
1668678460.5876238,49212,1668678460,587317148,,1.2760347196864388,-1.382615119100031,2.0988162017335465,0.0,-5e-324,0.0
1668678460.5957906,49213,1668678460,595450070,,1.3119434191478252,-1.4406076996332187,2.1443480364387906,0.0,-5e-324,0.0
1668678460.6030664,49214,1668678460,602840961,,1.3119434191478252,-1.4406076996332187,2.1443480364387906,0.0,-5e-324,0.0
1668678460.6111522,49215,1668678460,610963084,,1.353730537580395,-1.5371510387979828,2.245291303224822,0.0,-5e-324,0.0
1668678460.6190977,49216,1668678460,618905762,,1.3759015318224672,-1.588285369467672,2.298609938169823,0.0,-5e-324,0.0
1668678460.6275895,49217,1668678460,627347702,,1.3690643193350116,-1.6184156278901578,2.350674751537105,0.0,-5e-324,0.0
1668678460.635119,49218,1668678460,634904825,,1.318293498057386,-1.685729976254764,2.4078558510915373,0.0,-5e-324,0.0
1668678460.642957,49219,1668678460,642748066,,1.318293498057386,-1.685729976254764,2.4078558510915373,0.0,-5e-324,0.0
1668678460.651264,49220,1668678460,651033534,,1.2912211940283842,-1.7215687852216615,2.4380678510559437,0.0,-5e-324,0.0
1668678460.6600313,49221,1668678460,659760566,,1.2306755340796598,-1.7494248426335361,2.4497724190807375,0.0,-5e-324,0.0
1668678460.6671686,49222,1668678460,666987563,,1.1986450771225838,-1.764163417229256,2.455962786219212,0.0,-5e-324,0.0
1668678460.675302,49223,1668678460,675056773,,1.1438353200349507,-1.7744151788285043,2.4594810621877112,0.0,-5e-324,0.0
1668678460.682932,49224,1668678460,682681804,,1.1438353200349507,-1.7744151788285043,2.4594810621877112,0.0,-5e-324,0.0
1668678460.6914525,49225,1668678460,691256241,,1.1379360833554333,-1.8294873774704827,2.3962020549533376,0.0,-5e-324,0.0
1668678460.6993358,49226,1668678460,699135594,,1.1347173178477452,-1.8587196696896842,2.362702650198301,0.0,-5e-324,0.0
1668678460.707192,49227,1668678460,706991891,,1.1353165303163775,-1.8888187334248014,2.307637286776282,0.0,-5e-324,0.0
1668678460.7157195,49228,1668678460,715045254,,1.1507159979761101,-1.9525731820750651,2.387651041394203,0.0,-5e-324,0.0
1668678460.7233138,49229,1668678460,723038783,,1.1507159979761101,-1.9525731820750651,2.387651041394203,0.0,-5e-324,0.0
1668678460.7341197,49230,1668678460,733601784,,1.1587668914986269,-1.986353121193018,2.4300022740431984,0.0,-5e-324,0.0
1668678460.7405462,49231,1668678460,740187666,,1.2841653474579633,-2.009623390358006,2.4658728123293585,0.0,-5e-324,0.0
1668678460.748054,49232,1668678460,747743727,,1.3504851403486677,-2.021802135928278,2.484984103850396,0.0,-5e-324,0.0
1668678460.7556753,49233,1668678460,755447942,,1.461265588300749,-2.023886887479293,2.484881685902738,0.0,-5e-324,0.0
1668678460.763315,49234,1668678460,763096304,,1.461265588300749,-2.023886887479293,2.484881685902738,0.0,-5e-324,0.0
1668678460.771749,49235,1668678460,771521541,,1.5686372157335433,-2.0299103234736204,2.4941608082874933,0.0,-5e-324,0.0
1668678460.779405,49236,1668678460,779186533,,1.6255189736204971,-2.0332519460650524,2.4988794312127123,0.0,-5e-324,0.0
1668678460.7874002,49237,1668678460,787138887,,1.6874351195079682,-2.023397222683793,2.547948908239385,0.0,-5e-324,0.0
1668678460.7952125,49238,1668678460,794990595,,1.7107272977808532,-1.9666609678502025,2.6059048250645285,0.0,-5e-324,0.0
1668678460.8028615,49239,1668678460,802658690,,1.7107272977808532,-1.9666609678502025,2.6059048250645285,0.0,-5e-324,0.0
1668678460.8112392,49240,1668678460,811024635,,1.7229950507267406,-1.9364132327392176,2.6367912033759806,0.0,-5e-324,0.0
1668678460.8194501,49241,1668678460,819226872,,1.6936069242144716,-1.8614031259424195,2.590871655712548,0.0,-5e-324,0.0
1668678460.8273525,49242,1668678460,827051613,,1.6779969895123963,-1.8217993553218017,2.5665580763012796,0.0,-5e-324,0.0
1668678460.83522,49243,1668678460,835032618,,1.7389119986057469,-1.8119177426284048,2.553268592603862,0.0,-5e-324,0.0
