Time,header.seq,header.stamp.secs,header.stamp.nsecs,header.frame_id,twist.linear.x,twist.linear.y,twist.linear.z,twist.angular.x,twist.angular.y,twist.angular.z
1668680908.0717201,71788,1668680908,71589609,,-2.8181937505018644e-05,1.2006338768451122e-09,-2.864544095088278e-11,1.3329133024156515e-06,-8.808681383037668e-07,-9.904781347628232e-09
1668680908.0796244,71789,1668680908,79515084,,-2.6439884641628762e-05,1.1807005895641803e-09,-2.7852624684456797e-11,1.3504933226068071e-06,-8.840530223580338e-07,-9.957354270341578e-09
1668680908.0878525,71790,1668680908,87683869,,-2.4783322177581332e-05,1.1601154112233085e-09,-2.705874335330213e-11,1.3677609604692375e-06,-8.870994722319269e-07,-1.000823538522828e-08
1668680908.0955484,71791,1668680908,95421119,,-2.3208762955017698e-05,1.1389604570951344e-09,-2.626571739095485e-11,1.3847164851428498e-06,-8.900081967166757e-07,-1.0057431611063515e-08
1668680908.103971,71792,1668680908,103639818,,-2.1712833588790085e-05,1.1173133211861266e-09,-2.547525688134394e-11,1.4013602035452815e-06,-8.927799165956339e-07,-1.0104950019576282e-08
1668680908.1119058,71793,1668680908,111776076,,-2.029227213128599e-05,1.0952472558696505e-09,-2.468893447204308e-11,1.417692460046382e-06,-8.954153644523071e-07,-1.0150797841439619e-08
1668680908.1195092,71794,1668680908,119400306,,-1.8943925701894863e-05,1.0728313697107095e-09,-2.3908211555551298e-11,1.433713636132544e-06,-8.979152844925919e-07,-1.0194982467083753e-08
1668680908.1277514,71795,1668680908,127578208,,-1.7664748088520393e-05,1.0501306501032085e-09,-2.3134407806316632e-11,1.449424150058373e-06,-9.002804323495447e-07,-1.023751144220005e-08
1668680908.1357117,71796,1668680908,135473990,,-1.6451797328347073e-05,1.0272062076993207e-09,-2.23688033099187e-11,1.4648244565021753e-06,-9.025115749031361e-07,-1.0278392459579008e-08
1668680908.144062,71797,1668680908,143912743,,-1.5302233274095665e-05,1.0041152318246867e-09,-2.1612476057928755e-11,1.4799150462316052e-06,-9.046094900911843e-07,-1.0317633364592248e-08
1668680908.15237,71798,1668680908,152120358,,-1.421331515173961e-05,9.809113641583322e-10,-2.086645368777667e-11,1.4946964457447094e-06,-9.065749667210831e-07,-1.035524215470802e-08
1668680908.159795,71799,1668680908,159662623,,-1.3182399114947606e-05,9.57644635577668e-10,-2.0131682131374186e-11,1.5091692169191148e-06,-9.08408804288304e-07,-1.03912269610191e-08
1668680908.1677513,71800,1668680908,167595396,,-1.2206935802019955e-05,9.343617675454084e-10,-1.9408969510272766e-11,1.5233339566676638e-06,-9.101118127839783e-07,-1.042559607643544e-08
1668680908.1753924,71801,1668680908,175290036,,-1.1284467898948416e-05,9.111062062117067e-10,-1.8699061234356725e-11,1.5371912965842673e-06,-9.116848125126879e-07,-1.0458357918069125e-08
1668680908.1835945,71802,1668680908,183489243,,-1.0412627713896039e-05,8.879182664112049e-10,-1.8002565489115095e-11,1.550741902577099e-06,-9.131286339006836e-07,-1.0489521051872873e-08
1668680908.1916497,71803,1668680908,191538536,,-9.58913476622476e-06,8.648352395678176e-10,-1.7320052446272767e-11,1.563986474528446e-06,-9.144441173166532e-07,-1.0519094172001223e-08
1668680908.2003272,71804,1668680908,200073996,,-8.811793394238253e-06,8.418916051569569e-10,-1.665201217056939e-11,1.5769257459269886e-06,-9.156321128837603e-07,-1.0547086114535864e-08
1668680908.2090588,71805,1668680908,208875050,,-8.078490384420158e-06,8.19119172938503e-10,-1.599888441722195e-11,1.5895604835153053e-06,-9.166934802929653e-07,-1.0573505844714066e-08
1668680908.2158072,71806,1668680908,215635439,,-7.387192625433869e-06,7.96547188731667e-10,-1.5361010834814275e-11,1.601891486919625e-06,-9.176290886154102e-07,-1.059836245375231e-08
1668680908.2234266,71807,1668680908,223222963,,-6.735944789604674e-06,7.742021874798474e-10,-1.473864581481783e-11,1.613919588281501e-06,-9.184398161168017e-07,-1.062166517168392e-08
1668680908.231621,71808,1668680908,231472135,,-6.122867043863714e-06,7.521086812752421e-10,-1.4132028132168602e-11,1.6256456519208985e-06,-9.19126550079896e-07,-1.0643423340165914e-08
1668680908.2396953,71809,1668680908,239559472,,-5.546152793039382e-06,7.302886717977093e-10,-1.3541306612836278e-11,1.6370705739397122e-06,-9.196901866095092e-07,-1.0663646437857809e-08
1668680908.2478106,71810,1668680908,247655246,,-5.004066456614122e-06,7.087622436885044e-10,-1.296666342271346e-11,1.648195281882244e-06,-9.201316304586944e-07,-1.0682344057422977e-08
1668680908.2555048,71811,1668680908,255363770,,-4.4949412812381764e-06,6.875474276259446e-10,-1.2408157224146593e-11,1.6590207343420888e-06,-9.204517948375581e-07,-1.0699525916008991e-08
1668680908.2639751,71812,1668680908,263822469,,-4.017177190345171e-06,6.666602674255496e-10,-1.186582186921941e-11,1.6695479206043297e-06,-9.206516012260178e-07,-1.0715201837077069e-08
1668680908.2721343,71813,1668680908,271823768,,-3.569238672113847e-06,6.46114992594389e-10,-1.1339616941515196e-11,1.6797778602854663e-06,-9.207319792005215e-07,-1.07293817753311e-08
1668680908.2798054,71814,1668680908,279583571,,-3.149652706821347e-06,6.259243699259926e-10,-1.0829519167602843e-11,1.689711602951493e-06,-9.206938662456524e-07,-1.0742075783315753e-08
1668680908.2880027,71815,1668680908,287845051,,-2.757006734974251e-06,6.060993710865942e-10,-1.0335438881480944e-11,1.6993502277476798e-06,-9.205382075718443e-07,-1.0753294029167737e-08
1668680908.295993,71816,1668680908,295778422,,-2.3899466663770447e-06,5.866494700796411e-10,-9.857221892474787e-12,1.708694843026535e-06,-9.202659559278763e-07,-1.0763046783799354e-08
1668680908.303949,71817,1668680908,303606390,,-2.0471749315442215e-06,5.675828357462392e-10,-9.394774431979955e-12,1.7177465859736548e-06,-9.198780714260897e-07,-1.0771344434074092e-08
1668680908.3117342,71818,1668680908,311549298,,-1.7274485751996032e-06,5.489062359704234e-10,-8.947924896927597e-12,1.7265066222348323e-06,-9.19375521364302e-07,-1.0778197461481303e-08
1668680908.3197465,71819,1668680908,319551231,,-1.4295773929991467e-06,5.306252241105493e-10,-8.516484886128007e-12,1.7349761455475294e-06,-9.187592800402261e-07,-1.0783616459935326e-08
1668680908.327795,71820,1668680908,327608360,,-1.1524221112599328e-06,5.127441469917898e-10,-8.100219824617006e-12,1.743156377349714e-06,-9.18030328564122e-07,-1.0787612108084077e-08
1668680908.3353307,71821,1668680908,335203956,,-8.948926101421533e-07,4.952663719358566e-10,-7.698890386004409e-12,1.7510485664169287e-06,-9.171896546923645e-07,-1.0790195202358578e-08
1668680908.3437805,71822,1668680908,343628821,,-6.559461900141929e-07,4.78194249857278e-10,-7.312270092848804e-12,1.758653988488489e-06,-9.162382526464567e-07,-1.0791376613232181e-08
1668680908.3539598,71823,1668680908,351640346,,-4.345858816798719e-07,4.6152908187772294e-10,-6.940038325533805e-12,1.7659739458706977e-06,-9.151771229225646e-07,-1.0791167318267022e-08
1668680908.36013,71824,1668680908,359952731,,-2.2985879958005275e-07,4.4527125337229856e-10,-6.581959082190808e-12,1.7730097670790872e-06,-9.140072721263406e-07,-1.0789578375709045e-08
1668680908.367796,71825,1668680908,367619492,,-4.0854538226357765e-08,4.294205767610914e-10,-6.2377443136649156e-12,1.7797628064599743e-06,-9.127297127923361e-07,-1.0786620943436653e-08
1668680908.3755944,71826,1668680908,375427966,,1.3329638835784435e-07,4.13975868167379e-10,-5.907051389409543e-12,1.786234443799182e-06,-9.113454632024309e-07,-1.0782306260236138e-08
1668680908.383425,71827,1668680908,383259077,,2.934240647861472e-07,3.9893543434190054e-10,-5.5896279167840806e-12,1.7924260839547506e-06,-9.098555472186842e-07,-1.077664564999752e-08
1668680908.391825,71828,1668680908,391603165,,4.40320649991021e-07,3.8429689134872963e-10,-5.2850856770569215e-12,1.7983391564661307e-06,-9.082609941029842e-07,-1.0769650517759885e-08
1668680908.3996637,71829,1668680908,399557056,,5.747418113759131e-07,3.7005718970651446e-10,-4.993175140372141e-12,1.803975115195385e-06,-9.065628383395908e-07,-1.0761332345169512e-08
1668680908.4077106,71830,1668680908,407563311,,6.974081173687781e-07,3.5621282943299317e-10,-4.713507628016298e-12,1.8093354379256299e-06,-9.047621194631422e-07,-1.0751702708229334e-08
1668680908.4154,71831,1668680908,415292230,,8.090063894464539e-07,3.427597843943316e-10,-4.445778769398374e-12,1.8144216259975553e-06,-9.028598818899978e-07,-1.0740773240808026e-08
1668680908.4242084,71832,1668680908,423704411,,9.101910137274568e-07,3.296937066976697e-10,-4.1896797972979595e-12,1.8192352039301612e-06,-9.008571747450572e-07,-1.0728555655742087e-08
1668680908.4319293,71833,1668680908,431585715,,1.0015852129210401e-06,3.1700967694183526e-10,-3.944874119351383e-12,1.8237777190303528e-06,-8.987550516857454e-07,-1.0715061749761229e-08
1668680908.4400477,71834,1668680908,439839640,,1.0837822793778645e-06,3.047024947731537e-10,-3.710982600162915e-12,1.828050741018923e-06,-8.965545707282199e-07,-1.0700303365786834e-08
1668680908.4479194,71835,1668680908,447767902,,1.15734676953448e-06,2.927666178658454e-10,-3.487648726729798e-12,1.8320558616578832e-06,-8.942567940890096e-07,-1.0684292430427778e-08
1668680908.4561677,71836,1668680908,456058026,,1.2228156609135636e-06,2.8119618807092254e-10,-3.2746259400822166e-12,1.8357946943653747e-06,-8.918627880076673e-07,-1.0667040938488827e-08
1668680908.4633322,71837,1668680908,463212580,,1.2806994719242158e-06,2.699852198614021e-10,-3.0715089298971603e-12,1.8392688738411147e-06,-8.893736225768659e-07,-1.0648560944900534e-08
1668680908.471667,71838,1668680908,471471931,,1.3314833454912337e-06,2.591273905793522e-10,-2.8779860393958096e-12,1.8424800556934774e-06,-8.867903715825706e-07,-1.0628864562379523e-08
1668680908.4796271,71839,1668680908,479512444,,1.375628096967209e-06,2.486161213267051e-10,-2.6937190051713714e-12,1.8454299160401051e-06,-8.841141123274025e-07,-1.0607963968289244e-08
1668680908.4878385,71840,1668680908,487680841,,1.4135712274396218e-06,2.384448431182861e-10,-2.518406839202004e-12,1.848120151161921e-06,-8.813459254763749e-07,-1.0585871392784472e-08
1668680908.4955416,71841,1668680908,495331135,,1.445727902771773e-06,2.286067490735849e-10,-2.3517727349212807e-12,1.8505524770996335e-06,-8.784868948818509e-07,-1.0562599126571195e-08
1668680908.5037076,71842,1668680908,503578538,,1.4724918995276431e-06,2.1909494977187327e-10,-2.193459624901993e-12,1.8527286292922889e-06,-8.755381074214016e-07,-1.053815950711077e-08
1668680908.5117521,71843,1668680908,511562435,,1.4942365181851687e-06,2.099024246246337e-10,-2.0432044245105463e-12,1.854650362192749e-06,-8.725006528396891e-07,-1.051256492144944e-08
1668680908.5197384,71844,1668680908,519544953,,1.5113154646260357e-06,2.0102200457657933e-10,-1.9006732485422263e-12,1.8563194488996237e-06,-8.69375623583766e-07,-1.0485827815825381e-08
1668680908.5275717,71845,1668680908,527415644,,1.5240637006980837e-06,1.9244663000268952e-10,-1.765607511089805e-12,1.8577376807762764e-06,-8.66164114638813e-07,-1.0457960679386612e-08
1668680908.5354626,71846,1668680908,535345013,,1.532798264480107e-06,1.8416906789107156e-10,-1.6376811625955767e-12,1.8589068670751093e-06,-8.628672233672882e-07,-1.0428976046018042e-08
1668680908.5437465,71847,1668680908,543565980,,1.537819061139824e-06,1.7618217183165832e-10,-1.5166191418689836e-12,1.859828834573091e-06,-8.594860493576383e-07,-1.0398886497882918e-08
1668680908.5519028,71848,1668680908,551725037,,1.5394096250300204e-06,1.6847868323511647e-10,-1.4021386723012008e-12,1.8605054271908303e-06,-8.560216942571134e-07,-1.0367704658140036e-08
1668680908.5599546,71849,1668680908,559740863,,1.5378378539652952e-06,1.6105145912259822e-10,-1.2939773792872927e-12,1.8609385056262105e-06,-8.524752616203581e-07,-1.0335443184958603e-08
1668680908.5677032,71850,1668680908,567494924,,1.5333567161905861e-06,1.5389327109323787e-10,-1.191898619236688e-12,1.8611299469794177e-06,-8.488478567473403e-07,-1.0302114777657956e-08
1668680908.5755973,71851,1668680908,575434430,,1.5262049310763468e-06,1.4699703102749345e-10,-1.0955868807886788e-12,1.861081644376785e-06,-8.451405865341993e-07,-1.0267732167547753e-08
1668680908.5851529,71852,1668680908,584963754,,1.5166076240373649e-06,1.4035572500933714e-10,-1.0048218749793365e-12,1.8607955066166013e-06,-8.413545593146376e-07,-1.0232308115925155e-08
1668680908.592179,71853,1668680908,591938368,,1.5047769565601791e-06,1.339622430492478e-10,-9.194025916252808e-13,1.8602734577899319e-06,-8.37490884707756e-07,-1.0195855426340294e-08
1668680908.6000366,71854,1668680908,599824853,,1.4909127320608744e-06,1.2780957833074972e-10,-8.390534629418082e-13,1.8595174369099322e-06,-8.335506734678823e-07,-1.0158386927052098e-08
1668680908.607824,71855,1668680908,607606403,,1.4752029780798694e-06,1.2189090102622654e-10,-7.635022881176145e-13,1.8585293975494039e-06,-8.295350373274401e-07,-1.0119915480796703e-08
1668680908.6157403,71856,1668680908,615485273,,1.457824505988139e-06,1.1619937984784182e-10,-6.925484974539345e-13,1.857311307480435e-06,-8.25445088853952e-07,-1.0080453971023586e-08
1668680908.6238973,71857,1668680908,623640661,,1.438943448337465e-06,1.1072831900893267e-10,-6.260267156506449e-13,1.8558651483091648e-06,-8.212819412983169e-07,-1.0040015304768705e-08
1668680908.6316977,71858,1668680908,631539765,,1.418715775010147e-06,1.0547106524253226e-10,-5.636671548507249e-13,1.8541929150974602e-06,-8.170467084426777e-07,-9.998612407895444e-09
1668680908.6396823,71859,1668680908,639519323,,1.397287788409876e-06,1.0042116863499771e-10,-5.053059443319397e-13,1.85229661601768e-06,-8.127405044618673e-07,-9.956258236354217e-09
1668680908.6478832,71860,1668680908,647746352,,1.3747965988195657e-06,9.557214735371417e-11,-4.507946109649757e-13,1.850178271988016e-06,-8.083644437728869e-07,-9.912965763417689e-09
1668680908.6557915,71861,1668680908,655662585,,1.3513705802842932e-06,9.091773657835258e-11,-3.999065308387717e-13,1.8478399163079927e-06,-8.039196408879218e-07,-9.868747969870436e-09
1668680908.6633863,71862,1668680908,663265306,,1.3271298075507673e-06,8.645176164452774e-11,-3.524322214912111e-13,1.8452835943035823e-06,-7.994072102787916e-07,-9.82361786106988e-09
1668680908.6719773,71863,1668680908,671783333,,1.302186474956015e-06,8.216810346354797e-11,-3.082464826986642e-13,1.8425113629591806e-06,-7.948282662236467e-07,-9.777588461141159e-09
1668680908.67992,71864,1668680908,679800774,,1.2766452978949086e-06,7.806083096612579e-11,-2.6713403911745294e-13,1.8395252905858698e-06,-7.901839226728526e-07,-9.730672793592763e-09
1668680908.6877575,71865,1668680908,687638807,,1.250603897144699e-06,7.412407657498963e-11,-2.289884412927212e-13,1.8363274564395012e-06,-7.854752931081215e-07,-9.682883895953911e-09
1668680908.6952376,71866,1668680908,695129442,,1.2241531668054515e-06,7.035216801694543e-11,-1.936220529406775e-13,1.8329199503886956e-06,-7.807034904077139e-07,-9.634234816681818e-09
1668680908.7036595,71867,1668680908,703518657,,1.1973776265751213e-06,6.673955796574355e-11,-1.6087526115329067e-13,1.8293048725502469e-06,-7.758696267004933e-07,-9.584738608258375e-09
1668680908.7117493,71868,1668680908,711636288,,1.1703557586406687e-06,6.328070456385417e-11,-1.3055611691385229e-13,1.825484332943291e-06,-7.709748132318585e-07,-9.534408325670783e-09
1668680908.7196949,71869,1668680908,719571703,,1.1431603299573932e-06,5.997031738136221e-11,-1.0259011228917648e-13,1.8214604511438226e-06,-7.660201602332138e-07,-9.483257031068757e-09
1668680908.7280703,71870,1668680908,727901890,,1.1158587001922929e-06,5.680328257101573e-11,-7.685684647572464e-14,1.817235355935421e-06,-7.610067767861196e-07,-9.431297791755358e-09
1668680908.7358296,71871,1668680908,735535710,,1.0885131162490768e-06,5.377437500598808e-11,-5.321427554604754e-14,1.8128111849563785e-06,-7.559357706828989e-07,-9.37854367068858e-09
1668680908.7441883,71872,1668680908,743887920,,1.0611809933258795e-06,5.087875995808096e-11,-3.152101594509668e-14,1.8081900843707964e-06,-7.508082483052212e-07,-9.325007736259498e-09
1668680908.7519248,71873,1668680908,751813532,,1.0339151835385961e-06,4.8111551254926744e-11,-1.1728725533085096e-14,1.8033742085157192e-06,-7.456253144879645e-07,-9.270703038552055e-09
1668680908.759799,71874,1668680908,759598560,,1.006764232098526e-06,4.546814391544825e-11,6.310086503076982e-15,1.7983657195621606e-06,-7.403880723887826e-07,-9.215642633504246e-09
1668680908.7677486,71875,1668680908,767584504,,9.797726219270634e-07,4.29439726724283e-11,2.2717748849675576e-14,1.7931667871688473e-06,-7.350976233629855e-07,-9.159839567946347e-09
1668680908.7755253,71876,1668680908,775373551,,9.5298100687622e-07,4.053453618326866e-11,3.75591846666584e-14,1.7877795881659153e-06,-7.297550668389303e-07,-9.103306872418072e-09
1668680908.7838833,71877,1668680908,783643973,,9.264264340901004e-07,3.82355835626469e-11,5.095255541944054e-14,1.7822063061956867e-06,-7.24361500185069e-07,-9.046057570834702e-09
1668680908.7916684,71878,1668680908,791523217,,9.001425558593423e-07,3.6042875356632696e-11,6.301022073728311e-14,1.7764491313894506e-06,-7.189180185938824e-07,-8.988104677184717e-09
1668680908.799633,71879,1668680908,799511436,,8.741598314771578e-07,3.3952292143486156e-11,7.378100060345195e-14,1.7705102600410195e-06,-7.134257149541346e-07,-8.929461199878459e-09
1668680908.8080764,71880,1668680908,807844334,,8.485057195238495e-07,3.1959934446895964e-11,8.336473628548196e-14,1.7643918942714387e-06,-7.078856797329954e-07,-8.870140124622612e-09
1668680908.8153412,71881,1668680908,815220062,,8.232048607672283e-07,3.006199565107507e-11,9.18500128119713e-14,1.7580962416958443e-06,-7.022990008503315e-07,-8.810154424623983e-09
1668680908.8238192,71882,1668680908,823623735,,7.982792521250955e-07,2.82547272079e-11,9.928081499592397e-14,1.751625515111326e-06,-6.96666763564772e-07,-8.74951705045094e-09
1668680908.8315053,71883,1668680908,831387216,,7.737484122474241e-07,2.6534598254494393e-11,1.0578326588657109e-13,1.744981932153869e-06,-6.909900503516207e-07,-8.688240938380503e-09
1668680908.8396819,71884,1668680908,839496833,,7.496295388787904e-07,2.4898059204816305e-11,1.1135714232578813e-13,1.7381677149980002e-06,-6.852699407917855e-07,-8.626338995834239e-09
1668680908.8478389,71885,1668680908,847713973,,7.259376581590343e-07,2.334170751035849e-11,1.1612549863769667e-13,1.731185090008389e-06,-6.795075114523635e-07,-8.563824117750993e-09
1668680908.8557212,71886,1668680908,855571627,,7.026857667671559e-07,2.1862275904461035e-11,1.2009209737369453e-13,1.7240362874462222e-06,-6.73703835773099e-07,-8.500709163828806e-09
1668680908.863742,71887,1668680908,863514592,,6.798849665057412e-07,2.04566489641051e-11,1.2334256681848546e-13,1.716723541149564e-06,-6.678599839552885e-07,-8.437006979834564e-09
1668680908.8719904,71888,1668680908,871820520,,6.575445921120308e-07,1.9121741465893732e-11,1.2593859729700193e-13,1.70924908820555e-06,-6.619770228481211e-07,-8.37273038076838e-09
1668680908.882107,71889,1668680908,879636455,,6.356723325226888e-07,1.7854632855307057e-11,1.2793011429571794e-13,1.7016151686479325e-06,-6.560560158435924e-07,-8.307892153012931e-09
1668680908.8877804,71890,1668680908,887650776,,6.142743457874653e-07,1.665241720076513e-11,1.2931856133182155e-13,1.6938240251474835e-06,-6.500980227611105e-07,-8.242505049257409e-09
1668680908.8959823,71891,1668680908,895788948,,5.933553677839613e-07,1.551242103303922e-11,1.30228446425293e-13,1.685877902694888e-06,-6.441040997446643e-07,-8.176581801258913e-09
1668680908.9038007,71892,1668680908,903652535,,5.729188153217999e-07,1.4431883622850169e-11,1.306511053731647e-13,1.6777790483059194e-06,-6.380752991559302e-07,-8.110135094891087e-09
1668680908.911707,71893,1668680908,911506366,,5.529668835033222e-07,1.3408237719737805e-11,1.3065723914827618e-13,1.6695297107137771e-06,-6.320126694708759e-07,-8.043177593272141e-09
1668680908.9197803,71894,1668680908,919631989,,5.335006381458995e-07,1.2439094078444463e-11,1.3029474652958586e-13,1.6611321400753798e-06,-6.259172551739643e-07,-7.975721919814133e-09
1668680908.9275792,71895,1668680908,927481034,,5.145201027130603e-07,1.1522008216459621e-11,1.2960080256755348e-13,1.6525885876508487e-06,-6.197900966547689e-07,-7.907780666811352e-09
1668680908.9357555,71896,1668680908,935625594,,4.960243407378108e-07,1.0654703841674965e-11,1.285856020485737e-13,1.6439013055275544e-06,-6.136322301135621e-07,-7.839366381398633e-09
1668680908.9433997,71897,1668680908,943262668,,4.780115334280753e-07,9.83492252047798e-12,1.2728926205325185e-13,1.6350725463154772e-06,-6.074446874567748e-07,-7.770491574255149e-09
1668680908.9516528,71898,1668680908,951498117,,4.60479053010784e-07,9.060422251199147e-12,1.2576573394432487e-13,1.626104562854654e-06,-6.01228496199373e-07,-7.701168716674204e-09
1668680908.9597125,71899,1668680908,959496931,,4.4342353192966756e-07,8.329332033735215e-12,1.2393455317952883e-13,1.61699960794029e-06,-5.949846793706181e-07,-7.631410238339245e-09
1668680908.9676175,71900,1668680908,967506335,,4.2684092776992357e-07,7.639574680199263e-12,1.2194404093833148e-13,1.607759934003159e-06,-5.887142554133546e-07,-7.561228523932551e-09
1668680908.9753916,71901,1668680908,975244406,,4.1072658469303433e-07,6.989321319907876e-12,1.197457944319438e-13,1.5983877928585617e-06,-5.824182380979641e-07,-7.490635912060563e-09
1668680908.983798,71902,1668680908,983552726,,3.950752909628493e-07,6.376588275941281e-12,1.173910131793928e-13,1.588885435395852e-06,-5.760976364223713e-07,-7.4196447092545965e-09
1668680908.9918127,71903,1668680908,991662989,,3.798813333136371e-07,5.799687461528773e-12,1.1488907860333261e-13,1.5792551113134163e-06,-5.697534545262491e-07,-7.348267156089097e-09
1668680908.9998426,71904,1668680908,999695554,,3.6513854773520826e-07,5.2569289761166915e-12,1.1224853506521726e-13,1.5694990688402609e-06,-5.633866916012311e-07,-7.276515457550635e-09
1668680909.0076036,71905,1668680909,7469440,,3.5084036722523145e-07,4.746730753799093e-12,1.0947715785860563e-13,1.5596195544472737e-06,-5.569983417927036e-07,-7.204401770777312e-09
1668680909.015655,71906,1668680909,15458435,,3.369798666555529e-07,4.267473058470947e-12,1.0665729204599025e-13,1.5496188125809903e-06,-5.505893941207273e-07,-7.131938195029681e-09
1668680909.0238926,71907,1668680909,23621737,,3.2354980474044194e-07,3.817638376554022e-12,1.0378932357496191e-13,1.5394990853962725e-06,-5.441608323975764e-07,-7.059136782611434e-09
1668680909.0320425,71908,1668680909,31851193,,3.105426632735897e-07,3.395885364083087e-12,1.008872058884408e-13,1.529262612493953e-06,-5.377136351389748e-07,-6.986009534925089e-09
1668680909.0399094,71909,1668680909,39714544,,2.979506837394416e-07,3.000788374009306e-12,9.791919771172373e-14,1.5189116306353577e-06,-5.3124877547929e-07,-6.9125683975565e-09
1668680909.0478103,71910,1668680909,47626036,,2.8576590180662053e-07,2.630981079261801e-12,9.492102396833839e-14,1.508448373484373e-06,-5.24767221085225e-07,-6.838825260585398e-09
1668680909.0557213,71911,1668680909,55593636,,5.893759035314659e-07,-3.7156453952159895e-07,8.91600748820087e-14,1.4978750755572456e-06,-5.182699216165896e-07,-6.764791960774177e-09
1668680909.063481,71912,1668680909,63326486,,1.8140147114698539e-06,-1.8277327105620182e-06,5.501300935829024e-14,1.4871939704490472e-06,-5.117578098812083e-07,-6.6904802828569746e-09
1668680909.0717776,71913,1668680909,71620528,,4.515258619745086e-06,-5.023034185641242e-06,-1.2868105789984247e-13,1.4764072821177722e-06,-5.05231814208823e-07,-6.615901942869692e-09
1668680909.0797646,71914,1668680909,79581601,,9.201841351279586e-06,-1.0556815291990415e-05,-8.059825620579223e-13,1.4655172178868038e-06,-4.986928558416865e-07,-6.541068607059369e-09
1668680909.0878294,71915,1668680909,87707140,,1.633833929852759e-05,-1.897639909194167e-05,-2.705103755231611e-12,1.4545259592507032e-06,-4.921418455798001e-07,-6.465991881325758e-09
1668680909.0958786,71916,1668680909,95753237,,2.6347731772281317e-05,-3.0780100768604276e-05,-7.112573298416028e-12,1.443435651405976e-06,-4.855796800056741e-07,-6.3906833135671855e-09
1668680909.1034641,71917,1668680909,103247850,,3.9613841048223804e-05,-4.6420101391968077e-05,-1.6047083341520704e-11,1.4322483921807827e-06,-4.790072375053768e-07,-6.315154388493319e-09
1668680909.1117585,71918,1668680909,111640486,,5.648365686674878e-05,-6.630518559671201e-05,-3.2420353585912326e-11,1.4209662208965665e-06,-4.7242537427248145e-07,-6.239416540452635e-09
1668680909.1197505,71919,1668680909,119628709,,7.726954990844024e-05,-9.080334853015747e-05,-6.017803150050807e-11,1.409591107632e-06,-4.658349204737433e-07,-6.16348114126225e-09
1668680909.1277306,71920,1668680909,127570287,,0.00010225137863283897,-0.0001202442772623065,-1.0441499529224979e-10,1.3981249432149377e-06,-4.5923667665642114e-07,-6.0873595050597255e-09
1668680909.1352837,71921,1668680909,135165225,,0.0001316784937381097,-0.00015492171168463614,-1.7146175677371031e-10,1.3865695301916503e-06,-4.526314105165384e-07,-6.011062886758078e-09
1668680909.1443594,71922,1668680909,144164448,,0.00016577164436692234,-0.00019509568976225838,-2.6894050871170725e-10,1.3749265749594878e-06,-4.460198540602544e-07,-5.934602481910255e-09
1668680909.152466,71923,1668680909,152292827,,0.00020472479005565785,-0.00024099468184836753,-4.0579073321165135e-10,1.3631976811410774e-06,-4.3940270120928144e-07,-5.8579894270886085e-09
1668680909.1609447,71924,1668680909,160774401,,0.0002487068222966917,-0.000292817618613014,-5.922653768975069e-10,1.3513843443550405e-06,-4.327806058846651e-07,-5.781234794274143e-09
1668680909.1680384,71925,1668680909,167681543,,0.0002978631994578633,-0.0003507358169889823,-8.39898771695002e-10,1.3394879482829297e-06,-4.2615418055533223e-07,-5.704349600749864e-09
1668680909.1755474,71926,1668680909,175398097,,0.0003523174986805186,-0.0004148948083898276,-1.16144935186757e-09,1.3275097621248163e-06,-4.195239952676377e-07,-5.627344796849294e-09
1668680909.183727,71927,1668680909,183618516,,0.0004121728882559475,-0.0004854160733104893,-1.5708190844637265e-09,1.315450939375108e-06,-4.1289057712082323e-07,-5.550231276635863e-09
1668680909.1919713,71928,1668680909,191816243,,0.0004775135238623171,-0.0005623986862804217,-2.0829531521228605e-09,1.3033125178413522e-06,-4.0625441019226656e-07,-5.473019860880932e-09
1668680909.1998346,71929,1668680909,199647553,,0.0005484058719272513,-0.0006459208750026176,-2.7137225170243233e-09,1.2910954208620501e-06,-3.9961593587382486e-07,-5.3957213096405415e-09
1668680909.207763,71930,1668680909,207563265,,0.0006248999632678047,-0.0007360414973768188,-3.4797926357378173e-09,1.2788004596145398e-06,-3.929755535858021e-07,-5.318346320845949e-09
1668680909.2157638,71931,1668680909,215607108,,0.0007070305800492305,-0.0008328014399763005,-4.398481378726495e-09,1.2664283364424372e-06,-3.8633362184908605e-07,-5.2409055172931984e-09
1668680909.2237957,71932,1668680909,223555022,,0.0007948183789941483,-0.0009362249414185467,-5.4876090820453206e-09,1.2539796490918196e-06,-3.7969045966978977e-07,-5.163409451522036e-09
1668680909.23168,71933,1668680909,231555837,,0.0008882709536692465,-0.0010463208439485648,-6.765343428237487e-09,1.2414548957372476e-06,-3.7304634820389826e-07,-5.0858686147063625e-09
1668680909.2397199,71934,1668680909,239607393,,0.0009873838385730674,-0.0011630837764302784,-8.250041860789887e-09,1.2288544807355857e-06,-3.664015326749646e-07,-5.008293405429215e-09
1668680909.2476962,71935,1668680909,247537113,,0.0010921414576474029,-0.00128649527182776,-9.9600938057806e-09,1.2161787209733876e-06,-3.5975622450416073e-07,-4.930694160257265e-09
1668680909.2556102,71936,1668680909,255419875,,0.0012025180197383785,-0.0014165248221399166,-1.1913765042888927e-08,1.2034278527380427e-06,-3.531106035993873e-07,-4.853081132707299e-09
1668680909.2637312,71937,1668680909,263600180,,0.001318478363437009,-0.0015531308736455318,-1.4129045796386918e-08,1.1906020389632586e-06,-3.4646482080832847e-07,-4.775464497799864e-09
1668680909.2717805,71938,1668680909,271625193,,0.0014399787536375395,-0.0016962617652040417,-1.6623504707804912e-08,1.1777013768391611e-06,-3.3981900048116046e-07,-4.697854339482527e-09
1668680909.2800128,71939,1668680909,279817374,,0.0015669676320614423,-0.001845856612256088,-1.9414149632929027e-08,1.1647259056440672e-06,-3.3317324310760206e-07,-4.620260662772935e-09
1668680909.2877564,71940,1668680909,287623316,,0.0016993863239083895,-0.002001846139063814,-2.2517296855429314e-08,1.1516756147108065e-06,-3.2652762802003405e-07,-4.542693378579987e-09
1668680909.295455,71941,1668680909,295285612,,0.0018371697027109348,-0.0021641534616345915,-2.594844955560787e-08,1.1385504515024552e-06,-3.1988221611886495e-07,-4.465162311943771e-09
1668680909.3037815,71942,1668680909,303604571,,0.0019802468153873373,-0.002332694823673646,-2.9722186238962695e-08,1.1253503296897779e-06,-3.1323705261790034e-07,-4.3876771920609015e-09
1668680909.3119507,71943,1668680909,311684390,,0.0021285414694080743,-0.0025073802878218397,-3.385206011320346e-08,1.1120751372106273e-06,-3.0659216976073006e-07,-4.310247642309861e-09
1668680909.3198698,71944,1668680909,319725814,,0.002281972783914384,-0.0026881143843416385,-3.8350509178838344e-08,1.0987247441754893e-06,-2.9994758950839767e-07,-4.232883191526704e-09
1668680909.3280165,71945,1668680909,327840915,,0.0024404557065525745,-0.0028747967193304244,-4.3228777937543355e-08,1.0852990106471823e-06,-2.9330332617464867e-07,-4.155593276607139e-09
1668680909.335782,71946,1668680909,335499376,,0.002603901497716698,-0.003067322544453439,-4.8496850367366255e-08,1.0717977942335116e-06,-2.866593890049222e-07,-4.078387220822488e-09
1668680909.3446987,71947,1668680909,344551882,,0.002772218183821216,-0.0032655832901097026,-5.416339433691362e-08,1.0582209574248514e-06,-2.800157846600008e-07,-4.001274219074535e-09
1668680909.352642,71948,1668680909,352412942,,0.002945310981158689,-0.0034694670638632046,-6.023571741014114e-08,1.0445683746553367e-06,-2.733725196277096e-07,-3.924263389069871e-09
1668680909.3604393,71949,1668680909,360118057,,0.0031230826918327527,-0.0036788591158973833,-6.671973341169499e-08,1.0308399391095727e-06,-2.6672960250255983e-07,-3.847363715808738e-09
1668680909.367663,71950,1668680909,367483101,,0.0033054340731928393,-0.0038936422731762543,-7.361993971734296e-08,1.017035569133685e-06,-2.600870462000828e-07,-3.770584062860738e-09
1668680909.3757603,71951,1668680909,375592556,,0.003492264182137156,-0.00411369734392447,-8.09394049624704e-08,1.0031552143840332e-06,-2.53444870013602e-07,-3.6939331853752533e-09
1668680909.383451,71952,1668680909,383301262,,0.003683470695591652,-0.004338903493969552,-8.867976615626194e-08,9.891988615518934e-07,-2.468031015692663e-07,-3.6174197057953217e-09
1668680909.3916197,71953,1668680909,391508852,,0.003878950208416011,-0.004569138596425012,-9.684123518487467e-08,9.751665397464608e-07,-2.401617786701698e-07,-3.5410521338069545e-09
1668680909.3997037,71954,1668680909,399565883,,0.004078598509933308,-0.004804279556126261,-1.0542261407913063e-07,9.610583255284142e-07,-2.3352095098778817e-07,-3.464838834246753e-09
1668680909.4077122,71955,1668680909,407502205,,0.004282310840227636,-0.005044202610172194,-1.1442131797863082e-07,9.468743475209943e-07,-2.26880681625832e-07,-3.388788062663739e-09
1668680909.415741,71956,1668680909,415556285,,0.004489982127302932,-0.005288783605863053,-1.2383340560729508e-07,9.326147906534417e-07,-2.2024104858852766e-07,-3.312907935829057e-09
1668680909.4237647,71957,1668680909,423531668,,0.004701507206147853,-0.005537898257271066,-1.3365361663915187e-07,9.182799000216109e-07,-2.1360214606680624e-07,-3.2372064230623554e-09
1668680909.4319932,71958,1668680909,431841343,,0.004916781020704329,-0.00579142238162189,-1.4387541485193187e-07,9.038699843776847e-07,-2.0696408564046696e-07,-3.1616913722526396e-09
1668680909.439783,71959,1668680909,439642288,,0.005135698809692422,-0.006049232116613175,-1.544910369525039e-07,8.893854192379452e-07,-2.0032699733196747e-07,-3.086370495980484e-09
1668680909.4484642,71960,1668680909,448170744,,0.005358156277200383,-0.006311204119746236,-1.6549154593201645e-07,8.748266496126861e-07,-1.936910305609012e-07,-3.01125135590552e-09
1668680909.45566,71961,1668680909,455432146,,0.005584049748907001,-0.006577215750694521,-1.768668889665e-07,8.601941924146598e-07,-1.8705635492849903e-07,-2.936341385317842e-09
1668680909.4642599,71962,1668680909,464028745,,0.005813276314763331,-0.006847145237688485,-1.8860595846017087e-07,8.454886384751375e-07,-1.8042316095637743e-07,-2.8616478648518795e-09
1668680909.4724734,71963,1668680909,472098303,,0.006045733958921965,-0.007120871828848528,-2.0069665632567671e-07,8.307106542665031e-07,-1.737916606370151e-07,-2.7871779398336294e-09
1668680909.4799457,71964,1668680909,479723951,,0.006281321677664636,-0.007398275929354476,-2.131259603497783e-07,8.158609832689581e-07,-1.6716208792297207e-07,-2.712938594259806e-09
1668680909.4875965,71965,1668680909,487484621,,0.006519939586043803,-0.007679239225298242,-2.258799927273207e-07,8.009404470159633e-07,-1.6053469911958768e-07,-2.6389366976353745e-09
1668680909.4958403,71966,1668680909,495723365,,0.006761489013919235,-0.007963644795024986,-2.389440895742303e-07,7.859499459062251e-07,-1.539097731275709e-07,-2.5651789477276754e-09
1668680909.5045586,71967,1668680909,504411053,,0.007005872592037383,-0.008251377208729791,-2.5230287148644217e-07,7.708904596588569e-07,-1.4728761164856498e-07,-2.4916719000567245e-09
1668680909.5115824,71968,1668680909,511475580,,0.007252994328770429,-0.008542322617040079,-2.659403144242726e-07,7.557630475344481e-07,-1.4066853927155844e-07,-2.4184219730993828e-09
1668680909.5197537,71969,1668680909,519614135,,0.007502759678101158,-0.008836368829275921,-2.7983982058044916e-07,7.405688483379101e-07,-1.3405290345494146e-07,-2.3454354257379517e-09
1668680909.5277283,71970,1668680909,527563470,,0.007755075599410701,-0.009133405382049178,-2.9398428852988426e-07,7.253090800771422e-07,-1.2744107447375946e-07,-2.2727183711379606e-09
1668680909.535673,71971,1668680909,535545972,,0.008009850609598563,-0.009433323598826458,-3.0835618290892767e-07,7.099850395068268e-07,-1.2083344526684064e-07,-2.2002767802176137e-09
1668680909.543433,71972,1668680909,543276086,,0.008266994828037437,-0.009736016641051719,-3.229376028788916e-07,6.945981014101451e-07,-1.1423043122586437e-07,-2.1281164747088965e-09
1668680909.551711,71973,1668680909,551589582,,0.008526420014840223,-0.01004137955139199,-3.3771034890636026e-07,6.791497177184862e-07,-1.0763246990365665e-07,-2.0562431063408937e-09
1668680909.5598128,71974,1668680909,559638681,,0.008788039602891077,-0.010349309289642474,-3.5265598818221546e-07,6.636414164063473e-07,-1.0104002066166178e-07,-1.9846622158203875e-09
1668680909.5676253,71975,1668680909,567476488,,0.009051768724070491,-0.010659704761798202,-3.6775591788452783e-07,6.480748002135877e-07,-9.44535643079272e-08,-1.9133791807901535e-09
1668680909.5754151,71976,1668680909,575289736,,0.009317524230080405,-0.01097246684277329,-3.8299142633907385e-07,6.324515453263882e-07,-8.787360262113878e-08,-1.8423992227678543e-09
1668680909.583714,71977,1668680909,583581936,,0.009585224708254635,-0.0112874983932245,-3.983437518722287e-07,6.167733997720362e-07,-8.130065787433083e-08,-1.7717274314321685e-09
1668680909.5917764,71978,1668680909,591639909,,0.009854790492719779,-0.011604704270909002,-4.1379413910983543e-07,6.01042181776223e-07,-7.473527231387266e-08,-1.7013687576838965e-09
1668680909.5996692,71979,1668680909,599495560,,0.010126143671251116,-0.011923991336985405,-4.2932389284871057e-07,5.852597779935182e-07,-6.817800756407904e-08,-1.6313279824209381e-09
1668680909.6077385,71980,1668680909,607569692,,0.010399208088149913,-0.012245268457644164,-4.4491442893233367e-07,5.694281416254656e-07,-6.162944404472254e-08,-1.5616097720494437e-09
1668680909.6157088,71981,1668680909,615551159,,0.01067390934345091,-0.012568446501431458,-4.6054732251793344e-07,5.535492904381462e-07,-5.509018033292637e-08,-1.4922186437893448e-09
1668680909.623497,71982,1668680909,623347865,,0.010950174788750787,-0.012893438332611452,-4.762043534773052e-07,5.3762530474952e-07,-4.856083254538594e-08,-1.4231589760826946e-09
1668680909.6319363,71983,1668680909,631720442,,0.011227933519932865,-0.013220158800891774,-4.918675489018436e-07,5.216583252734086e-07,-4.2042033612387127e-08,-1.3544349981853276e-09
1668680909.6400979,71984,1668680909,639834634,,0.011507116367047364,-0.013548524727819259,-5.075192225941193e-07,5.056505510031052e-07,-3.55344326232734e-08,-1.2860508109835411e-09
1668680909.6477535,71985,1668680909,647620420,,0.011787655881591681,-0.0138784548901348,-5.231420116844429e-07,4.896042369621973e-07,-2.903869407845476e-08,-1.2180103974024359e-09
1668680909.6554236,71986,1668680909,655307470,,0.012069486321421175,-0.014209870000359502,-5.387189102562726e-07,4.735216919212913e-07,-2.2555497233302767e-08,-1.150317577303106e-09
1668680909.663629,71987,1668680909,663502340,,0.012352543633507117,-0.014542692684869137,-5.542333003929618e-07,4.574052761678355e-07,-1.608553531660343e-08,-1.0829760629937901e-09
1668680909.6715543,71988,1668680909,671458137,,0.012636765434745987,-0.014876847459696784,-5.696689799382735e-07,4.412573991317988e-07,-9.629514811405893e-09,-1.0159894349437426e-09
1668680909.6797657,71989,1668680909,679582927,,0.012922090991011872,-0.015212260704291864,-5.850101877153634e-07,4.2508051711358957e-07,-3.18815472567964e-09,-9.49361127905446e-10
1668680909.6877131,71990,1668680909,687596084,,0.013208461194631935,-0.015548860633446715,-6.002416259153117e-07,4.0887713091369133e-07,3.237814131173619e-09,-8.830944725479739e-10
1668680909.69579,71991,1668680909,695602955,,0.013495818540453602,-0.015886577267591774,-6.153484799379504e-07,3.926497835086214e-07,9.64764992265714e-09,-8.171926607625224e-10
1668680909.7036202,71992,1668680909,703466050,,0.013784107100662916,-0.01622534240164566,-6.303164353875872e-07,3.7640105771864925e-07,1.604060051397984e-08,-7.516587699485378e-10
1668680909.7116868,71993,1668680909,711519459,,0.014073272498501113,-0.016565089572595972,-6.451316927467072e-07,3.60133573871097e-07,2.2415904177546658e-08,-6.864957734220578e-10
1668680909.7197537,71994,1668680909,719626976,,0.01436326188101962,-0.016905754025974783,-6.597809796219985e-07,3.4384998748879323e-07,2.8772790355369518e-08,-6.217065022517954e-10
1668680909.7277753,71995,1668680909,727670122,,0.014654023891002,-0.01724727268138175,-6.742515605037327e-07,3.275529869960095e-07,3.511048033495896e-08,-5.572936764841607e-10
1668680909.73596,71996,1668680909,735781854,,0.014945508638175186,-0.017589584097198987,-6.885312445042387e-07,3.112452914570316e-07,4.1428187972053325e-08,-4.932599398377313e-10
1668680909.743431,71997,1668680909,743288825,,0.015237667669822402,-0.01793262843463,-7.026083908525019e-07,2.9492964833779706e-07,4.772512042050363e-08,-4.2960779378375946e-10
1668680909.7518601,71998,1668680909,751681199,,0.015530453940903069,-0.01827634742118851,-7.164719123838768e-07,2.786088313055338e-07,5.4000478801443166e-08,-3.6633964611842984e-10
1668680909.75966,71999,1668680909,759538672,,0.015823821783778245,-0.018620684313751513,-7.301112769359006e-07,2.622856379847329e-07,6.025345885933824e-08,-3.0345778667673073e-10
1668680909.7678742,72000,1668680909,767679599,,0.016117726877631914,-0.01896558386128549,-7.435165072791669e-07,2.459628878403791e-07,6.648325163766296e-08,-2.409644012102419e-10
1668680909.776979,72001,1668680909,776748704,,0.016412126217673094,-0.019310992267344274,-7.566781792801018e-07,2.2964342016166032e-07,7.268904415457401e-08,-1.7886161302049786e-10
1668680909.7837749,72002,1668680909,783621187,,0.016706978084196966,-0.019656857152432122,-7.695874180075404e-07,2.1333009183601911e-07,7.887001999098194e-08,-1.171514066311552e-10
1668680909.7918718,72003,1668680909,791596908,,0.01700224201157695,-0.02000312751631655,-7.82235892928628e-07,1.9702577543447876e-07,8.502535994595137e-08,-5.5835697176931376e-11
1668680909.7995331,72004,1668680909,799432305,,0.017297878757255115,-0.02034975370037057,-7.946158115037339e-07,1.8073335719849667e-07,9.115424263940897e-08,5.083697351970784e-12
1668680909.8076146,72005,1668680909,807482892,,0.01759385027079167,-0.020696687350016826,-8.067199114806321e-07,1.6445573512420628e-07,9.725584505261824e-08,6.560506998765092e-11
1668680909.8155236,72006,1668680909,815330407,,0.01789011966303107,-0.02104388137734009,-8.185414520337594e-07,1.4819581703088376e-07,1.0332934320005961e-07,1.257267762122538e-10
1668680909.8235903,72007,1668680909,823457302,,0.018186651175435577,-0.02139128992393005,-8.300742037125902e-07,1.319565187425241e-07,1.0937391259379422e-07,1.8544724089686326e-10
1668680909.832237,72008,1668680909,831663233,,0.018483410149634515,-0.0217388683240099,-8.413124376831609e-07,1.1574076228372879e-07,1.1538872878404712e-07,2.4476500687375946e-10
1668680909.8398685,72009,1668680909,839733768,,0.01878036299723192,-0.022086573067902925,-8.52250913951905e-07,9.955147416975622e-08,1.2137296798956244e-07,3.036786933030555e-10
1668680909.8483863,72010,1668680909,848275045,,0.019077477169912396,-0.022434361765882142,-8.628848687478949e-07,8.339158358489952e-08,1.2732580747262887e-07,3.62186960978228e-10
1668680909.8556275,72011,1668680909,855471021,,0.019374721129880368,-0.022782193112446898,-8.732100012007498e-07,6.726402088991961e-08,1.332464261186942e-07,4.202885817150559e-10
1668680909.8646865,72012,1668680909,864524418,,0.019672064320665605,-0.023130026851063447,-8.832224596096402e-07,5.117171589691686e-08,1.3913400487741874e-07,4.779823828404695e-10
1668680909.871865,72013,1668680909,871698548,,0.01996947713832285,-0.023477823739404203,-8.929188268552618e-07,3.511759635442969e-08,1.4498772721229392e-07,5.352672263758684e-10
1668680909.8798184,72014,1668680909,879667732,,0.020343362743333194,-0.023825518237535592,-8.97206783146437e-07,1.7880460406185465e-08,1.5122725903970406e-07,5.923937521079559e-10
1668680909.8875713,72015,1668680909,887470759,,0.020881348677987226,-0.024173023242471246,0.00014549944236155114,-2.0197206453413837e-09,1.5836152413126366e-07,6.497063720356522e-10
1668680909.8954177,72016,1668680909,895263898,,0.021489762256777973,-0.024520348003713003,0.0003575542583472043,-2.3159965671930467e-08,1.6590289968199112e-07,7.069560423178523e-10
1668680909.903631,72017,1668680909,903496633,,0.022072320731464506,-0.024867505178587376,0.0005521419186571094,-4.395785252778953e-08,1.7330865872359352e-07,7.638138455057231e-10
1668680909.9120154,72018,1668680909,911884923,,0.02272733364648641,-0.025214396517717737,0.0008947029006295488,-6.610586991852687e-08,1.811601519958626e-07,8.20678497381877e-10
1668680909.9199193,72019,1668680909,919720957,,0.023402706800321534,-0.025561021192494093,0.0012954340290906715,-8.87428294927173e-08,1.8916246902547784e-07,8.773775941883777e-10
1668680909.928474,72020,1668680909,928230121,,0.02409762027918446,-0.02590733685310623,0.0018022124672828481,-1.1187169045436896e-07,1.973171387694133e-07,9.33931001978472e-10
1668680909.9361398,72021,1668680909,935907157,,0.02494143958736473,-0.026253252757744146,0.0024099316494601455,-1.3795670251120053e-07,2.0647064098147302e-07,9.91010468132103e-10
1668680909.9446158,72022,1668680909,944377871,,0.025736765753812518,-0.026598853893235748,0.0029648638243282783,-1.6335492499490326e-07,2.1537400950351338e-07,1.0477099188221928e-09
1668680909.9517193,72023,1668680909,951594258,,0.026583999713278406,-0.02694404727823027,0.0035465658916201117,-1.8999637929406144e-07,2.2468985269499114e-07,1.1045666395426146e-09
1668680909.9598489,72024,1668680909,959695696,,0.027550439353166364,-0.027356801437141712,0.0041022584661633546,-2.1978977041793362e-07,2.3507417050948332e-07,1.162187082681676e-09
1668680909.9678545,72025,1668680909,967673986,,0.02835612940261534,-0.02827672147844073,0.004608158682009516,-2.500797962593686e-07,2.4561755243134725e-07,1.2198750481973164e-09
1668680909.9760094,72026,1668680909,975854289,,0.02905930338832018,-0.029420920626909125,0.005066234909094815,-2.800921811246218e-07,2.560551002094621e-07,1.2774193161591008e-09
1668680909.9835207,72027,1668680909,983316043,,0.029326274976912654,-0.03151714127769636,0.005413613430151467,-3.076210110485836e-07,2.656304054604163e-07,1.3341123691890111e-09
1668680909.99189,72028,1668680909,991705721,,0.029584911989659964,-0.03346806495348903,0.005722854478629699,-3.3401598069219326e-07,2.7480590148441265e-07,1.3903401901993462e-09
1668680909.9996564,72029,1668680909,999508831,,0.02962777627807991,-0.03582081503506417,0.005962180251054872,-3.5852245203020494e-07,2.8332263629768026e-07,1.4458167996167504e-09
1668680910.007768,72030,1668680910,7634532,,0.029570611260819397,-0.038510040192244535,0.006116861988491176,-3.832500237805551e-07,2.919037752516056e-07,1.5012441012540734e-09
1668680910.0153618,72031,1668680910,15252676,,0.02947371241565176,-0.04127704549519055,0.006226563465817773,-4.076039699257329e-07,3.0034585861340307e-07,1.5564215749552801e-09
1668680910.024138,72032,1668680910,23928776,,0.029399034096375523,-0.04382891116771756,0.006315307834734746,-4.3073878170740796e-07,3.083591123449747e-07,1.611025465808602e-09
1668680910.0317335,72033,1668680910,31543377,,0.029314765554723062,-0.046327442285586974,0.0063734256856745955,-4.5311998818218157e-07,3.1610295497461194e-07,1.6652060702559979e-09
1668680910.0396662,72034,1668680910,39564939,,0.02923680227109161,-0.04867859231754588,0.00642717685217563,-4.743477153802884e-07,3.2344022456599203e-07,1.7187843787125345e-09
1668680910.0478437,72035,1668680910,47699822,,0.02917292213845073,-0.05080150711449491,0.00651501913672969,-4.93916926164184e-07,3.301974486153922e-07,1.7715168082466093e-09
1668680910.0559354,72036,1668680910,55699044,,0.029126762105558767,-0.05272629059153811,0.006610022348519653,-5.121353099129438e-07,3.36479537921177e-07,1.8234826842933316e-09
1668680910.0638428,72037,1668680910,63595478,,0.029102143310232285,-0.054482897325732756,0.006684559596334537,-5.293313609357414e-07,3.423986751887459e-07,1.874784369415572e-09
1668680910.071703,72038,1668680910,71555086,,0.029094971976056115,-0.05567155439452363,0.006846646547845722,-5.419987842867832e-07,3.467522472265592e-07,1.9237938742033833e-09
1668680910.0796971,72039,1668680910,79524294,,0.029105841106874787,-0.05652843728120027,0.007039046449541782,-5.521411816456021e-07,3.502247700015292e-07,1.97128052770168e-09
1668680910.087801,72040,1668680910,87660375,,0.029641678274221598,-0.05626754803526338,0.0072400346587647305,-5.665895938382912e-07,3.5515719610016393e-07,2.0204376643961908e-09
1668680910.0958903,72041,1668680910,95756759,,0.030660719214318156,-0.05524433454292121,0.007447574874987829,-5.874100232688365e-07,3.622608747168559e-07,2.0724601340615934e-09
1668680910.104701,72042,1668680910,104113744,,0.03188487573620532,-0.05388039054430536,0.007643323260697027,-6.10889886825533e-07,3.702672124608966e-07,2.125725484525276e-09
1668680910.1120844,72043,1668680910,111896216,,0.03302810416112017,-0.05260921233650386,0.007808349863266008,-6.33019811165504e-07,3.778037084985978e-07,2.1782649711754587e-09
1668680910.1204455,72044,1668680910,120269932,,0.034242069150990956,-0.05120096040866106,0.007950897310094088,-6.559665327490315e-07,3.856127589857948e-07,2.2311945901964947e-09
1668680910.1275926,72045,1668680910,127491688,,0.035441781268857275,-0.04975543983990007,0.008024038386409034,-6.782415800606935e-07,3.9318506321150797e-07,2.2837454982660432e-09
1668680910.1356115,72046,1668680910,135505819,,0.03659378665349985,-0.04834497421517271,0.00805303057760762,-6.9951835053139e-07,4.004086647131904e-07,2.3357195344519965e-09
1668680910.1435413,72047,1668680910,143327359,,0.037728967248348476,-0.04718299879626112,0.008100233567518138,-7.22630817999708e-07,4.082547654645028e-07,2.3887207906136965e-09
1668680910.1519747,72048,1668680910,151869006,,0.03878132058092251,-0.04611384335272456,0.008127595637004412,-7.442100114999489e-07,4.155702751317252e-07,2.4408523535690563e-09
1668680910.1596217,72049,1668680910,159504001,,0.039790489325635704,-0.04520643908559047,0.00815596304699349,-7.660387505517303e-07,4.229656598788052e-07,2.4931405828709785e-09
1668680910.1677878,72050,1668680910,167652358,,0.04045674795460296,-0.044836342517592005,0.008065488878945109,-7.825764204823704e-07,4.285425366846486e-07,2.5421761778998686e-09
1668680910.175328,72051,1668680910,175209446,,0.04042955892237412,-0.045847294299815086,0.007603077495149069,-7.910010134234893e-07,4.3133032264983107e-07,2.5859445557108174e-09
1668680910.1836748,72052,1668680910,183532306,,0.04040796583736312,-0.04678420839457826,0.007162243163317739,-7.986793546982439e-07,4.338482065976111e-07,2.6288753396386255e-09
1668680910.1918347,72053,1668680910,191691006,,0.040051469035997364,-0.04836286050740263,0.006550328937712309,-8.019819549631236e-07,4.348519872785818e-07,2.6685296056205843e-09
1668680910.1997316,72054,1668680910,199584279,,0.039548203498454185,-0.05028343657729179,0.005797876916782809,-8.037920219197952e-07,4.353267890483143e-07,2.706674689934019e-09
1668680910.2076766,72055,1668680910,207498997,,0.03899639247113588,-0.052537630904755,0.005000126902788072,-8.07023448606576e-07,4.362704035588451e-07,2.7452715933851124e-09
1668680910.21567,72056,1668680910,215559232,,0.038446135114692914,-0.05486594411649171,0.004206191162246486,-8.107216819194796e-07,4.373570149254855e-07,2.7837124133567315e-09
1668680910.2234676,72057,1668680910,223267718,,0.03792264715202761,-0.05721375616203736,0.0034405318021480708,-8.151372431817018e-07,4.3867309530210875e-07,2.822205052988025e-09
1668680910.2320502,72058,1668680910,231910203,,0.03745178531098257,-0.059362606109476836,0.0027286832478213277,-8.189981216440156e-07,4.397835082809061e-07,2.859846942593336e-09
1668680910.240787,72059,1668680910,240549580,,0.03701683173258163,-0.06143707142936436,0.0020539245198554538,-8.229840556986216e-07,4.409210553370235e-07,2.8971313681402933e-09
1668680910.2487276,72060,1668680910,248462187,,0.03662272608051751,-0.06328343159727108,0.0014213430708060206,-8.25803265650047e-07,4.41643383511511e-07,2.933075393674045e-09
1668680910.2557466,72061,1668680910,255588140,,0.03692654674636994,-0.06388914876032602,0.0009250980536562569,-8.38310012360368e-07,4.4566976032029727e-07,2.976149882094603e-09
1668680910.263815,72062,1668680910,263692956,,0.03722166702630982,-0.06442243901600131,0.00046634439681475325,-8.496767353376134e-07,4.492971327053983e-07,3.018143832078657e-09
1668680910.2717702,72063,1668680910,271565248,,0.03785336849957163,-0.06432179465561945,9.035348226488723e-05,-8.654205373238898e-07,4.544156645591886e-07,3.063512721279693e-09
1668680910.2808015,72064,1668680910,280649815,,0.03860863986182012,-0.06368447901557077,9.685119782423896e-05,-8.798314309631022e-07,4.5907228159777075e-07,3.1077264511791824e-09
1668680910.2884712,72065,1668680910,288328401,,0.03973119722720161,-0.06254613897546761,0.00044445682133137235,-9.011019117113666e-07,4.6607373685577866e-07,3.157669625775128e-09
1668680910.2965508,72066,1668680910,296412630,,0.04099558452560107,-0.06119800815384976,0.0009444728380027,-9.249637433673573e-07,4.739631138611991e-07,3.2100015423530692e-09
1668680910.3040054,72067,1668680910,303804866,,0.04248106177829107,-0.059923782249795776,0.0012585881838019432,-9.56931337592966e-07,4.84632429378646e-07,3.2697099472400737e-09
1668680910.3120553,72068,1668680910,311912806,,0.04385651872111852,-0.05873634889191066,0.0015452099382107696,-9.863246582954939e-07,4.944292447811843e-07,3.32765932864465e-09
1668680910.3196797,72069,1668680910,319507871,,0.04529308509672599,-0.057623289198176095,0.0017295810031585765,-1.0187286508879815e-06,5.052657592104649e-07,3.388839250884068e-09
1668680910.3277571,72070,1668680910,327604381,,0.04674554638953362,-0.05645729660903012,0.0017432809422735123,-1.051370762892136e-06,5.161952290728099e-07,3.4508567253732636e-09
1668680910.3355668,72071,1668680910,335419212,,0.04818849689845926,-0.055674262202126186,0.001449408625542063,-1.087906821117964e-06,5.284710431093225e-07,3.517210883652311e-09
1668680910.343804,72072,1668680910,343679235,,0.0495154003679424,-0.05494947441615172,0.001175819293457172,-1.1211948240701574e-06,5.396506763512623e-07,3.5812628557119197e-09
1668680910.3518746,72073,1668680910,351696935,,0.05078877686225382,-0.05443708825868757,0.0007612051294145544,-1.1550076386850116e-06,5.510246496669667e-07,3.6465736957813633e-09
1668680910.360087,72074,1668680910,359949979,,0.05200206006752675,-0.05406655537568677,0.00029300821241955204,-1.1883205640497545e-06,5.622432533991528e-07,3.7121817147989233e-09
1668680910.367649,72075,1668680910,367542317,,0.05229320957760961,-0.05512647074710366,-0.0001851806560052788,-1.2029808444785064e-06,5.670893535978001e-07,3.7596361857072935e-09
1668680910.3760667,72076,1668680910,375854467,,0.05212021477837325,-0.056842707349886834,-0.0006497224246275305,-1.2071700298362702e-06,5.683489638168802e-07,3.796396141897418e-09
1668680910.3835406,72077,1668680910,383369667,,0.05165227589847038,-0.05896091332831739,-0.001095025997543479,-1.204339078481097e-06,5.671947126413383e-07,3.825527145062679e-09
1668680910.3918524,72078,1668680910,391700658,,0.05121500001728284,-0.060904306961864225,-0.0015028739566152252,-1.2004075653684193e-06,5.656478063386337e-07,3.852992092046037e-09
1668680910.3999858,72079,1668680910,399818246,,0.05064796355200954,-0.06296963605334403,-0.0018856629312638466,-1.1926115845216443e-06,5.627607955471792e-07,3.875722992541242e-09
1668680910.4078693,72080,1668680910,407751891,,0.05002811433317199,-0.06501377117102847,-0.0022338943031055105,-1.1823166544209628e-06,5.589979925023358e-07,3.8950254965808284e-09
1668680910.415406,72081,1668680910,415260791,,0.04956010735793141,-0.06679830562737586,-0.0025495697088402628,-1.1746442570008831e-06,5.56111534046836e-07,3.916539897952376e-09
1668680910.4239795,72082,1668680910,423837441,,0.049128721509716915,-0.06842063118314415,-0.0028351083551489023,-1.1663401951615736e-06,5.5298952406687e-07,3.936689960126749e-09
1668680910.431918,72083,1668680910,431767694,,0.04878788189042728,-0.06984840852320583,-0.0030920653396140476,-1.159099026577879e-06,5.502120815816663e-07,3.9574191423863425e-09
1668680910.440246,72084,1668680910,439896846,,0.048571761511687635,-0.0711396703000321,-0.003322337698559865,-1.1548211081978833e-06,5.484314349294035e-07,3.981039303768696e-09
1668680910.447761,72085,1668680910,447611205,,0.048868074436774836,-0.07166957682885326,-0.003526619830919916,-1.1613462195749933e-06,5.50336101963738e-07,4.017133917177951e-09
1668680910.4559917,72086,1668680910,455811644,,0.04940425511976614,-0.07179477976917695,-0.0037071248524004913,-1.1723576745618653e-06,5.537727545456075e-07,4.058611752233432e-09
1668680910.463508,72087,1668680910,463379585,,0.05082977419071166,-0.0706260913081883,-0.003863963340852521,-1.2030587476032127e-06,5.639534597537237e-07,4.124554087159282e-09
1668680910.472096,72088,1668680910,471963505,,0.052142674986842275,-0.06952331619127482,-0.004000920102262539,-1.2303176788469464e-06,5.729738843589065e-07,4.1870318462366996e-09
1668680910.479982,72089,1668680910,479771405,,0.05384142644103519,-0.0678197347484429,-0.004118262134731769,-1.2661579251351928e-06,5.849496015550293e-07,4.2612159356636425e-09
1668680910.4878664,72090,1668680910,487690680,,0.05575688614302727,-0.06589412679760692,-0.004217929407773837,-1.308453384882692e-06,5.991612497635405e-07,4.344887366558581e-09
1668680910.495412,72091,1668680910,495278908,,0.057808072376090786,-0.06396905758133753,-0.004301464693286977,-1.3567241729229e-06,6.154515753138516e-07,4.437842607285525e-09
1668680910.503938,72092,1668680910,503797820,,0.05968522759193729,-0.06218423964462396,-0.004370204318252632,-1.4000952431289558e-06,6.301035405950964e-07,4.525978938851871e-09
1668680910.5116715,72093,1668680910,511546977,,0.0615551372082188,-0.06046072153895187,-0.004425041886910006,-1.4443624933818504e-06,6.450983083645598e-07,4.616906121301945e-09
1668680910.519858,72094,1668680910,519669590,,0.06342066215524576,-0.05884854665848092,-0.004467021882649998,-1.4902410164662665e-06,6.606828424978069e-07,4.711717030425611e-09
1668680910.5278773,72095,1668680910,527762472,,0.06535684949356503,-0.05736402712767818,-0.004497076271460576,-1.5411880572401135e-06,6.780437045014395e-07,4.815400189706054e-09
1668680910.5355706,72096,1668680910,535437526,,0.06724187970395505,-0.05599966243559629,-0.004516081905882562,-1.5919447891972948e-06,6.953871204517896e-07,4.920883131531717e-09
1668680910.543826,72097,1668680910,543619113,,0.0689495163033549,-0.05474881553081081,-0.004524869238195535,-1.636747403040129e-06,7.107413135198047e-07,5.019914733894737e-09
1668680910.552269,72098,1668680910,552036345,,0.07018727408682379,-0.054075698036363196,-0.004524749852901051,-1.6678033701369175e-06,7.214339161230529e-07,5.1007579549011695e-09
1668680910.559642,72099,1668680910,559532328,,0.0711331812494226,-0.05371486358892313,-0.004516089631450932,-1.6894752062308416e-06,7.289442437246295e-07,5.1690093871847864e-09
1668680910.5677772,72100,1668680910,567625849,,0.0707188836877365,-0.05471551470563613,-0.0045008137167786505,-1.665560674100658e-06,7.208706500161192e-07,5.169471906096845e-09
1668680910.5757976,72101,1668680910,575643749,,0.06956974597901146,-0.05666881354670028,-0.00473903265371501,-1.6197372429063847e-06,7.052650319661416e-07,5.135285169322046e-09
1668680910.583487,72102,1668680910,583338462,,0.06809209792079472,-0.05901427962105519,-0.005087766799101859,-1.5640524264811393e-06,6.86225688959017e-07,5.083682766415798e-09
1668680910.5917373,72103,1668680910,591638878,,0.06670319619283707,-0.061175952469037655,-0.005398805912958849,-1.5105782333126082e-06,6.678743547736815e-07,5.0330323519975906e-09
1668680910.599876,72104,1668680910,599657181,,0.06530357140615241,-0.06352663978086538,-0.005815010534833192,-1.4592541856996025e-06,6.501937232479896e-07,4.983403939506914e-09
1668680910.6077657,72105,1668680910,607619892,,0.064020061947884,-0.06594213262633822,-0.006256323336640168,-1.414072243359878e-06,6.345539499538408e-07,4.941416234527374e-09
1668680910.6154056,72106,1668680910,615261558,,0.06283356178470767,-0.06829173641634498,-0.006686947230936515,-1.3725235977133906e-06,6.201037415251402e-07,4.903370112718797e-09
1668680910.6238232,72107,1668680910,623683355,,0.06172477260216641,-0.07044016110496924,-0.0070701714734712024,-1.3321872286898477e-06,6.060187389398709e-07,4.865491037842062e-09
1668680910.6321948,72108,1668680910,632019888,,0.06080465095692654,-0.07240928921295803,-0.007448971962370952,-1.2980034546173974e-06,5.939927452502762e-07,4.836175682143562e-09
1668680910.6397398,72109,1668680910,639550128,,0.060006391004222046,-0.07420513458534819,-0.007804040545242056,-1.2670908279006476e-06,5.83046280935428e-07,4.8109167483101345e-09
1668680910.6479402,72110,1668680910,647673139,,0.059916458624206075,-0.07532437555989428,-0.008242208663092544,-1.258487807200199e-06,5.797040604342031e-07,4.822737195708804e-09
1668680910.6563227,72111,1668680910,656135804,,0.06093063852103084,-0.07487774917532702,-0.008234610200385302,-1.2791225447593597e-06,5.863634269637728e-07,4.885128843112874e-09
1668680910.663409,72112,1668680910,663268192,,0.06243948144522721,-0.07367266062590422,-0.008002594608344522,-1.3125221463112721e-06,5.974137348516845e-07,4.970879138865847e-09
1668680910.6718047,72113,1668680910,671665039,,0.06381649584701263,-0.07253829778851771,-0.007773303302665898,-1.3412456955983875e-06,6.068960675029676e-07,5.049679563384757e-09
1668680910.6797829,72114,1668680910,679669744,,0.06550139847848083,-0.07099945139667589,-0.007436406461217044,-1.3790787509931684e-06,6.195272725527563e-07,5.146187448401562e-09
1668680910.687863,72115,1668680910,687653566,,0.06728828879221037,-0.0692014181031194,-0.007053068601030909,-1.4188769614630753e-06,6.328714673800064e-07,5.247968198895947e-09
