Time,header.seq,header.stamp.secs,header.stamp.nsecs,header.frame_id,pose.position.x,pose.position.y,pose.position.z,pose.orientation.x,pose.orientation.y,pose.orientation.z,pose.orientation.w
1668680908.0717113,71788,1668680908,71589609,,-0.09879610196180058,-0.6160097986044589,0.07819229672011956,0.9955612054278822,0.09352316859892904,-0.004347996216621039,0.009612393619630432
1668680908.079617,71789,1668680908,79515084,,-0.09879632044908924,-0.6160097985949323,0.07819229671989342,0.995561205498533,0.09352316854878567,-0.004347992200907397,0.009612388606588636
1668680908.0878396,71790,1668680908,87683869,,-0.09879652534191664,-0.616009798585568,0.07819229671967386,0.9955612055699272,0.09352316849861972,-0.004347988166270274,0.009612383525325756
1668680908.0955327,71791,1668680908,95421119,,-0.09879671731025742,-0.6160097985763707,0.0781922967194606,0.9955612056420499,0.09352316844843755,-0.00434798411337631,0.009612378377033277
1668680908.1039536,71792,1668680908,103639818,,-0.09879689699664383,-0.6160097985673446,0.0781922967192536,0.9955612057148858,0.09352316839824566,-0.004347980042889037,0.009612373162902168
1668680908.111897,71793,1668680908,111776076,,-0.09879706501706675,-0.6160097985584936,0.07819229671905288,0.9955612057884202,0.09352316834805072,-0.004347975955469263,0.009612367884122473
1668680908.1195054,71794,1668680908,119400306,,-0.09879722196185818,-0.6160097985498205,0.07819229671885833,0.995561205862638,0.09352316829785919,-0.004347971851774429,0.009612362541882885
1668680908.1277475,71795,1668680908,127578208,,-0.09879736839655352,-0.6160097985413282,0.07819229671867019,0.9955612059375243,0.09352316824767731,-0.004347967732459024,0.00961235713737073
1668680908.1356993,71796,1668680908,135473990,,-0.09879750486273536,-0.6160097985330182,0.07819229671848804,0.9955612060130643,0.09352316819751148,-0.004347963598174319,0.009612351671772254
1668680908.1440508,71797,1668680908,143912743,,-0.0987976318788577,-0.6160097985248925,0.07819229671831203,0.995561206089243,0.09352316814736818,-0.004347959449568222,0.00961234614627177
1668680908.1523554,71798,1668680908,152120358,,-0.09879774994105163,-0.6160097985169518,0.07819229671814215,0.9955612061660458,0.09352316809725326,-0.004347955287285515,0.00961234056205179
1668680908.1597912,71799,1668680908,159662623,,-0.09879785952390863,-0.6160097985091972,0.07819229671797816,0.9955612062434576,0.09352316804717349,-0.004347951111967421,0.009612334920293219
1668680908.1677468,71800,1668680908,167595396,,-0.0987979610812484,-0.616009798501629,0.07819229671782006,0.9955612063214637,0.09352316799713446,-0.004347946924251896,0.0096123292221749
1668680908.175382,71801,1668680908,175290036,,-0.0987980550468632,-0.6160097984942469,0.07819229671766756,0.9955612064000497,0.09352316794714259,-0.0043479427247731925,0.0096123234688732
1668680908.1835845,71802,1668680908,183489243,,-0.09879814183524578,-0.6160097984870504,0.0781922967175207,0.9955612064792008,0.09352316789720365,-0.004347938514162317,0.00961231766156269
1668680908.191641,71803,1668680908,191538536,,-0.0987982218422957,-0.616009798480039,0.07819229671737937,0.9955612065589021,0.09352316784732377,-0.004347934293046591,0.009612311801415254
1668680908.2003198,71804,1668680908,200073996,,-0.09879829544600831,-0.6160097984732119,0.07819229671724354,0.9955612066391395,0.09352316779750885,-0.004347930062049693,0.009612305889600473
1668680908.2090394,71805,1668680908,208875050,,-0.09879836300714352,-0.616009798466568,0.07819229671711296,0.9955612067198981,0.09352316774776459,-0.004347925821791541,0.009612299927284983
1668680908.2158017,71806,1668680908,215635439,,-0.09879842486987549,-0.6160097984601048,0.07819229671698742,0.9955612068011634,0.09352316769809714,-0.004347921572888281,0.009612293915632446
1668680908.2234082,71807,1668680908,223222963,,-0.09879848136242533,-0.616009798453822,0.07819229671686696,0.9955612068829215,0.0935231676485118,-0.004347917315952593,0.009612287855804428
1668680908.23161,71808,1668680908,231472135,,-0.09879853279767266,-0.6160097984477164,0.07819229671675132,0.9955612069651575,0.09352316759901468,-0.004347913051592904,0.009612281748958505
1668680908.2396855,71809,1668680908,239559472,,-0.09879857947375198,-0.6160097984417868,0.0781922967166407,0.9955612070478572,0.09352316754961121,-0.004347908780414195,0.009612275596249891
1668680908.2478023,71810,1668680908,247655246,,-0.09879862167462904,-0.6160097984360308,0.07819229671653469,0.9955612071310064,0.09352316750030713,-0.004347904503017202,0.009612269398829738
1668680908.2554965,71811,1668680908,255363770,,-0.09879865967066004,-0.6160097984304455,0.07819229671643323,0.9955612072145908,0.09352316745110763,-0.0043479002199986305,0.009612263157846128
1668680908.2639472,71812,1668680908,263822469,,-0.09879869371913383,-0.6160097984250282,0.07819229671633605,0.9955612072985962,0.09352316740201867,-0.004347895931951495,0.009612256874443876
1668680908.2720401,71813,1668680908,271823768,,-0.09879872406479737,-0.6160097984197773,0.07819229671624325,0.9955612073830088,0.09352316735304524,-0.004347891639464568,0.009612250549763826
1668680908.2797818,71814,1668680908,279583571,,-0.0987987509403628,-0.6160097984146892,0.07819229671615457,0.9955612074678144,0.0935231673041928,-0.00434788734312251,0.009612244184943091
1668680908.287993,71815,1668680908,287845051,,-0.0987987745670007,-0.6160097984097609,0.07819229671606975,0.9955612075529989,0.09352316725546654,-0.004347883043505692,0.009612237781114929
1668680908.2959733,71816,1668680908,295778422,,-0.09879879515481423,-0.6160097984049899,0.07819229671598901,0.9955612076385486,0.09352316720687195,-0.004347878741190478,0.009612231339408552
1668680908.3039281,71817,1668680908,303606390,,-0.09879881290330068,-0.616009798400373,0.07819229671591203,0.9955612077244493,0.09352316715841394,-0.004347874436749133,0.009612224860949089
1668680908.3117254,71818,1668680908,311549298,,-0.09879882800179478,-0.616009798395907,0.07819229671583872,0.9955612078106876,0.09352316711009794,-0.004347870130749504,0.009612218346857656
1668680908.319734,71819,1668680908,319551231,,-0.09879884062989872,-0.6160097983915886,0.07819229671576884,0.9955612078972497,0.09352316706192859,-0.004347865823754866,0.009612211798250565
1668680908.3277867,71820,1668680908,327608360,,-0.09879885095789656,-0.6160097983874152,0.07819229671570234,0.9955612079841216,0.09352316701391149,-0.004347861516324586,0.00961220521624006
1668680908.335324,71821,1668680908,335203956,,-0.09879885914715558,-0.6160097983833834,0.07819229671563921,0.9955612080712904,0.09352316696605094,-0.004347857209013618,0.009612198601933922
1668680908.34377,71822,1668680908,343628821,,-0.09879886535051083,-0.6160097983794897,0.07819229671557902,0.9955612081587419,0.09352316691835225,-0.0043478529023720505,0.009612191956434698
1668680908.3539424,71823,1668680908,351640346,,-0.09879886971263908,-0.6160097983757304,0.07819229671552204,0.9955612082464632,0.09352316687081993,-0.00434784859694597,0.009612185280840749
1668680908.3601196,71824,1668680908,359952731,,-0.09879887237041783,-0.6160097983721035,0.078192296715468,0.9955612083344405,0.09352316682345906,-0.004347844293276873,0.009612178576245568
1668680908.3677912,71825,1668680908,367619492,,-0.0987988734532711,-0.6160097983686045,0.07819229671541661,0.9955612084226607,0.09352316677627416,-0.004347839991901542,0.009612171843737298
1668680908.3755686,71826,1668680908,375427966,,-0.09879887308350377,-0.616009798365231,0.07819229671536815,0.9955612085111106,0.09352316672926995,-0.004347835693352506,0.009612165084399327
1668680908.3834147,71827,1668680908,383259077,,-0.09879887137662192,-0.6160097983619794,0.078192296715322,0.995561208599777,0.0935231666824509,-0.004347831398157516,0.00961215829930952
1668680908.391817,71828,1668680908,391603165,,-0.09879886844164318,-0.6160097983588464,0.07819229671527864,0.995561208688647,0.09352316663582148,-0.004347827106839677,0.00961215148954112
1668680908.3996506,71829,1668680908,399557056,,-0.09879886438139328,-0.6160097983558289,0.07819229671523742,0.9955612087777072,0.09352316658938661,-0.0043478228199174285,0.009612144656161297
1668680908.4077013,71830,1668680908,407563311,,-0.09879885929279354,-0.6160097983529237,0.07819229671519859,0.9955612088669451,0.09352316654315013,-0.004347818537904726,0.009612137800232248
1668680908.4153907,71831,1668680908,415292230,,-0.09879885326713554,-0.616009798350128,0.07819229671516205,0.9955612089563477,0.09352316649711657,-0.004347814261310785,0.009612130922810621
1668680908.4240594,71832,1668680908,423704411,,-0.09879884639034586,-0.6160097983474382,0.0781922967151276,0.9955612090459022,0.09352316645129054,-0.004347809990639921,0.009612124024947082
1668680908.4319162,71833,1668680908,431585715,,-0.09879883874324102,-0.6160097983448514,0.07819229671509499,0.9955612091355962,0.09352316640567554,-0.00434780572639161,0.00961211710768675
1668680908.440031,71834,1668680908,439839640,,-0.09879883040177097,-0.6160097983423645,0.0781922967150642,0.9955612092254167,0.09352316636027627,-0.004347801469060923,0.009612110172069066
1668680908.4479103,71835,1668680908,447767902,,-0.09879882143725473,-0.6160097983399744,0.07819229671503557,0.9955612093153513,0.09352316631509684,-0.004347797219137841,0.009612103219127408
1668680908.4561582,71836,1668680908,456058026,,-0.09879881191660494,-0.6160097983376787,0.0781922967150084,0.9955612094053878,0.09352316627014123,-0.004347792977107484,0.009612096249889292
1668680908.4633229,71837,1668680908,463212580,,-0.09879880190254449,-0.616009798335474,0.07819229671498294,0.995561209495514,0.09352316622541326,-0.004347788743450349,0.009612089265376298
1668680908.4716449,71838,1668680908,471471931,,-0.09879879145381318,-0.6160097983333572,0.07819229671495902,0.995561209585717,0.09352316618091706,-0.004347784518641702,0.00961208226660322
1668680908.479617,71839,1668680908,479512444,,-0.09879878062536743,-0.6160097983313263,0.07819229671493667,0.9955612096759854,0.09352316613665629,-0.0043477803031523295,0.009612075254579551
1668680908.487819,71840,1668680908,487680841,,-0.09879876946857004,-0.6160097983293781,0.07819229671491593,0.9955612097663066,0.09352316609263489,-0.00434777609744772,0.009612068230307688
1668680908.4955366,71841,1668680908,495331135,,-0.09879875803137354,-0.61600979832751,0.07819229671489637,0.9955612098566687,0.09352316604885647,-0.004347771901988504,0.009612061194784102
1668680908.5036998,71842,1668680908,503578538,,-0.09879874635849444,-0.6160097983257193,0.07819229671487829,0.9955612099470601,0.09352316600532455,-0.004347767717230484,0.009612054148998506
1668680908.5117478,71843,1668680908,511562435,,-0.0987987344915808,-0.6160097983240032,0.07819229671486132,0.9955612100374687,0.09352316596204314,-0.004347763543624421,0.009612047093934326
1668680908.5197318,71844,1668680908,519544953,,-0.0987987224693729,-0.6160097983223596,0.07819229671484566,0.9955612101278829,0.09352316591901555,-0.004347759381615956,0.009612040030568175
1668680908.527547,71845,1668680908,527415644,,-0.0987987103278562,-0.6160097983207856,0.07819229671483098,0.9955612102182911,0.09352316587624535,-0.00434775523164569,0.009612032959869943
1668680908.5354545,71846,1668680908,535345013,,-0.09879869810040832,-0.6160097983192793,0.07819229671481738,0.9955612103086817,0.093523165833736,-0.004347751094149458,0.009612025882803013
1668680908.543733,71847,1668680908,543565980,,-0.09879868581793894,-0.6160097983178378,0.07819229671480475,0.9955612103990433,0.09352316579149095,-0.004347746969557755,0.009612018800323719
1668680908.5518847,71848,1668680908,551725037,,-0.09879867350902419,-0.6160097983164592,0.0781922967147931,0.9955612104893647,0.09352316574951333,-0.0043477428582962005,0.009612011713381654
1668680908.5599303,71849,1668680908,559740863,,-0.09879866120003421,-0.6160097983151409,0.07819229671478244,0.9955612105796343,0.09352316570780651,-0.004347738760785148,0.009612004622919352
1668680908.567696,71850,1668680908,567494924,,-0.09879864891525592,-0.6160097983138811,0.07819229671477239,0.9955612106698414,0.09352316566637356,-0.004347734677440026,0.009611997529872119
1668680908.575589,71851,1668680908,575434430,,-0.09879863667700933,-0.6160097983126779,0.07819229671476324,0.9955612107599748,0.0935231656252175,-0.004347730608671072,0.009611990435168652
1668680908.5851388,71852,1668680908,584963754,,-0.09879862450575912,-0.6160097983115285,0.07819229671475501,0.9955612108500232,0.09352316558434165,-0.004347726554883395,0.009611983339730177
1668680908.592142,71853,1668680908,591938368,,-0.09879861242022095,-0.616009798310431,0.07819229671474734,0.9955612109399763,0.09352316554374895,-0.004347722516477042,0.00961197624447058
1668680908.6000233,71854,1668680908,599824853,,-0.09879860043746214,-0.616009798309384,0.07819229671474015,0.995561211029823,0.09352316550344245,-0.004347718493846726,0.009611969150296636
1668680908.6077712,71855,1668680908,607606403,,-0.0987985885729993,-0.6160097983083851,0.07819229671473366,0.9955612111195526,0.09352316546342491,-0.004347714487382261,0.009611962058107916
1668680908.6156895,71856,1668680908,615485273,,-0.09879857684088927,-0.6160097983074327,0.07819229671472794,0.9955612112091549,0.09352316542369916,-0.004347710497468201,0.009611954968796594
1668680908.6238923,71857,1668680908,623640661,,-0.09879856525381753,-0.6160097983065249,0.07819229671472253,0.9955612112986192,0.09352316538426783,-0.004347706524483768,0.009611947883246935
1668680908.6316946,71858,1668680908,631539765,,-0.09879855382318056,-0.6160097983056603,0.07819229671471777,0.9955612113879349,0.0935231653451339,-0.004347702568803298,0.009611940802336209
1668680908.6396742,71859,1668680908,639519323,,-0.09879854255916617,-0.6160097983048366,0.07819229671471367,0.9955612114770921,0.09352316530629996,-0.004347698630795789,0.009611933726934035
1668680908.6478734,71860,1668680908,647746352,,-0.09879853147082869,-0.6160097983040527,0.07819229671470988,0.9955612115660806,0.09352316526776837,-0.004347694710824968,0.009611926657902295
1668680908.6557822,71861,1668680908,655662585,,-0.09879852056616005,-0.6160097983033068,0.0781922967147064,0.9955612116548903,0.09352316522954185,-0.004347690809249614,0.009611919596095288
1668680908.663376,71862,1668680908,663265306,,-0.09879850985215836,-0.6160097983025973,0.0781922967147035,0.9955612117435111,0.09352316519162307,-0.004347686926422924,0.009611912542359314
1668680908.6719556,71863,1668680908,671783333,,-0.09879849933489317,-0.6160097983019228,0.07819229671470078,0.9955612118319335,0.09352316515401408,-0.004347683062693197,0.009611905497533657
1668680908.6799128,71864,1668680908,679800774,,-0.09879848901956614,-0.6160097983012818,0.07819229671469861,0.9955612119201473,0.09352316511671735,-0.004347679218403407,0.009611898462448946
1668680908.6877484,71865,1668680908,687638807,,-0.09879847891056938,-0.616009798300673,0.07819229671469664,0.9955612120081433,0.09352316507973527,-0.0043476753938914954,0.009611891437928614
1668680908.6952276,71866,1668680908,695129442,,-0.0987984690115412,-0.6160097983000953,0.07819229671469492,0.9955612120959119,0.09352316504306996,-0.004347671589489921,0.009611884424787834
1668680908.7036488,71867,1668680908,703518657,,-0.09879845932541807,-0.6160097982995467,0.07819229671469327,0.9955612121834434,0.09352316500672356,-0.004347667805525994,0.009611877423833978
1668680908.711739,71868,1668680908,711636288,,-0.09879844985448466,-0.6160097982990266,0.0781922967146921,0.9955612122707287,0.09352316497069828,-0.004347664042321963,0.009611870435866532
1668680908.7196853,71869,1668680908,719571703,,-0.09879844060042023,-0.6160097982985339,0.07819229671469122,0.9955612123577584,0.09352316493499635,-0.004347660300194822,0.009611863461676924
1668680908.7280874,71870,1668680908,727901890,,-0.09879843156434415,-0.6160097982980665,0.07819229671469048,0.9955612124445236,0.09352316489961957,-0.0043476565794561065,0.009611856502048316
1668680908.735801,71871,1668680908,735535710,,-0.09879842274685682,-0.6160097982976243,0.07819229671468986,0.995561212531015,0.0935231648645702,-0.004347652880412516,0.009611849557756243
1668680908.7441003,71872,1668680908,743887920,,-0.09879841414808047,-0.6160097982972055,0.07819229671468968,0.9955612126172241,0.09352316482984965,-0.0043476492033653205,0.009611842629567793
1668680908.7519135,71873,1668680908,751813532,,-0.09879840576769576,-0.6160097982968097,0.07819229671468952,0.9955612127031418,0.09352316479546009,-0.004347645548610553,0.009611835718241984
1668680908.7597837,71874,1668680908,759598560,,-0.09879839760497809,-0.6160097982964355,0.07819229671468945,0.9955612127887595,0.09352316476140317,-0.004347641916439108,0.00961182882452939
1668680908.767733,71875,1668680908,767584504,,-0.0987983896588307,-0.6160097982960818,0.07819229671468966,0.9955612128740687,0.09352316472768046,-0.004347638307136806,0.009611821949173033
1668680908.7755158,71876,1668680908,775373551,,-0.0987983819278163,-0.6160097982957481,0.07819229671468991,0.995561212959061,0.09352316469429366,-0.004347634720983981,0.009611815092906968
1668680908.7838244,71877,1668680908,783643973,,-0.09879837441018663,-0.616009798295433,0.07819229671469019,0.9955612130437277,0.09352316466124451,-0.004347631158256035,0.009611808256457282
1668680908.7916498,71878,1668680908,791523217,,-0.09879836710391061,-0.6160097982951357,0.07819229671469072,0.9955612131280609,0.0935231646285347,-0.004347627619223066,0.009611801440541943
1668680908.7996118,71879,1668680908,799511436,,-0.09879836000670106,-0.6160097982948557,0.07819229671469127,0.9955612132120523,0.09352316459616554,-0.004347624104150103,0.009611794645870418
1668680908.8080304,71880,1668680908,807844334,,-0.09879835311603896,-0.6160097982945921,0.07819229671469187,0.9955612132956936,0.09352316456413855,-0.004347620613296812,0.00961178787314368
1668680908.8153327,71881,1668680908,815220062,,-0.09879834642919662,-0.616009798294344,0.07819229671469266,0.9955612133789773,0.09352316453245503,-0.0043476171469179065,0.009611781123054762
1668680908.823814,71882,1668680908,823623735,,-0.09879833994326007,-0.616009798294111,0.0781922967146933,0.9955612134618954,0.09352316450111638,-0.0043476137052627485,0.00961177439628772
1668680908.8314955,71883,1668680908,831387216,,-0.09879833365514948,-0.6160097982938918,0.07819229671469426,0.9955612135444404,0.09352316447012374,-0.004347610288575806,0.009611767693518871
1668680908.8396785,71884,1668680908,839496833,,-0.09879832756163752,-0.616009798293686,0.07819229671469503,0.9955612136266042,0.09352316443947854,-0.004347606897096173,0.009611761015415226
1668680908.8478286,71885,1668680908,847713973,,-0.09879832165936876,-0.6160097982934929,0.07819229671469607,0.9955612137083798,0.09352316440918164,-0.004347603531057928,0.009611754362636112
1668680908.8556926,71886,1668680908,855571627,,-0.09879831594487515,-0.6160097982933121,0.07819229671469705,0.9955612137897596,0.09352316437923446,-0.004347600190690054,0.009611747735832284
1668680908.8637216,71887,1668680908,863514592,,-0.09879831041459218,-0.6160097982931428,0.07819229671469802,0.9955612138707363,0.09352316434963795,-0.0043475968762163265,0.009611741135645589
1668680908.871975,71888,1668680908,871820520,,-0.09879830506487385,-0.6160097982929846,0.07819229671469902,0.9955612139513027,0.09352316432039315,-0.004347593587855614,0.009611734562709666
1668680908.8820853,71889,1668680908,879636455,,-0.0987982998920062,-0.6160097982928366,0.07819229671470022,0.995561214031452,0.09352316429150086,-0.004347590325821487,0.009611728017649656
1668680908.8877711,71890,1668680908,887650776,,-0.0987982948922195,-0.6160097982926989,0.07819229671470114,0.995561214111177,0.09352316426296228,-0.004347587090322571,0.0096117215010819
1668680908.8959703,71891,1668680908,895788948,,-0.09879829006170075,-0.6160097982925701,0.07819229671470226,0.9955612141904708,0.09352316423477784,-0.0043475838815624415,0.009611715013614519
1668680908.9037924,71892,1668680908,903652535,,-0.09879828539660383,-0.6160097982924502,0.07819229671470328,0.9955612142693271,0.09352316420694866,-0.004347580699739675,0.009611708555846966
1668680908.9116936,71893,1668680908,911506366,,-0.09879828089306107,-0.616009798292339,0.07819229671470425,0.9955612143477388,0.09352316417947537,-0.00434757754504775,0.00961170212837039
1668680908.9197712,71894,1668680908,919631989,,-0.09879827654719096,-0.6160097982922357,0.0781922967147052,0.9955612144256996,0.09352316415235881,-0.0043475744176750515,0.009611695731766713
1668680908.9275703,71895,1668680908,927481034,,-0.09879827235510809,-0.61600979829214,0.07819229671470625,0.995561214503203,0.0935231641255994,-0.004347571317805225,0.009611689366609909
1668680908.9357457,71896,1668680908,935625594,,-0.09879826831293032,-0.6160097982920513,0.07819229671470725,0.9955612145802429,0.09352316409919781,-0.004347568245616745,0.00961168303346509
1668680908.9433904,71897,1668680908,943262668,,-0.0987982644167867,-0.6160097982919689,0.07819229671470813,0.995561214656813,0.09352316407315459,-0.004347565201283134,0.009611676732888786
1668680908.9516418,71898,1668680908,951498117,,-0.09879826066282446,-0.6160097982918936,0.07819229671470944,0.9955612147329073,0.09352316404747026,-0.004347562184973105,0.009611670465429408
1668680908.9597037,71899,1668680908,959496931,,-0.09879825704721411,-0.616009798291824,0.07819229671471026,0.9955612148085196,0.09352316402214514,-0.004347559196850177,0.009611664231625806
1668680908.9676042,71900,1668680908,967506335,,-0.09879825356615635,-0.6160097982917604,0.07819229671471134,0.9955612148836444,0.09352316399717962,-0.00434755623707332,0.009611658032009297
1668680908.9753842,71901,1668680908,975244406,,-0.09879825021588616,-0.6160097982917015,0.0781922967147123,0.9955612149582755,0.09352316397257447,-0.00434755330579629,0.009611651867101776
1668680908.9837787,71902,1668680908,983552726,,-0.09879824699267867,-0.616009798291648,0.07819229671471328,0.9955612150324079,0.09352316394832934,-0.004347550403168204,0.009611645737417034
1668680908.991803,71903,1668680908,991662989,,-0.09879824389285223,-0.6160097982915993,0.0781922967147143,0.9955612151060356,0.0935231639244448,-0.004347547529333333,0.00961163964346027
1668680908.9998338,71904,1668680908,999695554,,-0.09879824091277263,-0.6160097982915552,0.07819229671471534,0.9955612151791531,0.09352316390092116,-0.004347544684430782,0.009611633585727745
1668680909.0075939,71905,1668680909,7469440,,-0.09879823804885686,-0.6160097982915151,0.0781922967147161,0.9955612152517554,0.0935231638777583,-0.004347541868595125,0.00961162756470735
1668680909.015637,71906,1668680909,15458435,,-0.09879823529757592,-0.616009798291479,0.07819229671471689,0.9955612153238372,0.09352316385495645,-0.004347539081956263,0.0096116215808785
1668680909.0238545,71907,1668680909,23621737,,-0.09879823265545737,-0.6160097982914469,0.07819229671471765,0.9955612153953934,0.09352316383251572,-0.004347536324639214,0.009611615634712285
1668680909.0320225,71908,1668680909,31851193,,-0.0987982301190874,-0.6160097982914181,0.07819229671471857,0.9955612154664191,0.09352316381043607,-0.0043475335967641604,0.009611609726670625
1668680909.0398936,71909,1668680909,39714544,,-0.0987982276851141,-0.6160097982913925,0.07819229671471938,0.9955612155369091,0.0935231637887174,-0.004347530898446429,0.009611603857207097
1668680909.0478055,71910,1668680909,47626036,,-0.0987982253502478,-0.61600979829137,0.07819229671472008,0.995561215606859,0.09352316376735968,-0.0043475282297970996,0.009611598026767056
1668680909.0557117,71911,1668680909,55593636,,-0.09879822184968048,-0.6160097997776176,0.07819229671472083,0.9955612156762638,0.09352316374636291,-0.004347525590922189,0.009611592235787125
1668680909.0634654,71912,1668680909,63326486,,-0.0987982122361181,-0.6160098085748065,0.0781922967147217,0.9955612157451192,0.09352316372572665,-0.004347522981923244,0.009611586484695086
1668680909.071769,71913,1668680909,71620528,,-0.09879818691902552,-0.6160098359778746,0.07819229671472148,0.9955612158134207,0.09352316370545091,-0.004347520402897446,0.009611580773910774
1668680909.0797596,71914,1668680909,79581601,,-0.09879813205062811,-0.6160098982972739,0.07819229671471896,0.9955612158811639,0.09352316368553532,-0.004347517853937112,0.009611575103844963
1668680909.087819,71915,1668680909,87707140,,-0.09879802988991271,-0.6160100164301348,0.07819229671470744,0.9955612159483446,0.09352316366597957,-0.004347515335130339,0.009611569474900238
1668680909.0958474,71916,1668680909,95753237,,-0.09879785914564566,-0.6160102154561427,0.07819229671467465,0.9955612160149586,0.09352316364678324,-0.004347512846560891,0.009611563887471194
1668680909.1034613,71917,1668680909,103247850,,-0.09879759529938931,-0.6160105242569681,0.07819229671459525,0.9955612160810019,0.09352316362794609,-0.0043475103883078734,0.009611558341943981
1668680909.1117465,71918,1668680909,111640486,,-0.09879721090946285,-0.6160109751581475,0.07819229671442582,0.9955612161464708,0.0935231636094677,-0.004347507960446449,0.009611552838696793
1668680909.1197414,71919,1668680909,119628709,,-0.09879667589674736,-0.616011603592338,0.07819229671409743,0.9955612162113608,0.09352316359134748,-0.004347505563047413,0.009611547378100122
1668680909.1277168,71920,1668680909,127570287,,-0.0987959578132134,-0.6160124477829277,0.07819229671350693,0.9955612162756687,0.09352316357358494,-0.004347503196177816,0.009611541960517013
1668680909.1352744,71921,1668680909,135165225,,-0.09879502209400069,-0.6160135484470171,0.07819229671250752,0.9955612163393909,0.09352316355617955,-0.004347500859900787,0.00961153658630365
1668680909.1443534,71922,1668680909,144164448,,-0.09879383229385598,-0.6160149485168191,0.07819229671089903,0.9955612164025235,0.0935231635391307,-0.004347498554275554,0.009611531255808768
1668680909.1524572,71923,1668680909,152292827,,-0.0987923503086986,-0.6160166928785848,0.07819229670841826,0.9955612164650631,0.09352316352243759,-0.0043474962793582025,0.009611525969375796
1668680909.1609306,71924,1668680909,160774401,,-0.09879053658305104,-0.6160188281281728,0.07819229670472722,0.9955612165270065,0.09352316350609975,-0.004347494035201293,0.009611520727341288
1668680909.1680098,71925,1668680909,167681543,,-0.09878835030404454,-0.6160214023424352,0.0781922966994044,0.9955612165883501,0.09352316349011626,-0.004347491821854482,0.00961151553003637
1668680909.1755366,71926,1668680909,175398097,,-0.09878574958267576,-0.6160244648656218,0.0781922966919336,0.9955612166490907,0.09352316347448658,-0.004347489639364347,0.009611510377787342
1668680909.183718,71927,1668680909,183618516,,-0.0987826916229682,-0.616028066110034,0.07819229668169546,0.9955612167092253,0.09352316345920961,-0.0043474874877748974,0.009611505270915586
1668680909.1919606,71928,1668680909,191816243,,-0.09877913287965776,-0.616032257370197,0.07819229666795816,0.9955612167687502,0.09352316344428449,-0.004347485367127763,0.009611500209738328
1668680909.1998315,71929,1668680909,199647553,,-0.0987750292049994,-0.6160370906498494,0.0781922966498696,0.9955612168276627,0.09352316342971065,-0.004347483277462129,0.009611495194568833
1668680909.2077582,71930,1668680909,207563265,,-0.09877033598526812,-0.6160426185010754,0.0781922966264506,0.9955612168859598,0.0935231634154868,-0.00434748121881533,0.009611490225717192
1668680909.2157547,71931,1668680909,215607108,,-0.09876500826749422,-0.6160488938749418,0.07819229659658912,0.9955612169436383,0.09352316340161197,-0.004347479191222813,0.009611485303490576
1668680909.2237773,71932,1668680909,223555022,,-0.09875900087696006,-0.6160559699830181,0.07819229655903535,0.9955612170006952,0.09352316338808549,-0.004347477194718308,0.00961148042819339
1668680909.2316709,71933,1668680909,231555837,,-0.0987522685259549,-0.6160639001692033,0.07819229651239835,0.9955612170571276,0.09352316337490568,-0.004347475229334257,0.009611475600128011
1668680909.2397108,71934,1668680909,239607393,,-0.09874476591426186,-0.6160727377912817,0.07819229645514357,0.9955612171129326,0.09352316336207185,-0.004347473295101915,0.009611470819594988
1668680909.247686,71935,1668680909,247537113,,-0.09873644782183745,-0.6160825361116904,0.0781922963855923,0.9955612171681072,0.09352316334958273,-0.004347471392051343,0.0096114660868939
1668680909.2555933,71936,1668680909,255419875,,-0.09872726919411286,-0.6160933481969674,0.07819229630192108,0.9955612172226486,0.09352316333743713,-0.004347469520211536,0.009611461402322496
1668680909.2637208,71937,1668680909,263600180,,-0.09871718522033567,-0.6161052268254079,0.0781922962021641,0.9955612172765538,0.0935231633256336,-0.004347467679611071,0.009611456766178318
1668680909.2717707,71938,1668680909,271625193,,-0.09870615140534446,-0.6161182244024497,0.07819229608421494,0.9955612173298201,0.09352316331417103,-0.004347465870277727,0.009611452178758417
1668680909.2799916,71939,1668680909,279817374,,-0.09869412363515592,-0.6161323928833504,0.07819229594583077,0.9955612173824444,0.09352316330304798,-0.004347464092238806,0.00961144764035913
1668680909.2877474,71940,1668680909,287623316,,-0.0986810582367236,-0.6161477837027275,0.07819229578463718,0.995561217434424,0.09352316329226312,-0.004347462345521127,0.00961144315127684
1668680909.295423,71941,1668680909,295285612,,-0.09866691203220959,-0.6161644477105628,0.0781922955981335,0.9955612174857563,0.0935231632818151,-0.004347460630151359,0.009611438711808123
1668680909.303776,71942,1668680909,303604571,,-0.09865164238809748,-0.6161824351142775,0.07819229538370068,0.9955612175364382,0.09352316327170218,-0.004347458946156135,0.009611434322250293
1668680909.311928,71943,1668680909,311684390,,-0.09863520725945606,-0.6162017954265204,0.0781922951386075,0.9955612175864668,0.09352316326192293,-0.004347457293561684,0.009611429982900387
1668680909.3198588,71944,1668680909,319725814,,-0.09861756522964898,-0.6162225774183121,0.07819229486002004,0.9955612176358393,0.09352316325247614,-0.0043474556723940615,0.009611425694056092
1668680909.3279946,71945,1668680909,327840915,,-0.09859867554577523,-0.6162448290772202,0.07819229454501009,0.9955612176845529,0.09352316324335996,-0.004347454082679687,0.009611421456015791
1668680909.3357522,71946,1668680909,335499376,,-0.09857849815010254,-0.6162685975702432,0.07819229419056488,0.9955612177326048,0.0935231632345725,-0.004347452524444734,0.009611417269078347
1668680909.3446856,71947,1668680909,344551882,,-0.09855699370775152,-0.6162939292111088,0.07819229379359781,0.9955612177799921,0.09352316322611251,-0.004347450997715472,0.009611413133542971
1668680909.3526256,71948,1668680909,352412942,,-0.09853412363087255,-0.6163208694316972,0.07819229335095808,0.9955612178267118,0.09352316321797814,-0.004347449502518062,0.009611409049709904
1668680909.3604326,71949,1668680909,360118057,,-0.09850985009954188,-0.6163494627573183,0.07819229285944179,0.9955612178727615,0.0935231632101674,-0.004347448038878899,0.0096114050178793
1668680909.3676572,71950,1668680909,367483101,,-0.09848413607959698,-0.6163797527855904,0.07819229231580382,0.9955612179181378,0.09352316320267888,-0.004347446606824242,0.009611401038352136
1668680909.3757505,71951,1668680909,375592556,,-0.09845694533761733,-0.6164117821686738,0.07819229171676774,0.9955612179628383,0.09352316319551032,-0.004347445206380275,0.009611397111429403
1668680909.3834503,71952,1668680909,383301262,,-0.0984282424532454,-0.6164455925986222,0.07819229105903784,0.9955612180068598,0.09352316318866026,-0.004347443837573113,0.009611393237412034
1668680909.391611,71953,1668680909,391508852,,-0.09839799282903436,-0.616481224795646,0.07819229033931101,0.9955612180501998,0.09352316318212654,-0.004347442500429009,0.009611389416601637
1668680909.3996933,71954,1668680909,399565883,,-0.0983661626979985,-0.6165187184990647,0.07819228955428673,0.995561218092855,0.09352316317590731,-0.004347441194973707,0.009611385649299194
1668680909.4076993,71955,1668680909,407502205,,-0.09833271912903169,-0.6165581124607661,0.0781922887006786,0.9955612181348231,0.09352316317000069,-0.004347439921232888,0.009611381935805251
1668680909.41573,71956,1668680909,415556285,,-0.09829763003035244,-0.6165994444409731,0.07819228777522595,0.995561218176101,0.0935231631644045,-0.0043474386792317545,0.00961137827642019
1668680909.4237607,71957,1668680909,423531668,,-0.09826086415112387,-0.6166427512061531,0.07819228677470322,0.9955612182166859,0.09352316315911678,-0.004347437468995231,0.009611374671443225
1668680909.4319823,71958,1668680909,431841343,,-0.09822239108139004,-0.6166880685288978,0.07819228569593112,0.995561218256575,0.09352316315413557,-0.0043474362905476195,0.009611371121172656
1668680909.4397733,71959,1668680909,439642288,,-0.09818218125046045,-0.6167354311896154,0.07819228453578574,0.9955612182957656,0.09352316314945855,-0.004347435143912784,0.0096113676259054
1668680909.4484427,71960,1668680909,448170744,,-0.09814020592386925,-0.6167848729798945,0.07819228329120939,0.9955612183342548,0.09352316314508387,-0.004347434029113886,0.009611364185937235
1668680909.4556534,71961,1668680909,455432146,,-0.09809643719902728,-0.6168364267073903,0.07819228195921836,0.9955612183720401,0.09352316314100922,-0.004347432946173113,0.00961136080156146
1668680909.4642596,71962,1668680909,464028745,,-0.09805084799967881,-0.6168901242021073,0.07819228053691246,0.9955612184091187,0.09352316313723248,-0.0043474318951120155,0.009611357473070115
1668680909.4724722,71963,1668680909,472098303,,-0.09800341206926681,-0.6169459963239541,0.07819227902148224,0.995561218445488,0.09352316313375134,-0.0043474308759507505,0.009611354200752141
1668680909.4799457,71964,1668680909,479723951,,-0.09795410396330778,-0.6170040729714495,0.07819227741021771,0.9955612184811448,0.09352316313056373,-0.004347429888708652,0.009611350984893931
1668680909.4875882,71965,1668680909,487484621,,-0.09790289904086857,-0.617064383091476,0.07819227570051433,0.9955612185160874,0.09352316312766738,-0.004347428933403763,0.009611347825779323
1668680909.4958267,71966,1668680909,495723365,,-0.09784977345523106,-0.6171269546899724,0.07819227388988023,0.9955612185503127,0.09352316312505986,-0.00434742801005283,0.009611344723688395
1668680909.5045485,71967,1668680909,504411053,,-0.09779470414382971,-0.6171918148434676,0.07819227197594215,0.9955612185838181,0.09352316312273927,-0.0043474271186707825,0.009611341678897801
1668680909.5115738,71968,1668680909,511475580,,-0.09773766881753788,-0.6172589897113738,0.07819226995645093,0.9955612186166015,0.0935231631207029,-0.0043474262592714365,0.00961133869168071
1668680909.519744,71969,1668680909,519614135,,-0.09767864594937412,-0.6173285045489391,0.0781922678292854,0.9955612186486601,0.09352316311894855,-0.004347425431866313,0.00961133576230532
1668680909.5277183,71970,1668680909,527563470,,-0.09761761476269865,-0.6174003837207942,0.078192265592458,0.9955612186799918,0.09352316311747368,-0.004347424636465485,0.009611332891035822
1668680909.535665,71971,1668680909,535545972,,-0.09755455521896106,-0.6174746507150074,0.07819226324411811,0.9955612187105941,0.09352316311627629,-0.004347423873077108,0.009611330078131407
1668680909.5434237,71972,1668680909,543276086,,-0.09748944800506139,-0.6175513281575845,0.07819226078255452,0.995561218740465,0.09352316311535357,-0.00434742314170692,0.009611327323846473
1668680909.5517015,71973,1668680909,551589582,,-0.09742227452037588,-0.6176304378273457,0.07819225820619918,0.995561218769602,0.09352316311470342,-0.004347422442358787,0.009611324628429648
1668680909.5597928,71974,1668680909,559638681,,-0.09735301686350428,-0.6177120006711186,0.0781922555136287,0.9955612187980031,0.0935231631143233,-0.004347421775033793,0.009611321992123754
1668680909.567602,71975,1668680909,567476488,,-0.09728165781878226,-0.6177960368191928,0.078192252703566,0.9955612188256664,0.09352316311421079,-0.004347421139731211,0.009611319415166098
1668680909.575406,71976,1668680909,575289736,,-0.09720818084260559,-0.6178825656009779,0.0781922497748817,0.9955612188525896,0.09352316311436372,-0.004347420536447432,0.009611316897787277
1668680909.5837064,71977,1668680909,583581936,,-0.09713257004960943,-0.6179716055608244,0.07819224672659443,0.995561218878771,0.09352316311477929,-0.004347419965175996,0.00961131444021125
1668680909.591769,71978,1668680909,591639909,,-0.0970548101987383,-0.6180631744739551,0.0781922435578716,0.9955612189042088,0.09352316311545512,-0.0043474194259081386,0.009611312042655739
1668680909.599665,71979,1668680909,599495560,,-0.09697488667924366,-0.6181572893624654,0.07819224026802832,0.9955612189289011,0.09352316311638868,-0.004347418918631755,0.009611309705330657
1668680909.6077178,71980,1668680909,607569692,,-0.0968927854966446,-0.6182539665113586,0.07819223685652733,0.9955612189528464,0.09352316311757777,-0.004347418443332095,0.009611307428438852
1668680909.6156974,71981,1668680909,615551159,,-0.09680849325867773,-0.6183532214845744,0.07819223332297787,0.9955612189760431,0.09352316311901987,-0.004347417999991328,0.009611305212175264
1668680909.6234877,71982,1668680909,623347865,,-0.09672199716126874,-0.6184550691409827,0.07819222966713447,0.9955612189984897,0.09352316312071217,-0.004347417588588103,0.009611303056727433
1668680909.631931,71983,1668680909,631720442,,-0.09663328497454894,-0.6185595236503069,0.07819222588889455,0.9955612190201849,0.09352316312265241,-0.004347417209098289,0.00961130096227453
1668680909.6400769,71984,1668680909,639834634,,-0.09654234502894139,-0.6186665985089536,0.07819222198829674,0.995561219041127,0.09352316312483824,-0.004347416861494276,0.009611298928987355
1668680909.6477463,71985,1668680909,647620420,,-0.09644916620133873,-0.6187763065557211,0.07819221796551812,0.9955612190613153,0.09352316312726691,-0.004347416545744754,0.009611296957027731
1668680909.6554155,71986,1668680909,655307470,,-0.09635373790139173,-0.6188886599873623,0.07819221382087252,0.9955612190807485,0.09352316312993599,-0.004347416261815045,0.009611295046549447
1668680909.6636145,71987,1668680909,663502340,,-0.09625605005792791,-0.6190036703739854,0.0781922095548063,0.9955612190994255,0.09352316313284312,-0.004347416009667039,0.00961129319769675
1668680909.6715467,71988,1668680909,671458137,,-0.09615609310551534,-0.6191213486742646,0.07819220516789589,0.9955612191173456,0.09352316313598572,-0.004347415789258834,0.0096112914106049
1668680909.679746,71989,1668680909,679582927,,-0.09605385797118739,-0.6192417052504564,0.07819220066084416,0.9955612191345079,0.09352316313936102,-0.00434741560054484,0.009611289685399583
1668680909.6877038,71990,1668680909,687596084,,-0.0959493360613399,-0.6193647498831915,0.07819219603447741,0.995561219150912,0.09352316314296694,-0.004347415443475681,0.00961128802219739
1668680909.6957839,71991,1668680909,695602955,,-0.09584251924881737,-0.6194904917860405,0.07819219128974032,0.9955612191665569,0.09352316314680069,-0.0043474153179980275,0.009611286421104783
1668680909.7036073,71992,1668680909,703466050,,-0.09573339986019161,-0.619618939619834,0.07819218642769349,0.9955612191814425,0.09352316315085994,-0.004347415224054732,0.009611284882218301
1668680909.7116654,71993,1668680909,711519459,,-0.09562197066325007,-0.6197501015067284,0.07819218144950855,0.9955612191955683,0.09352316315514203,-0.00434741516158456,0.00961128340562462
1668680909.7197428,71994,1668680909,719626976,,-0.09550822485469496,-0.6198839850440094,0.07819217635646418,0.995561219208934,0.09352316315964473,-0.00434741513052234,0.009611281991400043
1668680909.727765,71995,1668680909,727670122,,-0.0953921560480661,-0.6200205973176214,0.07819217114994217,0.9955612192215397,0.09352316316436562,-0.004347415130798938,0.009611280639610694
1668680909.7359488,71996,1668680909,735781854,,-0.0952737582618904,-0.6201599449154203,0.0781921658314231,0.9955612192333854,0.09352316316930195,-0.0043474151623408945,0.00961127935031249
1668680909.7434208,71997,1668680909,743288825,,-0.09515302590806297,-0.6203020339401382,0.0781921604024815,0.9955612192444708,0.0935231631744514,-0.004347415225070818,0.009611278123550516
1668680909.75185,71998,1668680909,751681199,,-0.09502995378046757,-0.6204468700220618,0.07819215486478158,0.9955612192547969,0.0935231631798114,-0.004347415318906644,0.009611276959358988
1668680909.7596495,71999,1668680909,759538672,,-0.09490453704383535,-0.6205944583314134,0.07819214922007345,0.9955612192643636,0.09352316318537962,-0.00434741544376274,0.009611275857761665
1668680909.767849,72000,1668680909,767679599,,-0.09477677122284857,-0.6207448035904384,0.07819214347018875,0.9955612192731714,0.0935231631911537,-0.004347415599549027,0.009611274818771574
1668680909.7769556,72001,1668680909,776748704,,-0.09464665219148952,-0.6208979100851907,0.07819213761703458,0.9955612192812211,0.09352316319713114,-0.004347415786170719,0.009611273842390305
1668680909.7837627,72002,1668680909,783621187,,-0.09451417616263541,-0.62105378167702,0.07819213166259115,0.9955612192885133,0.09352316320330947,-0.004347416003529223,0.009611272928609013
1668680909.7918665,72003,1668680909,791596908,,-0.09437933967790285,-0.6212124218137559,0.07819212560890658,0.9955612192950489,0.09352316320968612,-0.004347416251521596,0.009611272077407336
1668680909.7995257,72004,1668680909,799432305,,-0.09424213959773778,-0.6213738335405914,0.07819211945809258,0.995561219300829,0.09352316321625889,-0.004347416530040369,0.009611271288753926
1668680909.8076065,72005,1668680909,807482892,,-0.09410257309175674,-0.6215380195106662,0.07819211321232034,0.9955612193058546,0.09352316322302547,-0.004347416838973674,0.009611270562606506
1668680909.815508,72006,1668680909,815330407,,-0.09396063762933168,-0.6217049819953492,0.07819210687381577,0.995561219310127,0.0935231632299834,-0.004347417178205493,0.009611269898911024
1668680909.8235805,72007,1668680909,823457302,,-0.09381633097042356,-0.6218747228942234,0.07819210044485639,0.9955612193136476,0.09352316323713031,-0.004347417547615356,0.009611269297602452
1668680909.8322182,72008,1668680909,831663233,,-0.0936696511566587,-0.6220472437447734,0.07819209392776688,0.9955612193164178,0.09352316324446386,-0.004347417947078407,0.009611268758604885
1668680909.8398585,72009,1668680909,839733768,,-0.09352059650264825,-0.6222225457317827,0.0781920873249149,0.9955612193184394,0.09352316325198153,-0.004347418376465239,0.009611268281830329
1668680909.8483758,72010,1668680909,848275045,,-0.09336916558754851,-0.6224006296964355,0.0781920806387072,0.9955612193197141,0.0935231632596812,-0.004347418835642578,0.009611267867179972
1668680909.8556128,72011,1668680909,855471021,,-0.09321535724685842,-0.6225814961451345,0.07819207387158655,0.9955612193202437,0.09352316326756048,-0.004347419324472411,0.009611267514543506
1668680909.8646758,72012,1668680909,864524418,,-0.0930591705644514,-0.6227651452580342,0.07819206702602714,0.9955612193200302,0.09352316327561733,-0.004347419842812419,0.00961126722379921
1668680909.8718226,72013,1668680909,871698548,,-0.09290060486484157,-0.6229515768972929,0.07819206010453227,0.9955612193190759,0.0935231632838491,-0.004347420390516024,0.009611266994814216
1668680909.8798075,72014,1668680909,879667732,,-0.09273935401436191,-0.6231407905425097,0.07819205312316813,0.9955612193173647,0.09352316329225228,-0.004347420968141249,0.009611266829012425
1668680909.8875632,72015,1668680909,887470759,,-0.09257445577220595,-0.6233327850960931,0.07819263164752457,0.995561219314823,0.09352316330081918,-0.004347421578520729,0.00961126673284733
1668680909.895409,72016,1668680909,895263898,,-0.09240497198035011,-0.6235275590262438,0.07819464394871749,0.9955612193113537,0.09352316330954019,-0.004347422225384869,0.009611266714751269
1668680909.9036176,72017,1668680909,903496633,,-0.09223072429805158,-0.623725110880357,0.07819828282863948,0.9955612193069256,0.09352316331841051,-0.004347422909900699,0.009611266777477237
1668680909.9120061,72018,1668680909,911884923,,-0.09205152638704676,-0.6239254390091394,0.07820407024182474,0.9955612193015296,0.09352316332742787,-0.004347423632379228,0.009611266921878303
1668680909.9199023,72019,1668680909,919720957,,-0.09186700695915767,-0.6241285412433639,0.07821283079791223,0.9955612192951185,0.09352316333658707,-0.004347424394599915,0.009611267152053531
1668680909.9284604,72020,1668680909,928230121,,-0.09167700641666482,-0.6243344152949176,0.07822522134695442,0.9955612192876713,0.09352316334588451,-0.004347425197346707,0.00961126746989309
1668680909.9361243,72021,1668680909,935907157,,-0.09148085104297654,-0.6245430584104508,0.07824206982903334,0.9955612192791299,0.0935231633553143,-0.004347426042833298,0.009611267880445973
1668680909.9446106,72022,1668680909,944377871,,-0.09127813907548182,-0.6247544675834089,0.07826356893673529,0.995561219269417,0.0935231633648697,-0.004347426934032622,0.00961126839043474
1668680909.9517076,72023,1668680909,951594258,,-0.09106885691400186,-0.6249686400046826,0.07828961456106938,0.9955612192585352,0.09352316337454936,-0.004347427870807672,0.009611268999687709
1668680909.9598403,72024,1668680909,959695696,,-0.09085232021863102,-0.6251858443421212,0.07832020980092136,0.9955612192464012,0.09352316338434637,-0.004347428856366098,0.009611269715432903
1668680909.9678502,72025,1668680909,967673986,,-0.09062869557090325,-0.6254083794756655,0.07835505175671954,0.9955612192329145,0.09352316339425304,-0.00434742989460253,0.009611270546409367
1668680909.976,72026,1668680909,975854289,,-0.09039903574785864,-0.6256391711273274,0.0783937497989592,0.9955612192180645,0.09352316340426764,-0.004347430985887857,0.009611271493540156
1668680909.9835181,72027,1668680909,983316043,,-0.09016549640948553,-0.6258829245530252,0.07843567042744891,0.9955612192018967,0.09352316341439258,-0.004347432128422148,0.009611272552936114
1668680909.9918647,72028,1668680909,991705721,,-0.08992985454312732,-0.6261428665497045,0.07848021754623419,0.9955612191845014,0.09352316342463315,-0.004347433318625622,0.009611273716764668
1668680909.9996476,72029,1668680909,999508831,,-0.08969300719272733,-0.6264200233287164,0.07852695941141877,0.995561219165941,0.09352316343499237,-0.0043474345540469184,0.00961127497969686
1668680910.0077572,72030,1668680910,7634532,,-0.08945621757964489,-0.6267173481746797,0.0785752778138957,0.995561219146268,0.09352316344547322,-0.004347435832578631,0.009611276337166873
1668680910.0153532,72031,1668680910,15252676,,-0.08922004444450161,-0.6270364980584716,0.07862465406027636,0.9955612191254821,0.09352316345607385,-0.004347437154215303,0.009611277789266326
1668680910.024126,72032,1668680910,23928776,,-0.08898455743233234,-0.6273769234248798,0.07867482409277293,0.9955612191036125,0.09352316346679608,-0.004347438517774649,0.009611279333475902
1668680910.0317147,72033,1668680910,31543377,,-0.08874970622752684,-0.6277375504307549,0.07872558172459765,0.9955612190807066,0.09352316347764135,-0.004347439921363629,0.009611280965701255
1668680910.0396552,72034,1668680910,39564939,,-0.08851550381974306,-0.6281175761678311,0.0787767868401659,0.9955612190568046,0.09352316348861127,-0.004347441363396919,0.009611282682531743
1668680910.0478315,72035,1668680910,47699822,,-0.08828186850970364,-0.6285154981251659,0.07882855817319416,0.9955612190319653,0.09352316349970799,-0.004347442841532919,0.009611284478882178
1668680910.055927,72036,1668680910,55699044,,-0.08804867311036459,-0.6289296108247473,0.07888106074789152,0.995561219006258,0.0935231635109343,-0.004347444353021543,0.009611286348765803
1668680910.0638075,72037,1668680910,63595478,,-0.08781576060907503,-0.629358449025046,0.0789342413747268,0.9955612189797387,0.09352316352229263,-0.004347445895657471,0.009611288287407321
1668680910.0716927,72038,1668680910,71555086,,-0.08758297431543417,-0.6297990679488933,0.07898836771013411,0.995561218952505,0.09352316353378633,-0.004347447465583191,0.009611290286376797
1668680910.0796747,72039,1668680910,79524294,,-0.08735017266730687,-0.6302478688241626,0.07904391152853224,0.9955612189247293,0.09352316354542321,-0.004347449056036523,0.00961129233081684
1668680910.0877917,72040,1668680910,87660375,,-0.0871151827475272,-0.6306990530973416,0.07910102722701515,0.9955612188964229,0.09352316355720199,-0.004347450666525957,0.009611294419779835
1668680910.0958807,72041,1668680910,95756759,,-0.08687397245155506,-0.6311451006612105,0.07915977590371241,0.9955612188673639,0.09352316356910896,-0.004347452305663697,0.009611296572489143
1668680910.104701,72042,1668680910,104113744,,-0.08662378893307149,-0.6315815994911572,0.07922013730727483,0.9955612188373241,0.09352316358113157,-0.00434745398232027,0.009611298808710473
1668680910.1120803,72043,1668680910,111896216,,-0.08636413591536025,-0.63200755788318,0.07928194204655976,0.9955612188062445,0.09352316359326619,-0.004347455698761473,0.009611301133542421
1668680910.1204376,72044,1668680910,120269932,,-0.08609505390672924,-0.6324227985390096,0.0793449769881789,0.9955612187741532,0.0935231636055138,-0.004347457453866516,0.009611303544567384
1668680910.1275847,72045,1668680910,127491688,,-0.08581631705554858,-0.6328266240814759,0.07940887477695965,0.9955612187410362,0.09352316361787355,-0.0043474592481637965,0.009611306043021798
1668680910.1355994,72046,1668680910,135505819,,-0.08552817330903709,-0.6332190257,0.07947318125819786,0.9955612187069285,0.09352316363034625,-0.004347461080271045,0.009611308625902606
1668680910.143532,72047,1668680910,143327359,,-0.08523088123436058,-0.6336011377863491,0.07953779285131879,0.9955612186718326,0.09352316364293178,-0.0043474629500671125,0.009611311293000354
1668680910.1519644,72048,1668680910,151869006,,-0.0849248390842832,-0.6339743253775982,0.0796027028805574,0.9955612186357166,0.09352316365562868,-0.004347464858765633,0.009611314047063077
1668680910.1596014,72049,1668680910,159504001,,-0.08461055108065124,-0.6343396068434396,0.07966783604174865,0.9955612185986227,0.09352316366843859,-0.004347466804713436,0.009611316884474497
1668680910.1677794,72050,1668680910,167652358,,-0.08428956201621302,-0.6346997783100017,0.0797327214782862,0.9955612185606221,0.09352316368136428,-0.004347468785114942,0.009611319799090612
1668680910.1753201,72051,1668680910,175209446,,-0.0839660185571934,-0.6350625132761438,0.0797953971579828,0.9955612185219929,0.09352316369441577,-0.004347470789119788,0.009611322766921622
1668680910.1836586,72052,1668680910,183532306,,-0.08364267011168157,-0.6354330396917669,0.07985445980249069,0.9955612184829875,0.09352316370760153,-0.004347472806863292,0.009611325766196372
1668680910.1918156,72053,1668680910,191691006,,-0.08332083491026672,-0.6358136284457023,0.0799093123988606,0.9955612184436936,0.09352316372092263,-0.0043474748348892025,0.009611328789386617
1668680910.1997213,72054,1668680910,199584279,,-0.08300243926272452,-0.6362082142050153,0.07995870818510208,0.9955612184042639,0.09352316373438216,-0.004347476867207808,0.00961133182335742
1668680910.2076519,72055,1668680910,207498997,,-0.08268826453706031,-0.6366194993123733,0.08000190380044327,0.995561218364722,0.09352316374797855,-0.004347478902845697,0.009611334866112937
1668680910.2156603,72056,1668680910,215559232,,-0.08237849826825262,-0.6370491146117611,0.08003873298598026,0.9955612183250192,0.09352316376170705,-0.004347480943646664,0.00961133792190449
1668680910.2234569,72057,1668680910,223267718,,-0.08207302709384987,-0.6374974345716178,0.08006932401560236,0.9955612182851316,0.09352316377556427,-0.004347482990499525,0.00961134099285641
1668680910.2320387,72058,1668680910,231910203,,-0.08177153302379414,-0.6379637411818735,0.08009400487269926,0.9955612182450464,0.0935231637895478,-0.004347485043848801,0.009611344080101874
1668680910.2407858,72059,1668680910,240549580,,-0.081473662146164,-0.6384469411263335,0.0801131393278262,0.9955612182047786,0.09352316380365544,-0.004347487103062826,0.009611347182384098
1668680910.2486796,72060,1668680910,248462187,,-0.08117910711739815,-0.6389458242981415,0.08012704416361094,0.9955612181643427,0.09352316381788524,-0.004347489167547987,0.009611350298531112
1668680910.255738,72061,1668680910,255588140,,-0.08088491157961962,-0.6394545152701069,0.0801364314064697,0.9955612181236292,0.09352316383223191,-0.004347491241504454,0.009611353437991584
1668680910.2638047,72062,1668680910,263692956,,-0.08058832013079593,-0.6399677622300537,0.08014199851210566,0.9955612180823675,0.09352316384668687,-0.0043474933354290535,0.009611356624158155
1668680910.2717614,72063,1668680910,271565248,,-0.08028802051235592,-0.6404827394858233,0.08014422539635728,0.9955612180405266,0.09352316386124887,-0.004347495450502065,0.009611359859723312
1668680910.2807918,72064,1668680910,280649815,,-0.0799821720709656,-0.6409947646982924,0.08014497299108615,0.9955612179979959,0.09352316387591415,-0.004347497590987528,0.009611363154210876
1668680910.288459,72065,1668680910,288328401,,-0.07966881176024791,-0.6414996873209324,0.08014713577985488,0.9955612179547134,0.09352316389068138,-0.004347499759290832,0.009611366512998008
1668680910.2965417,72066,1668680910,296412630,,-0.07934590339408236,-0.641994664114086,0.08015268861036717,0.9955612179104366,0.09352316390554594,-0.00434750196483583,0.009611369957011694
1668680910.3040009,72067,1668680910,303804866,,-0.07901199593405833,-0.6424791517153114,0.0801614982963512,0.995561217864967,0.09352316392050534,-0.004347504215312431,0.009611373503288877
1668680910.312046,72068,1668680910,311912806,,-0.07866664473500727,-0.6429537927076011,0.08017271118512648,0.9955612178181018,0.09352316393555771,-0.0043475065186375905,0.009611377169339701
1668680910.3196607,72069,1668680910,319507871,,-0.07831004561547084,-0.6434192318634433,0.08018580829908083,0.9955612177698723,0.09352316395070592,-0.004347508873605572,0.009611380952405496
1668680910.3277452,72070,1668680910,327604381,,-0.07794189021467018,-0.6438755547563701,0.08019969781705477,0.9955612177201849,0.09352316396595137,-0.004347511283876255,0.009611384860515913
1668680910.3355577,72071,1668680910,335419212,,-0.07756215390240472,-0.6443240817747872,0.08021246749483107,0.9955612176689743,0.09352316398129619,-0.0043475137520212585,0.009611388899263563
1668680910.3437939,72072,1668680910,343679235,,-0.07717133814117053,-0.644766577498333,0.080222967429721,0.995561217616172,0.0935231639967433,-0.004347516280726009,0.009611393074479365
1668680910.3518693,72073,1668680910,351696935,,-0.07677012162461926,-0.6452041246304651,0.08023071498142494,0.9955612175618667,0.09352316401229696,-0.004347518866594271,0.009611397378486116
1668680910.3600752,72074,1668680910,359949979,,-0.07635895869461251,-0.6456381401593088,0.08023493154132433,0.9955612175060496,0.09352316402796094,-0.004347521510003189,0.009611401811982197
1668680910.3676383,72075,1668680910,367542317,,-0.07594178024734137,-0.6460749133360847,0.08023536472720066,0.9955612174490129,0.09352316404374011,-0.004347524199647369,0.009611406349759054
1668680910.3760476,72076,1668680910,375854467,,-0.0755241301868767,-0.6465227911697714,0.08023202807557372,0.9955612173914691,0.09352316405963952,-0.004347526907919396,0.009611410930493487
1668680910.3835285,72077,1668680910,383369667,,-0.07510904447525814,-0.6469860068622593,0.08022505281788433,0.9955612173338347,0.09352316407566004,-0.004347529618627598,0.009611415518306696
1668680910.3918376,72078,1668680910,391700658,,-0.0746975792822654,-0.647465468936517,0.08021466480108233,0.9955612172763361,0.09352316409179996,-0.004347532322970127,0.009611420093783398
1668680910.3999782,72079,1668680910,399818246,,-0.07429013148245611,-0.647960965971525,0.08020111458774987,0.9955612172190639,0.09352316410805663,-0.0043475350173718865,0.00961142464914304
1668680910.407857,72080,1668680910,407751891,,-0.0738874311211823,-0.6484729009002143,0.08018464039281446,0.9955612171621714,0.09352316412442681,-0.004347537695846513,0.009611429171272208
1668680910.4153984,72081,1668680910,415260791,,-0.07348908178118149,-0.6490001505163848,0.08016551018924702,0.9955612171056947,0.0935231641409065,-0.004347540356943617,0.009611433657140928
1668680910.4239702,72082,1668680910,423837441,,-0.07309432968441396,-0.6495410275296226,0.08014397490517312,0.9955612170495654,0.09352316415749279,-0.004347543003246075,0.00961143811267104
1668680910.4319077,72083,1668680910,431767694,,-0.07270266615654841,-0.6500941049159613,0.08012026931318986,0.9955612169937871,0.09352316417418208,-0.004347545634563103,0.009611442537616022
1668680910.440236,72084,1668680910,439896846,,-0.0723132303288666,-0.6506580585034053,0.08009461455635002,0.9955612169382844,0.09352316419097216,-0.004347548253765398,0.009611446938515813
1668680910.4477527,72085,1668680910,447611205,,-0.07192347263545952,-0.6512292964698704,0.0800672199863251,0.9955612168828079,0.09352316420786276,-0.004347550870469004,0.009611451336847541
1668680910.4559782,72086,1668680910,455811644,,-0.07153038433664893,-0.6518031546787952,0.08003828539672216,0.9955612168269685,0.09352316422485715,-0.004347553499719057,0.009611455766082392
1668680910.4634976,72087,1668680910,463379585,,-0.07112944734646807,-0.6523728384295314,0.08000799867102595,0.9955612167703383,0.09352316424196151,-0.004347556158083573,0.009611460262981283
1668680910.472087,72088,1668680910,471963505,,-0.0707175566377097,-0.6529334363484655,0.07997653694132367,0.9955612167123802,0.09352316425918612,-0.004347558866381368,0.009611464873664197
1668680910.4799666,72089,1668680910,479771405,,-0.07029361833020564,-0.6534828086931825,0.07994405683544664,0.9955612166530685,0.09352316427653526,-0.004347561625659475,0.009611469600283013
1668680910.4878535,72090,1668680910,487690680,,-0.06985522285271858,-0.6540176644331607,0.0799107083310468,0.9955612165920497,0.09352316429402029,-0.004347564449656716,0.009611474473130162
1668680910.4954011,72091,1668680910,495278908,,-0.0694009608849551,-0.6545371177997847,0.07987662710543986,0.9955612165290406,0.09352316431165288,-0.0043475673494065515,0.009611479516422104
1668680910.5039272,72092,1668680910,503797820,,-0.06893098558516364,-0.6550417316971237,0.07984193716490247,0.9955612164639346,0.09352316432944306,-0.004347570329133092,0.009611484739212951
1668680910.5116498,72093,1668680910,511546977,,-0.0684460220904349,-0.6555323124457805,0.07980675311713724,0.9955612163968635,0.09352316434739548,-0.004347573383831957,0.00961149013004843
1668680910.5198474,72094,1668680910,519669590,,-0.0679461170539007,-0.6560095506630802,0.0797711820713177,0.995561216327775,0.0935231643655197,-0.004347576515615771,0.009611495693277213
1668680910.5278625,72095,1668680910,527762472,,-0.06743100549584631,-0.6564744024602178,0.07973532315813114,0.9955612162565445,0.09352316438382721,-0.004347579729431169,0.009611501439511162
1668680910.5355597,72096,1668680910,535437526,,-0.0669006092376614,-0.6569278588827844,0.07969926826659535,0.9955612161830213,0.09352316440233152,-0.004347583031205013,0.009611507381503395
1668680910.54381,72097,1668680910,543619113,,-0.06635584233881797,-0.6573708543981683,0.07966310245794649,0.9955612161072988,0.09352316442103982,-0.004347586417466676,0.009611513511114847
1668680910.552261,72098,1668680910,552036345,,-0.06579929479733197,-0.657806153890792,0.0796269029231243,0.9955612160297588,0.09352316443994883,-0.004347589873566204,0.009611519795412672
1668680910.559628,72099,1668680910,559532328,,-0.06523401307596506,-0.6582373174095179,0.07959073900565643,0.9955612159509521,0.09352316445904715,-0.004347593378328319,0.009611526187052181
1668680910.567768,72100,1668680910,567625849,,-0.06466660700171957,-0.6586710391725623,0.07955467298255232,0.9955612158718418,0.09352316447830324,-0.004347596894611354,0.0096115326034036
1668680910.5757887,72101,1668680910,575643749,,-0.06410545629701599,-0.6591165763884869,0.0795177169536729,0.9955612157941203,0.09352316449765075,-0.004347600357030795,0.009611538899360578
1668680910.5834763,72102,1668680910,583338462,,-0.06355481330589142,-0.6595793086278134,0.07947841401798195,0.9955612157185925,0.0935231645170483,-0.004347603734396423,0.009611545006093387
