Time,header.seq,header.stamp.secs,header.stamp.nsecs,header.frame_id,wrench.force.x,wrench.force.y,wrench.force.z,wrench.torque.x,wrench.torque.y,wrench.torque.z
1668680908.0717638,71788,1668680908,71589609,,-9.174621674931503e-138,-5.689675487985493e-137,4.704e-321,5e-324,-5e-324,0.0
1668680908.0797038,71789,1668680908,79515084,,-4.8540887274584184e-138,-3.010281036938022e-137,2.49e-321,5e-324,-5e-324,0.0
1668680908.0878837,71790,1668680908,87683869,,-2.5681906250608205e-138,-1.5926728932930943e-137,1.32e-321,5e-324,-5e-324,0.0
1668680908.0956378,71791,1668680908,95421119,,-2.5681906250608205e-138,-1.5926728932930943e-137,1.32e-321,5e-324,-5e-324,0.0
1668680908.1040099,71792,1668680908,103639818,,-1.3587726671209242e-138,-8.426478836709431e-138,6.97e-322,5e-324,-5e-324,0.0
1668680908.112005,71793,1668680908,111776076,,-7.188964646544437e-139,-4.458262954340682e-138,3.7e-322,5e-324,-5e-324,0.0
1668680908.119597,71794,1668680908,119400306,,-3.803521658907965e-139,-2.3587679925638064e-138,2e-322,5e-324,-5e-324,0.0
1668680908.1278226,71795,1668680908,127578208,,-2.012358902993887e-139,-1.2479717997177444e-138,1.04e-322,5e-324,-5e-324,0.0
1668680908.1359398,71796,1668680908,135473990,,-2.012358902993887e-139,-1.2479717997177444e-138,1.04e-322,5e-324,-5e-324,0.0
1668680908.1441464,71797,1668680908,143912743,,-1.06469443784407e-139,-6.602741845746054e-139,5.4e-323,5e-324,-5e-324,0.0
1668680908.1524084,71798,1668680908,152120358,,-5.633061996493891e-140,-3.4933641843049835e-139,3e-323,5e-324,-5e-324,0.0
1668680908.159815,71799,1668680908,159662623,,-2.9803280949412613e-140,-1.8482614661130856e-139,1.5e-323,5e-324,-5e-324,0.0
1668680908.167807,71800,1668680908,167595396,,-1.5768254563902776e-140,-9.778741255968225e-140,1e-323,5e-324,-5e-324,0.0
1668680908.17551,71801,1668680908,175290036,,-1.5768254563902776e-140,-9.778741255968225e-140,1e-323,5e-324,-5e-324,0.0
1668680908.1836956,71802,1668680908,183489243,,-8.342633564877396e-141,-5.17371499132495e-140,5e-324,5e-324,-5e-324,0.0
1668680908.1917458,71803,1668680908,191538536,,-4.413902281686176e-141,-2.7372977882121298e-140,5e-324,5e-324,-5e-324,0.0
1668680908.2003913,71804,1668680908,200073996,,-2.335297745102478e-141,-1.448243514363393e-140,5e-324,5e-324,-5e-324,0.0
1668680908.209145,71805,1668680908,208875050,,-1.2355542126314034e-141,-7.662335044173465e-141,5e-324,5e-324,-5e-324,0.0
1668680908.2158935,71806,1668680908,215635439,,-6.537043148149903e-142,-4.053971431384358e-141,5e-324,5e-324,-5e-324,0.0
1668680908.2234645,71807,1668680908,223222963,,-6.537043148149903e-142,-4.053971431384358e-141,5e-324,5e-324,-5e-324,0.0
1668680908.2316835,71808,1668680908,231472135,,-3.458604461374767e-142,-2.14486631969685e-141,5e-324,5e-324,-5e-324,0.0
1668680908.2397888,71809,1668680908,239559472,,-1.829870868089173e-142,-1.134801171452493e-141,5e-324,5e-324,-5e-324,0.0
1668680908.2479274,71810,1668680908,247655246,,-9.68144068301598e-143,-6.0039811661174354e-142,5e-324,5e-324,-5e-324,0.0
1668680908.2557452,71811,1668680908,255363770,,-9.68144068301598e-143,-6.0039811661174354e-142,5e-324,5e-324,-5e-324,0.0
1668680908.263997,71812,1668680908,263822469,,-5.122235417444181e-143,-3.1765731962501745e-142,5e-324,5e-324,-5e-324,0.0
1668680908.2721603,71813,1668680908,271823768,,-2.7100610880927355e-143,-1.6806543844740768e-142,5e-324,5e-324,-5e-324,0.0
1668680908.2798443,71814,1668680908,279583571,,-1.4338331807597784e-143,-8.891969381931043e-143,5e-324,5e-324,-5e-324,0.0
1668680908.2880785,71815,1668680908,287845051,,-7.586093166979391e-144,-4.704543671775885e-143,5e-324,5e-324,-5e-324,0.0
1668680908.2960272,71816,1668680908,295778422,,-4.013633546100299e-144,-2.489069654763029e-143,5e-324,5e-324,-5e-324,0.0
1668680908.304017,71817,1668680908,303606390,,-4.013633546100299e-144,-2.489069654763029e-143,5e-324,5e-324,-5e-324,0.0
1668680908.3117871,71818,1668680908,311549298,,-2.1235244397606045e-144,-1.316911517567752e-143,5e-324,5e-324,-5e-324,0.0
1668680908.3198006,71819,1668680908,319551231,,-1.1235096563915111e-144,-6.967486593972835e-144,5e-324,5e-324,-5e-324,0.0
1668680908.3278544,71820,1668680908,327608360,,-5.944240265712571e-145,-3.686342536273976e-144,5e-324,5e-324,-5e-324,0.0
1668680908.3353734,71821,1668680908,335203956,,-5.944240265712571e-145,-3.686342536273976e-144,5e-324,5e-324,-5e-324,0.0
1668680908.343838,71822,1668680908,343628821,,-3.144965611600028e-145,-1.95036202961596e-144,5e-324,5e-324,-5e-324,0.0
1668680908.3540013,71823,1668680908,351640346,,-1.6639315128627406e-145,-1.031893267957824e-144,5e-324,5e-324,-5e-324,0.0
1668680908.3602052,71824,1668680908,359952731,,-8.803492379330359e-146,-5.4595182857735644e-145,5e-324,5e-324,-5e-324,0.0
1668680908.3678572,71825,1668680908,367619492,,-4.657732453157817e-146,-2.888509968834701e-145,5e-324,5e-324,-5e-324,0.0
1668680908.3756325,71826,1668680908,375427966,,-2.4643028778142397e-146,-1.5282465234705681e-145,5e-324,5e-324,-5e-324,0.0
1668680908.3834622,71827,1668680908,383259077,,-2.4643028778142397e-146,-1.5282465234705681e-145,5e-324,5e-324,-5e-324,0.0
1668680908.3918955,71828,1668680908,391603165,,-1.3038079655018307e-146,-8.085613211305942e-146,5e-324,5e-324,-5e-324,0.0
1668680908.3997588,71829,1668680908,399557056,,-6.898158607897237e-147,-4.277918516338393e-146,5e-324,5e-324,-5e-324,0.0
1668680908.4077663,71830,1668680908,407563311,,-3.649662637349482e-147,-2.263351752572279e-146,5e-324,5e-324,-5e-324,0.0
1668680908.415478,71831,1668680908,415292230,,-3.649662637349482e-147,-2.263351752572279e-146,5e-324,5e-324,-5e-324,0.0
1668680908.4243102,71832,1668680908,423704411,,-1.9309555090855064e-147,-1.197489184589879e-146,5e-324,5e-324,-5e-324,0.0
1668680908.432176,71833,1668680908,431585715,,-1.0216257086094687e-147,-6.335649532071307e-147,5e-324,5e-324,-5e-324,0.0
1668680908.4400995,71834,1668680908,439839640,,-5.4051949078106975e-148,-3.35205156838079e-147,5e-324,5e-324,-5e-324,0.0
1668680908.4479837,71835,1668680908,447767902,,-2.8597686750844075e-148,-1.7734960969993332e-147,5e-324,5e-324,-5e-324,0.0
1668680908.456302,71836,1668680908,456058026,,-1.5130401427663836e-148,-9.383174279717901e-148,5e-324,5e-324,-5e-324,0.0
1668680908.463407,71837,1668680908,463212580,,-1.5130401427663836e-148,-9.383174279717901e-148,5e-324,5e-324,-5e-324,0.0
1668680908.4717128,71838,1668680908,471471931,,-8.005159625559396e-149,-4.9644292825073334e-148,5e-324,5e-324,-5e-324,0.0
1668680908.4797106,71839,1668680908,479512444,,-4.23535230952433e-149,-2.6265693640891458e-148,5e-324,5e-324,-5e-324,0.0
1668680908.4878979,71840,1668680908,487680841,,-2.2408309171648235e-149,-1.3896595624154645e-148,5e-324,5e-324,-5e-324,0.0
1668680908.4955895,71841,1668680908,495331135,,-2.2408309171648235e-149,-1.3896595624154645e-148,5e-324,5e-324,-5e-324,0.0
1668680908.5037801,71842,1668680908,503578538,,-1.185573910352144e-149,-7.352380355210741e-149,5e-324,5e-324,-5e-324,0.0
1668680908.5118225,71843,1668680908,511562435,,-6.272608460285208e-150,-3.889981283885652e-149,5e-324,5e-324,-5e-324,0.0
1668680908.5197704,71844,1668680908,519544953,,-3.318697936289352e-150,-2.058102771880732e-149,5e-324,5e-324,-5e-324,0.0
1668680908.5276184,71845,1668680908,527415644,,-1.7558494304346267e-150,-1.0888965037364086e-149,5e-324,5e-324,-5e-324,0.0
1668680908.5355642,71846,1668680908,535345013,,-1.7558494304346267e-150,-1.0888965037364086e-149,5e-324,5e-324,-5e-324,0.0
1668680908.5438042,71847,1668680908,543565980,,-9.289809683025037e-151,-5.761109756272589e-150,5e-324,5e-324,-5e-324,0.0
1668680908.5519493,71848,1668680908,551725037,,-4.915032146319271e-151,-3.0480753230385683e-150,5e-324,5e-324,-5e-324,0.0
1668680908.559989,71849,1668680908,559740863,,-2.600434435540063e-151,-1.612669011348215e-150,5e-324,5e-324,-5e-324,0.0
1668680908.567773,71850,1668680908,567494924,,-1.375832151699482e-151,-8.532273859854092e-151,5e-324,5e-324,-5e-324,0.0
1668680908.5756743,71851,1668680908,575434430,,-1.375832151699482e-151,-8.532273859854092e-151,5e-324,5e-324,-5e-324,0.0
1668680908.5852578,71852,1668680908,584963754,,-7.279222593654443e-152,-4.514236753311693e-151,5e-324,5e-324,-5e-324,0.0
1668680908.5922227,71853,1668680908,591938368,,-3.851275135743673e-152,-2.388382487443808e-151,5e-324,5e-324,-5e-324,0.0
1668680908.600085,71854,1668680908,599824853,,-2.0376242078552874e-152,-1.2636401717618117e-151,5e-324,5e-324,-5e-324,0.0
1668680908.6078806,71855,1668680908,607606403,,-1.0780617499653557e-152,-6.6856397251480395e-152,5e-324,5e-324,-5e-324,0.0
1668680908.6157856,71856,1668680908,615485273,,-1.0780617499653557e-152,-6.6856397251480395e-152,5e-324,5e-324,-5e-324,0.0
1668680908.6239617,71857,1668680908,623640661,,-5.703785478489497e-153,-3.537223612649029e-152,5e-324,5e-324,-5e-324,0.0
1668680908.6317797,71858,1668680908,631539765,,-3.017746319788559e-153,-1.871466516333229e-152,5e-324,5e-324,-5e-324,0.0
1668680908.6397593,71859,1668680908,639519323,,-1.596622608781755e-153,-9.901514027080386e-153,5e-324,5e-324,-5e-324,0.0
1668680908.6479561,71860,1668680908,647746352,,-8.447375904849647e-154,-5.238671339979928e-153,5e-324,5e-324,-5e-324,0.0
1668680908.655915,71861,1668680908,655662585,,-4.4693191293515286e-154,-2.7716647507915804e-153,5e-324,5e-324,-5e-324,0.0
1668680908.6634524,71862,1668680908,663265306,,-4.4693191293515286e-154,-2.7716647507915804e-153,5e-324,5e-324,-5e-324,0.0
1668680908.6721077,71863,1668680908,671783333,,-2.3646175694063697e-154,-1.4664263116017482e-153,5e-324,5e-324,-5e-324,0.0
1668680908.6800325,71864,1668680908,679800774,,-1.2510666810129017e-154,-7.75853618928392e-154,5e-324,5e-324,-5e-324,0.0
1668680908.6878467,71865,1668680908,687638807,,-6.61911617587096e-155,-4.104869322392244e-154,5e-324,5e-324,-5e-324,0.0
1668680908.6953278,71866,1668680908,695129442,,-6.61911617587096e-155,-4.104869322392244e-154,5e-324,5e-324,-5e-324,0.0
1668680908.7037296,71867,1668680908,703518657,,-3.5020274789993214e-155,-2.171795264316752e-154,5e-324,5e-324,-5e-324,0.0
1668680908.7118447,71868,1668680908,711636288,,-1.8528450230823434e-155,-1.149048678450954e-154,5e-324,5e-324,-5e-324,0.0
1668680908.7197938,71869,1668680908,719571703,,-9.802991838721877e-156,-6.079361563877685e-155,5e-324,5e-324,-5e-324,0.0
1668680908.7283483,71870,1668680908,727901890,,-5.186545436497467e-156,-3.2164552918835175e-155,5e-324,5e-324,-5e-324,0.0
1668680908.7359188,71871,1668680908,735535710,,-5.186545436497467e-156,-3.2164552918835175e-155,5e-324,5e-324,-5e-324,0.0
1668680908.7442358,71872,1668680908,743887920,,-2.744086092023105e-156,-1.7017551162208904e-155,5e-324,5e-324,-5e-324,0.0
1668680908.7520356,71873,1668680908,751813532,,-1.4518350552655593e-156,-9.003608670985539e-156,5e-324,5e-324,-5e-324,0.0
1668680908.759861,71874,1668680908,759598560,,-7.681337090061685e-157,-4.763609542145406e-156,5e-324,5e-324,-5e-324,0.0
1668680908.7678041,71875,1668680908,767584504,,-4.0640249921755e-157,-2.5203200960015617e-156,5e-324,5e-324,-5e-324,0.0
1668680908.7756104,71876,1668680908,775373551,,-4.0640249921755e-157,-2.5203200960015617e-156,5e-324,5e-324,-5e-324,0.0
1668680908.7838993,71877,1668680908,783643973,,-2.1501854356055136e-157,-1.3334454325256344e-156,5e-324,5e-324,-5e-324,0.0
1668680908.7917233,71878,1668680908,791523217,,-1.1376153976393708e-157,-7.05496386885285e-157,5e-324,5e-324,-5e-324,0.0
1668680908.799708,71879,1668680908,799511436,,-6.018870612346665e-158,-3.7326248211407284e-157,5e-324,5e-324,-5e-324,0.0
1668680908.8081415,71880,1668680908,807844334,,-3.1844508718274554e-158,-1.974848959454884e-157,5e-324,5e-324,-5e-324,0.0
1668680908.815449,71881,1668680908,815220062,,-3.1844508718274554e-158,-1.974848959454884e-157,5e-324,5e-324,-5e-324,0.0
1668680908.8238754,71882,1668680908,823623735,,-1.684822287802749e-158,-1.0448487591282078e-157,5e-324,5e-324,-5e-324,0.0
1668680908.8315678,71883,1668680908,831387216,,-8.9140208335131e-159,-5.5280629145081505e-158,5e-324,5e-324,-5e-324,0.0
1668680908.839775,71884,1668680908,839496833,,-4.716210605448042e-159,-2.9247754107741215e-158,5e-324,5e-324,-5e-324,0.0
1668680908.84795,71885,1668680908,847713973,,-2.4952423704594993e-159,-1.5474337640077374e-158,5e-324,5e-324,-5e-324,0.0
1668680908.8559256,71886,1668680908,855571627,,-2.4952423704594993e-159,-1.5474337640077374e-158,5e-324,5e-324,-5e-324,0.0
1668680908.8638322,71887,1668680908,863514592,,-1.3201773644595003e-159,-8.187128643007057e-159,5e-324,5e-324,-5e-324,0.0
1668680908.8720992,71888,1668680908,871820520,,-6.984765465129076e-160,-4.331628078448172e-159,5e-324,5e-324,-5e-324,0.0
1668680908.882151,71889,1668680908,879636455,,-3.69548440355466e-160,-2.291768289976341e-159,5e-324,5e-324,-5e-324,0.0
1668680908.8878748,71890,1668680908,887650776,,-1.9551987887202986e-160,-1.212523743918178e-159,5e-324,5e-324,-5e-324,0.0
1668680908.8960412,71891,1668680908,895788948,,-1.9551987887202986e-160,-1.212523743918178e-159,5e-324,5e-324,-5e-324,0.0
1668680908.9038785,71892,1668680908,903652535,,-1.0344522898638664e-160,-6.415194049048184e-160,5e-324,5e-324,-5e-324,0.0
1668680908.9117525,71893,1668680908,911506366,,-5.473057502787145e-161,-3.3941368070826316e-160,5e-324,5e-324,-5e-324,0.0
1668680908.9198947,71894,1668680908,919631989,,-2.8956732680979074e-161,-1.7957624628521278e-160,5e-324,5e-324,-5e-324,0.0
1668680908.9276905,71895,1668680908,927481034,,-1.532036466144711e-161,-9.500980680152742e-161,5e-324,5e-324,-5e-324,0.0
1668680908.9358504,71896,1668680908,935625594,,-8.105664956940902e-162,-5.02675803464931e-161,5e-324,5e-324,-5e-324,0.0
1668680908.9434962,71897,1668680908,943262668,,-8.105664956940902e-162,-5.02675803464931e-161,5e-324,5e-324,-5e-324,0.0
1668680908.951723,71898,1668680908,951498117,,-4.28852744997088e-162,-2.6595461236644857e-161,5e-324,5e-324,-5e-324,0.0
1668680908.9597783,71899,1668680908,959496931,,-2.2689647039266133e-162,-1.4071068340953575e-161,5e-324,5e-324,-5e-324,0.0
1668680908.9677532,71900,1668680908,967506335,,-1.2004588725903435e-162,-7.444689997817236e-162,5e-324,5e-324,-5e-324,0.0
1668680908.975431,71901,1668680908,975244406,,-1.2004588725903435e-162,-7.444689997817236e-162,5e-324,5e-324,-5e-324,0.0
1668680908.9838626,71902,1668680908,983552726,,-6.351361492256554e-163,-3.9388202672778743e-162,5e-324,5e-324,-5e-324,0.0
1668680908.9918816,71903,1668680908,991662989,,-3.360364417839191e-163,-2.0839423941719132e-162,5e-324,5e-324,-5e-324,0.0
1668680908.9999323,71904,1668680908,999695554,,-1.7778942411712434e-163,-1.1025676744646928e-162,5e-324,5e-324,-5e-324,0.0
1668680909.0076878,71905,1668680909,7469440,,-9.406443884507098e-164,-5.833440886726335e-163,5e-324,5e-324,-5e-324,0.0
1668680909.015729,71906,1668680909,15458435,,-9.406443884507098e-164,-5.833440886726335e-163,5e-324,5e-324,-5e-324,0.0
1668680909.023957,71907,1668680909,23621737,,-4.976740714008458e-164,-3.086344119008564e-163,5e-324,5e-324,-5e-324,0.0
1668680909.032136,71908,1668680909,31851193,,-2.6330830692843992e-164,-1.6329161820450654e-163,5e-324,5e-324,-5e-324,0.0
1668680909.0399673,71909,1668680909,39714544,,-1.3931058192838714e-164,-8.639397146813216e-164,5e-324,5e-324,-5e-324,0.0
1668680909.0478668,71910,1668680909,47626036,,-7.370613735517384e-165,-4.570913307190462e-164,5e-324,5e-324,-5e-324,0.0
1668680909.0558133,71911,1668680909,55593636,,-3.899628160775603e-165,-2.418368794350155e-164,5e-324,5e-324,-5e-324,0.0
1668680909.063574,71912,1668680909,63326486,,-3.899628160775603e-165,-2.418368794350155e-164,5e-324,5e-324,-5e-324,0.0
1668680909.0718386,71913,1668680909,71620528,,-2.0632067203622957e-165,-1.2795052612978655e-164,5e-324,5e-324,-5e-324,0.0
1668680909.0798268,71914,1668680909,79581601,,-1.0915968896125457e-165,-6.769578393145107e-165,5e-324,5e-324,-5e-324,0.0
1668680909.087928,71915,1668680909,87707140,,-5.775396898680827e-166,-3.5816336991418305e-165,5e-324,5e-324,-5e-324,0.0
1668680909.0960352,71916,1668680909,95753237,,-3.055634333030328e-166,-1.894962907559821e-165,5e-324,5e-324,-5e-324,0.0
1668680909.1035197,71917,1668680909,103247850,,-3.055634333030328e-166,-1.894962907559821e-165,5e-324,5e-324,-5e-324,0.0
1668680909.1118565,71918,1668680909,111640486,,-1.6166683157873292e-166,-1.0025828218804052e-165,5e-324,5e-324,-5e-324,0.0
1668680909.1198037,71919,1668680909,119628709,,-8.553433292126512e-167,-5.304443220073661e-166,5e-324,5e-324,-5e-324,0.0
1668680909.1278577,71920,1668680909,127570287,,-4.525431739362575e-167,-2.806463192957221e-166,5e-324,5e-324,-5e-324,0.0
1668680909.1353838,71921,1668680909,135165225,,-4.525431739362575e-167,-2.806463192957221e-166,5e-324,5e-324,-5e-324,0.0
1668680909.1444113,71922,1668680909,144164448,,-2.3943055061271965e-167,-1.4848373951138768e-166,5e-324,5e-324,-5e-324,0.0
1668680909.1525369,71923,1668680909,152292827,,-1.2667739095051479e-167,-7.855945146408232e-167,5e-324,5e-324,-5e-324,0.0
1668680909.1609972,71924,1668680909,160774401,,-6.702219636117341e-168,-4.1564062399332205e-167,5e-324,5e-324,-5e-324,0.0
1668680909.1680982,71925,1668680909,167681543,,-3.545995675605941e-168,-2.199062303694207e-167,5e-324,5e-324,-5e-324,0.0
1668680909.1756644,71926,1668680909,175398097,,-3.545995675605941e-168,-2.199062303694207e-167,5e-324,5e-324,-5e-324,0.0
1668680909.183829,71927,1668680909,183618516,,-1.8761076201764586e-168,-1.163475063882728e-167,5e-324,5e-324,-5e-324,0.0
1668680909.1920602,71928,1668680909,191816243,,-9.926069077573575e-169,-6.15568836773237e-168,5e-324,5e-324,-5e-324,0.0
1668680909.1998894,71929,1668680909,199647553,,-5.251662872276768e-169,-3.2568381099790354e-168,5e-324,5e-324,-5e-324,0.0
1668680909.207829,71930,1668680909,207563265,,-2.778538282225232e-169,-1.7231207691105415e-168,5e-324,5e-324,-5e-324,0.0
1668680909.2158518,71931,1668680909,215607108,,-1.470062944547724e-169,-9.116649599016197e-169,5e-324,5e-324,-5e-324,0.0
1668680909.2238996,71932,1668680909,223555022,,-1.470062944547724e-169,-9.116649599016197e-169,5e-324,5e-324,-5e-324,0.0
1668680909.23178,71933,1668680909,231555837,,-7.777776807169231e-170,-4.8234169885924176e-169,5e-324,5e-324,-5e-324,0.0
1668680909.2397985,71934,1668680909,239607393,,-4.115049106332721e-170,-2.5519628886858362e-169,5e-324,5e-324,-5e-324,0.0
1668680909.247747,71935,1668680909,247537113,,-2.1771811620926188e-170,-1.350186931926501e-169,5e-324,5e-324,-5e-324,0.0
1668680909.255656,71936,1668680909,255419875,,-2.1771811620926188e-170,-1.350186931926501e-169,5e-324,5e-324,-5e-324,0.0
1668680909.2638288,71937,1668680909,263600180,,-1.1518982374417636e-170,-7.14353942695411e-170,5e-324,5e-324,-5e-324,0.0
1668680909.271829,71938,1668680909,271625193,,-6.094437948131557e-171,-3.779488183287034e-170,5e-324,5e-324,-5e-324,0.0
1668680909.280063,71939,1668680909,279817374,,-3.224431872221158e-171,-1.9996433243873087e-170,5e-324,5e-324,-5e-324,0.0
1668680909.287813,71940,1668680909,287623316,,-1.7059753478634006e-171,-1.0579669073840454e-170,5e-324,5e-324,-5e-324,0.0
1668680909.295546,71941,1668680909,295285612,,-1.7059753478634006e-171,-1.0579669073840454e-170,5e-324,5e-324,-5e-324,0.0
1668680909.303834,71942,1668680909,303604571,,-9.025936980063553e-172,-5.597468125785449e-171,5e-324,5e-324,-5e-324,0.0
1668680909.3120277,71943,1668680909,311684390,,-4.7754229549747265e-172,-2.961496167839074e-171,5e-324,5e-324,-5e-324,0.0
1668680909.320003,71944,1668680909,319725814,,-2.5265703105694602e-172,-1.5668619016735943e-171,5e-324,5e-324,-5e-324,0.0
1668680909.328084,71945,1668680909,327840915,,-1.3367522823504213e-172,-8.28991860795681e-172,5e-324,5e-324,-5e-324,0.0
1668680909.337793,71946,1668680909,335499376,,-1.3367522823504213e-172,-8.28991860795681e-172,5e-324,5e-324,-5e-324,0.0
1668680909.3447936,71947,1668680909,344551882,,-7.072459677428538e-173,-4.3860119678157044e-172,5e-324,5e-324,-5e-324,0.0
1668680909.3526886,71948,1668680909,352412942,,-3.741881465195825e-173,-2.3205415989679899e-172,5e-324,5e-324,-5e-324,0.0
1668680909.3604736,71949,1668680909,360118057,,-1.9797464444034694e-173,-1.2277470631760901e-172,5e-324,5e-324,-5e-324,0.0
1668680909.3677163,71950,1668680909,367483101,,-1.0474399097308294e-173,-6.495737252923545e-173,5e-324,5e-324,-5e-324,0.0
1668680909.3758135,71951,1668680909,375592556,,-5.541772117325418e-174,-3.436750428859869e-173,5e-324,5e-324,-5e-324,0.0
1668680909.3834748,71952,1668680909,383301262,,-5.541772117325418e-174,-3.436750428859869e-173,5e-324,5e-324,-5e-324,0.0
1668680909.3917143,71953,1668680909,391508852,,-2.932028645753779e-174,-1.818308384464379e-173,5e-324,5e-324,-5e-324,0.0
1668680909.3998072,71954,1668680909,399565883,,-1.5512712896736254e-174,-9.620266148072603e-174,5e-324,5e-324,-5e-324,0.0
1668680909.407762,71955,1668680909,407502205,,-8.207432139691849e-175,-5.089869328574541e-174,5e-324,5e-324,-5e-324,0.0
1668680909.4157917,71956,1668680909,415556285,,-4.342370207974333e-175,-2.6929369087313877e-174,5e-324,5e-324,-5e-324,0.0
1668680909.4238298,71957,1668680909,423531668,,-4.342370207974333e-175,-2.6929369087313877e-174,5e-324,5e-324,-5e-324,0.0
1668680909.4320447,71958,1668680909,431841343,,-2.29745171232217e-175,-1.424773157474893e-174,5e-324,5e-324,-5e-324,0.0
1668680909.4398715,71959,1668680909,439642288,,-1.2155307165563692e-175,-7.538158594355173e-175,5e-324,5e-324,-5e-324,0.0
1668680909.448504,71960,1668680909,448170744,,-6.431103273977537e-176,-3.988272427476028e-175,5e-324,5e-324,-5e-324,0.0
1668680909.4557097,71961,1668680909,455432146,,-6.431103273977537e-176,-3.988272427476028e-175,5e-324,5e-324,-5e-324,0.0
1668680909.4643753,71962,1668680909,464028745,,-3.4025540249394924e-176,-2.110106434703657e-175,5e-324,5e-324,-5e-324,0.0
1668680909.4725583,71963,1668680909,472098303,,-1.800215826027548e-176,-1.116410487684656e-175,5e-324,5e-324,-5e-324,0.0
1668680909.4800024,71964,1668680909,479723951,,-9.524542436435458e-177,-5.9066801395131134e-176,5e-324,5e-324,-5e-324,0.0
1668680909.4876938,71965,1668680909,487484621,,-5.039224037022308e-177,-3.125093382352159e-176,5e-324,5e-324,-5e-324,0.0
1668680909.4959278,71966,1668680909,495723365,,-5.039224037022308e-177,-3.125093382352159e-176,5e-324,5e-324,-5e-324,0.0
1668680909.5047,71967,1668680909,504411053,,-2.666141608877852e-177,-1.653417557366884e-176,5e-324,5e-324,-5e-324,0.0
1668680909.5116653,71968,1668680909,511475580,,-1.4105963589565075e-177,-8.747865374030635e-177,5e-324,5e-324,-5e-324,0.0
1668680909.519848,71969,1668680909,519614135,,-7.463152299471566e-178,-4.6283014391133405e-177,5e-324,5e-324,-5e-324,0.0
1668680909.5277898,71970,1668680909,527563470,,-3.9485882613727254e-178,-2.4487315814084913e-177,5e-324,5e-324,-5e-324,0.0
1668680909.5357459,71971,1668680909,535545972,,-2.089110423078789e-178,-1.29556953812759e-177,5e-324,5e-324,-5e-324,0.0
1668680909.5435216,71972,1668680909,543276086,,-2.089110423078789e-178,-1.29556953812759e-177,5e-324,5e-324,-5e-324,0.0
1668680909.551805,71973,1668680909,551589582,,-1.105301963871807e-178,-6.854570916909875e-178,5e-324,5e-324,-5e-324,0.0
1668680909.559856,71974,1668680909,559638681,,-5.847907405193192e-179,-3.6266013573344375e-178,5e-324,5e-324,-5e-324,0.0
1668680909.5676486,71975,1668680909,567476488,,-3.0939980328922735e-179,-1.9187542975992983e-178,5e-324,5e-324,-5e-324,0.0
1668680909.5754516,71976,1668680909,575289736,,-3.0939980328922735e-179,-1.9187542975992983e-178,5e-324,5e-324,-5e-324,0.0
1668680909.5838265,71977,1668680909,583581936,,-1.6369656980273286e-179,-1.0151703183781347e-178,5e-324,5e-324,-5e-324,0.0
1668680909.5918686,71978,1668680909,591639909,,-8.660822237217626e-180,-5.371040870659626e-179,5e-324,5e-324,-5e-324,0.0
1668680909.599725,71979,1668680909,599495560,,-4.582248847063565e-180,-2.8416985319650235e-179,5e-324,5e-324,-5e-324,0.0
1668680909.6079657,71980,1668680909,607569692,,-2.4243661769417484e-180,-1.5034796310496956e-179,5e-324,5e-324,-5e-324,0.0
1668680909.6157794,71981,1668680909,615551159,,-1.2826783433347687e-180,-7.954577079709562e-180,5e-324,5e-324,-5e-324,0.0
1668680909.6235898,71982,1668680909,623347865,,-1.2826783433347687e-180,-7.954577079709562e-180,5e-324,5e-324,-5e-324,0.0
1668680909.6320014,71983,1668680909,631720442,,-6.786366466040491e-181,-4.2085902070294975e-180,5e-324,5e-324,-5e-324,0.0
1668680909.6402123,71984,1668680909,639834634,,-3.5905158959543595e-181,-2.226671682632221e-180,5e-324,5e-324,-5e-324,0.0
1668680909.6478136,71985,1668680909,647620420,,-1.8996622807819964e-181,-1.1780825735788857e-180,5e-324,5e-324,-5e-324,0.0
1668680909.6555054,71986,1668680909,655307470,,-1.8996622807819964e-181,-1.1780825735788857e-180,5e-324,5e-324,-5e-324,0.0
1668680909.663697,71987,1668680909,663502340,,-1.0050691559650259e-181,-6.232973459875298e-181,5e-324,5e-324,-5e-324,0.0
1668680909.6716633,71988,1668680909,671458137,,-5.317597861954785e-182,-3.297727937141786e-181,5e-324,5e-324,-5e-324,0.0
1668680909.6798239,71989,1668680909,679582927,,-2.813423022052233e-182,-1.744754669246256e-181,5e-324,5e-324,-5e-324,0.0
1668680909.6878164,71990,1668680909,687596084,,-1.4885196862373838e-182,-9.231109763697066e-182,5e-324,5e-324,-5e-324,0.0
1668680909.695858,71991,1668680909,695602955,,-7.87542733157852e-183,-4.8839753216557356e-182,5e-324,5e-324,-5e-324,0.0
1668680909.7037091,71992,1668680909,703466050,,-7.87542733157852e-183,-4.8839753216557356e-182,5e-324,5e-324,-5e-324,0.0
1668680909.7117484,71993,1668680909,711519459,,-4.166713831763383e-183,-2.5840029588153243e-182,5e-324,5e-324,-5e-324,0.0
1668680909.7198665,71994,1668680909,719626976,,-2.204515821788228e-183,-1.367138622007355e-182,5e-324,5e-324,-5e-324,0.0
1668680909.7278662,71995,1668680909,727670122,,-1.166360399283261e-183,-7.233227057298232e-183,5e-324,5e-324,-5e-324,0.0
1668680909.736031,71996,1668680909,735781854,,-6.170954037030683e-184,-3.8269399181782294e-183,5e-324,5e-324,-5e-324,0.0
1668680909.743518,71997,1668680909,743288825,,-6.170954037030683e-184,-3.8269399181782294e-183,5e-324,5e-324,-5e-324,0.0
1668680909.7519,71998,1668680909,751681199,,-3.264914836833127e-184,-2.024748984282044e-183,5e-324,5e-324,-5e-324,0.0
1668680909.7615662,71999,1668680909,759538672,,-1.7273939860524816e-184,-1.0712497548962671e-183,5e-324,5e-324,-5e-324,0.0
1668680909.7679129,72000,1668680909,767679599,,-9.139258241555139e-185,-5.667744724278657e-184,5e-324,5e-324,-5e-324,0.0
1668680909.7770844,72001,1668680909,776748704,,-4.8353787196348297e-185,-2.998677956542372e-184,5e-324,5e-324,-5e-324,0.0
1668680909.783842,72002,1668680909,783621187,,-4.8353787196348297e-185,-2.998677956542372e-184,5e-324,5e-324,-5e-324,0.0
1668680909.7919247,72003,1668680909,791596908,,-2.5582915751288438e-185,-1.5865339609482092e-184,5e-324,5e-324,-5e-324,0.0
1668680909.7996607,72004,1668680909,799432305,,-1.353535299478981e-185,-8.393999108008073e-185,5e-324,5e-324,-5e-324,0.0
1668680909.8077006,72005,1668680909,807482892,,-7.1612548966135205e-186,-4.4410786506662365e-185,5e-324,5e-324,-5e-324,0.0
1668680909.8155608,72006,1668680909,815330407,,-7.1612548966135205e-186,-4.4410786506662365e-185,5e-324,5e-324,-5e-324,0.0
1668680909.8236837,72007,1668680909,823457302,,-3.788861045146869e-186,-2.3496761588391236e-185,5e-324,5e-324,-5e-324,0.0
1668680909.8322694,72008,1668680909,831663233,,-2.0046022975973065e-186,-1.2431615122575546e-185,5e-324,5e-324,-5e-324,0.0
1668680909.8400033,72009,1668680909,839733768,,-1.0605905900612494e-186,-6.577291682280304e-186,5e-324,5e-324,-5e-324,0.0
1668680909.848483,72010,1668680909,848275045,,-5.6113494485899e-187,-3.479899067598469e-186,5e-324,5e-324,-5e-324,0.0
1668680909.8556972,72011,1668680909,855471021,,-5.6113494485899e-187,-3.479899067598469e-186,5e-324,5e-324,-5e-324,0.0
1668680909.8648207,72012,1668680909,864524418,,-2.9688404676843094e-187,-1.8411373716779337e-186,5e-324,5e-324,-5e-324,0.0
1668680909.8719676,72013,1668680909,871698548,,0.09550616865146654,-9.7410492532718e-187,5e-324,5e-324,-5e-324,0.0
1668680909.879869,72014,1668680909,879667732,,0.30827064337495214,-5.153772989149104e-187,0.18293914863217783,5e-324,-5e-324,0.0
1668680909.8876538,72015,1668680909,887470759,,0.42082033516942285,-2.7267469174084626e-187,0.2798027609095244,5e-324,-5e-324,0.0
1668680909.8954809,72016,1668680909,895263898,,0.42082033516942285,-2.7267469174084626e-187,0.2798027609095244,5e-324,-5e-324,0.0
1668680909.9036663,72017,1668680909,903496633,,0.5418371497717717,-1.442661282763273e-187,0.48529259701370064,5e-324,-5e-324,0.0
1668680909.9120936,72018,1668680909,911884923,,0.6058386273043879,-7.632800695571121e-188,0.5940213668947381,5e-324,-5e-324,0.0
1668680909.91997,72019,1668680909,919720957,,0.6717927260653527,-4.0383454629572144e-188,0.7693115820224082,5e-324,-5e-324,0.0
1668680909.9285216,72020,1668680909,928230121,,0.9023407259701254,-2.1365989665693558e-188,0.9499307775331112,5e-324,-5e-324,0.0
1668680909.9369693,72021,1668680909,935907157,,0.9023407259701254,-2.1365989665693558e-188,0.9499307775331112,5e-324,-5e-324,0.0
1668680909.9446678,72022,1668680909,944377871,,1.024269581331524,-1.1304270983796231e-188,1.0454938253792951,5e-324,-5e-324,0.0
1668680909.9518907,72023,1668680909,951594258,,1.2367427363297208,-0.0850470342163883,1.0792145601353185,5e-324,-5e-324,0.0
1668680909.9599261,72024,1668680909,959695696,,1.1123659915767228,-0.726492906817935,1.0822952841495053,5e-324,-5e-324,0.0
1668680909.9679158,72025,1668680909,967673986,,1.046471545257529,-1.0658658659741471,1.0840119691703145,5e-324,-5e-324,0.0
1668680909.976098,72026,1668680909,975854289,,0.5536648715794037,-2.339167526773296,1.0040809947595124,5e-324,-5e-324,0.0
1668680909.983538,72027,1668680909,983316043,,0.5536648715794037,-2.339167526773296,1.0040809947595124,5e-324,-5e-324,0.0
1668680909.9919364,72028,1668680909,991705721,,0.29293179677006803,-3.0128538767081414,0.9617818725031968,5e-324,-5e-324,0.0
1668680909.9997187,72029,1668680909,999508831,,0.15498371300703725,-3.649656886636142,0.8947828823923993,5e-324,-5e-324,0.0
1668680910.0078483,72030,1668680910,7634532,,0.08199844319495897,-4.002157625500762,0.869207369738634,5e-324,-5e-324,0.0
1668680910.0154352,72031,1668680910,15252676,,0.08199844319495897,-4.002157625500762,0.869207369738634,5e-324,-5e-324,0.0
1668680910.0242145,72032,1668680910,23928776,,0.04338355660695529,-4.188759501050258,0.8554039094852162,5e-324,-5e-324,0.0
1668680910.031779,72033,1668680910,31543377,,0.022953277044467132,-4.257911811116815,0.8714122727324232,5e-324,-5e-324,0.0
1668680910.0397897,72034,1668680910,39564939,,0.012144069511248792,-4.216456211547612,0.9350422220605551,5e-324,-5e-324,0.0
1668680910.047939,72035,1668680910,47699822,,0.006425157680462539,-4.1945763288311735,0.9686067511809149,5e-324,-5e-324,0.0
1668680910.0559816,72036,1668680910,55699044,,0.006425157680462539,-4.1945763288311735,0.9686067511809149,5e-324,-5e-324,0.0
1668680910.0639026,72037,1668680910,63595478,,0.003399408343353726,-3.681601242773265,1.1011580495896882,5e-324,-5e-324,0.0
1668680910.071795,72038,1668680910,71555086,,0.0017985515157086425,-3.4100709908756635,1.1715083908726436,5e-324,-5e-324,0.0
1668680910.0797992,72039,1668680910,79524294,,0.6358348706053123,-2.124322696521948,1.2170374418132932,5e-324,-5e-324,0.0
1668680910.0879338,72040,1668680910,87660375,,1.269634494528734,-1.1713795899049577,1.2618595998075144,5e-324,-5e-324,0.0
1668680910.0959861,72041,1668680910,95756759,,1.6050047425499823,-0.6670837880528044,1.2855758470451426,5e-324,-5e-324,0.0
1668680910.1050649,72042,1668680910,104113744,,1.6050047425499823,-0.6670837880528044,1.2855758470451426,5e-324,-5e-324,0.0
1668680910.1122148,72043,1668680910,111896216,,1.789001670955866,-0.3850427311198711,1.2929391811858277,5e-324,-5e-324,0.0
1668680910.1204925,72044,1668680910,120269932,,1.8760166427505403,-0.2100409906398967,1.239951945178483,5e-324,-5e-324,0.0
1668680910.127706,72045,1668680910,127491688,,1.922017137385962,-0.11754466417526033,1.2119249763646331,5e-324,-5e-324,0.0
1668680910.135699,72046,1668680910,135505819,,2.0036908332132044,-0.29133394731506984,1.2577219116573284,5e-324,-5e-324,0.0
1668680910.1435838,72047,1668680910,143327359,,2.0036908332132044,-0.29133394731506984,1.2577219116573284,5e-324,-5e-324,0.0
1668680910.1520672,72048,1668680910,151869006,,2.0468547594897015,-0.38342547033210234,1.281923775083863,5e-324,-5e-324,0.0
1668680910.1596913,72049,1668680910,159504001,,1.712561364475511,-0.9579218044338244,1.1569465906641314,5e-324,-5e-324,0.0
1668680910.1678674,72050,1668680910,167652358,,0.9060782132407057,-2.638640073091201,0.7046439616375061,5e-324,-5e-324,0.0
1668680910.1754067,72051,1668680910,175209446,,0.9060782132407057,-2.638640073091201,0.7046439616375061,5e-324,-5e-324,0.0
1668680910.1837056,72052,1668680910,183532306,,0.47938587518053827,-3.527768356437935,0.4657910499597394,5e-324,-5e-324,0.0
1668680910.1919024,72053,1668680910,191691006,,0.25363242815502934,-4.108761947121111,0.24643970782342614,5e-324,-5e-324,0.0
1668680910.1998196,72054,1668680910,199584279,,0.13419128919388676,-4.717386133049597,0.13038578048535937,5e-324,-5e-324,0.0
1668680910.207714,72055,1668680910,207498997,,0.07099763317532344,-5.039397443632982,0.068984222968472,5e-324,-5e-324,0.0
1668680910.215756,72056,1668680910,215559232,,0.03756327215259678,-5.305546156789153,0.03649802149321193,5e-324,-0.019728784439563246,0.0
1668680910.2235072,72057,1668680910,223267718,,0.03756327215259678,-5.305546156789153,0.03649802149321193,5e-324,-0.019728784439563246,0.0
1668680910.232164,72058,1668680910,231910203,,0.019873893701860358,-5.446342265046956,0.01931029321773726,5e-324,-0.03016838190731231,0.0
1668680910.2408803,72059,1668680910,240549580,,0.010514836121526226,-5.391985738013325,0.010216647612647744,5e-324,-0.023236180430253238,0.0
1668680910.2488449,72060,1668680910,248462187,,0.8261344449105162,-4.052950790066253,0.11954013432028925,5e-324,-0.012293747414552025,0.0
1668680910.2558403,72061,1668680910,255588140,,0.8261344449105162,-4.052950790066253,0.11954013432028925,5e-324,-0.012293747414552025,0.0
1668680910.2639043,72062,1668680910,263692956,,1.25768334666338,-3.3443779120662636,0.17767112152123193,5e-324,-0.006504348937488323,0.0
1668680910.2718275,72063,1668680910,271565248,,1.4572083352803897,-2.6939891967443867,0.6176320568970255,5e-324,-0.003441306680054895,0.0
1668680910.2808554,72064,1668680910,280649815,,1.974486067894663,-2.033190872318394,1.0437471186285294,5e-324,-0.0018207189958605605,0.0
1668680910.288521,72065,1668680910,288328401,,2.248126440460778,-1.6835607593715465,1.2692661138436685,5e-324,-0.0009633020158013372,0.0
1668680910.2966638,72066,1668680910,296412630,,2.636765786295554,-1.6640772746684587,1.0889147192440507,5e-324,-0.0005096617192200629,0.0
1668680910.3040547,72067,1668680910,303804866,,2.636765786295554,-1.6640772746684587,1.0889147192440507,5e-324,-0.0005096617192200629,0.0
1668680910.3121016,72068,1668680910,311912806,,2.8424419128534333,-1.6537086255974698,0.9934591308602831,5e-324,-0.00026965070536291675,0.0
1668680910.3197186,72069,1668680910,319507871,,3.0009066558562605,-1.4880469685182383,0.8027070622607413,5e-324,-0.00014266620419126086,0.0
1668680910.3278532,72070,1668680910,327604381,,3.131327168051573,-1.8588393269112788,0.4246944931819456,5e-324,-7.548152262738949e-05,0.0
1668680910.3356762,72071,1668680910,335419212,,3.131327168051573,-1.8588393269112788,0.4246944931819456,5e-324,-7.548152262738949e-05,0.0
1668680910.343903,72072,1668680910,343679235,,3.2003292015134703,-2.0550344631732385,0.2246964316360804,5e-324,-3.9935598556410704e-05,0.0
1668680910.3519218,72073,1668680910,351696935,,3.2585227881370433,-2.1821683092450757,0.11888189557559845,5e-324,-2.112903895608591e-05,0.0
1668680910.3601558,72074,1668680910,359949979,,2.2337833173813433,-3.932631269574923,0.0628977727538514,5e-324,-0.094508981427139,0.0
1668680910.3677247,72075,1668680910,367542317,,1.69171803644001,-4.858707046102468,0.033277815753529776,5e-324,-0.1444984745660211,0.0
1668680910.3761222,72076,1668680910,375854467,,1.314673261644589,-5.535389753189129,0.010561159945866573,5e-324,-0.1995616698005338,0.0
1668680910.3837595,72077,1668680910,383369667,,1.314673261644589,-5.535389753189129,0.010561159945866573,5e-324,-0.1995616698005338,0.0
1668680910.3919258,72078,1668680910,391700658,,1.1150686628932769,-5.8933941303901864,-0.0017750374274624996,5e-324,-0.22869810744841784,0.0
1668680910.4000747,72079,1668680910,399818246,,0.9970980407374332,-6.089066045393662,-0.0009391329117150584,5e-324,-0.2485048493666302,0.0
1668680910.4079525,72080,1668680910,407751891,,1.1279170314648153,-5.989132976549213,-0.0004968743826022997,5e-324,-0.23273945255665518,0.0
1668680910.4154541,72081,1668680910,415260791,,1.1279170314648153,-5.989132976549213,-0.0004968743826022997,5e-324,-0.23273945255665518,0.0
1668680910.4240768,72082,1668680910,423837441,,1.1973202812245718,-5.936182711066684,-0.0002628852093316089,5e-324,-0.22439326264381,0.0
1668680910.4320028,72083,1668680910,431767694,,1.3168028652446209,-5.939651930462945,-0.00013908673037917241,5e-324,-0.22745927123159004,0.0
1668680910.440514,72084,1668680910,439896846,,1.9330520160400493,-5.150960172591494,-7.358770246813798e-05,5e-324,-0.120343652693386,0.0
1668680910.447871,72085,1668680910,447611205,,2.2589463735284525,-4.733788441260939,-3.893362033730066e-05,5e-324,-0.0636711560059502,0.0
1668680910.4561367,72086,1668680910,455811644,,3.4223169925115116,-3.1646726327349612,-2.059891451598716e-05,5e-324,-0.03368699566950119,0.0
1668680910.4636097,72087,1668680910,463379585,,3.4223169925115116,-3.1646726327349612,-2.059891451598716e-05,5e-324,-0.03368699566950119,0.0
1668680910.472176,72088,1668680910,471963505,,4.037856171654102,-2.3344195502224094,-1.0898428544812925e-05,5e-324,-0.01782304183594438,0.0
1668680910.480033,72089,1668680910,479771405,,4.483100780397908,-1.913918601821033,-5.766116688052147e-06,5e-324,-0.009429775911225607,0.0
1668680910.4879134,72090,1668680910,487690680,,4.852312464768703,-1.744660058768535,-3.0507243795306427e-06,5e-324,-0.004989085171567131,0.0
1668680910.4954376,72091,1668680910,495278908,,4.852312464768703,-1.744660058768535,-3.0507243795306427e-06,5e-324,-0.004989085171567131,0.0
1668680910.5040233,72092,1668680910,503797820,,5.04766702551971,-1.6550786198858163,-1.6140705683510192e-06,5e-324,-0.0026396142478337958,0.0
1668680910.5117457,72093,1668680910,511546977,,5.249835811535695,-1.6294563512916471,-8.539689186926151e-07,5e-324,-0.0013965613209161913,0.0
1668680910.5199077,72094,1668680910,519669590,,5.549325788726884,-1.6309186351793747,-4.5181600383065666e-07,5e-324,-0.0007388896027818319,0.0
1668680910.5279663,72095,1668680910,527762472,,5.7079157221842625,-1.6313423077300468,-2.3904582104701053e-07,5e-324,-0.00039093009159162914,0.0
1668680910.535647,72096,1668680910,535437526,,5.7079157221842625,-1.6313423077300468,-2.3904582104701053e-07,5e-324,-0.00039093009159162914,0.0
1668680910.5438557,72097,1668680910,543619113,,5.327628563606077,-2.219224887466955,-1.264738390751136e-07,5e-324,-0.00020683243604520418,0.0
1668680910.5523288,72098,1668680910,552036345,,5.126422773868292,-2.530284439900806,-6.691450158106737e-08,5e-324,-0.00010943045194147316,0.0
1668680910.5597296,72099,1668680910,559532328,,3.5612572732977847,-4.181588544240539,-3.540297783783903e-08,5e-324,-0.14242513793005143,0.0
1668680910.5678587,72100,1668680910,567625849,,2.6423379625768497,-5.4590072469426785,-0.32481878032501454,5e-324,-0.2750655549015679,0.0
1668680910.5758927,72101,1668680910,575643749,,2.156400323682051,-6.134638893348347,-0.4973370333841992,5e-324,-0.34524035737012415,0.0
1668680910.583561,72102,1668680910,583338462,,2.156400323682051,-6.134638893348347,-0.4973370333841992,5e-324,-0.34524035737012415,0.0
1668680910.591845,72103,1668680910,591638878,,2.036103141746634,-6.587601917288949,-0.6722679207964304,5e-324,-0.39678190989524864,0.0
1668680910.6000965,72104,1668680910,599657181,,2.0694782084490595,-6.909497161648084,-0.7587857908991338,5e-324,-0.4384756557486895,0.0
1668680910.6078334,72105,1668680910,607619892,,2.087098038480927,-7.0798617636922945,-0.8043704699787088,5e-324,-0.46053218147732455,0.0
1668680910.6154435,72106,1668680910,615261558,,2.087098038480927,-7.0798617636922945,-0.8043704699787088,5e-324,-0.46053218147732455,0.0
1668680910.6239557,72107,1668680910,623683355,,2.230026625773136,-7.092412924126323,-0.8543384672218883,5e-324,-0.4537881133797552,0.0
1668680910.632262,72108,1668680910,632019888,,2.3053798331190345,-7.099182870863375,-0.880700376752577,5e-324,-0.45023127369895277,0.0
1668680910.639791,72109,1668680910,639550128,,3.1237883285910266,-6.463792640555459,-1.0401805256729406,5e-324,-0.37604169159929296,0.0
1668680910.6479928,72110,1668680910,647673139,,4.507747864082835,-4.6519370231658925,-0.5503364327258202,5e-324,-0.19895531400864558,0.0
1668680910.6563933,72111,1668680910,656135804,,5.239898136590133,-3.693457607352438,-0.2911707936364609,5e-324,-0.10526284147891327,0.0
1668680910.6635091,72112,1668680910,663268192,,5.239898136590133,-3.693457607352438,-0.2911707936364609,5e-324,-0.10526284147891327,0.0
1668680910.671876,72113,1668680910,671665039,,5.780010503464037,-3.1033668669382948,-0.1540520053287558,0.012679982826367864,-0.055692233461697487,0.0
1668680910.6798775,72114,1668680910,679669744,,6.09679079579993,-2.650777978140481,-0.0815054973385876,0.014134297983863581,-0.029465524817449937,0.0
1668680910.6879556,72115,1668680910,687653566,,6.264533680349445,-2.410981312341887,-0.04312274989367166,0.01493896980203042,-0.015589555289874974,0.0
1668680910.6955636,72116,1668680910,695362908,,6.264533680349445,-2.410981312341887,-0.04312274989367166,0.01493896980203042,-0.015589555289874974,0.0
1668680910.7037435,72117,1668680910,703504927,,5.0945407639254725,-3.8140271221815967,-0.02281529000022152,0.007903877400636137,-0.1304493849898919,0.0
1668680910.7117853,72118,1668680910,711465768,,4.475669186265746,-4.556248643728296,-0.01207106362830998,0.004181766131945453,-0.1912049933963948,0.0
1668680910.720744,72119,1668680910,720459366,,4.112067976651803,-5.999951584986283,-0.726740120925491,0.0022124796597779452,-0.3854009552400194,0.0
1668680910.7288017,72120,1668680910,728554940,,3.9108877562486697,-7.124124819246816,-1.5689100287894873,0.00117057388923226,-0.5351539334499955,0.0
1668680910.7359471,72121,1668680910,735690609,,3.9108877562486697,-7.124124819246816,-1.5689100287894873,0.00117057388923226,-0.5351539334499955,0.0
1668680910.7447383,72122,1668680910,744485631,,3.8045510098960387,-7.718701423803452,-2.0148758908403788,0.0006193246677304429,-0.6143881467271282,0.0
1668680910.751744,72123,1668680910,751577366,,3.8226071845297316,-8.07158435619195,-2.2269335745165906,0.00032767093780896613,-0.6599309483501942,0.0
1668680910.7598693,72124,1668680910,759585296,,3.544762861252279,-8.305950452067345,-2.2381496662348153,0.0001733634216090012,-0.6892349255261476,0.0
1668680910.7678201,72125,1668680910,767586545,,3.3980174594935812,-8.429858324972226,-2.2440156954466834,9.172273913868571e-05,-0.7047277560866922,0.0
1668680910.7758548,72126,1668680910,775635994,,3.4372489561304325,-8.252831148198368,-2.252677719074834,4.852846579180906e-05,-0.6842514609570685,0.0
1668680910.7834797,72127,1668680910,783261070,,3.4372489561304325,-8.252831148198368,-2.252677719074834,4.852846579180906e-05,-0.6842514609570685,0.0
1668680910.7921264,72128,1668680910,791895787,,3.4577331901889106,-8.159363450537759,-2.2570976923360497,2.5675334319726106e-05,-0.6734314111392835,0.0
1668680910.7999153,72129,1668680910,799712613,,3.882495978057508,-7.700841774064964,-2.006324051550337,1.3584249608422053e-05,-0.6065505888320148,0.0
1668680910.8076887,72130,1668680910,807490647,,4.471759109260432,-6.78360978476108,-1.531481698445544,7.187125009785782e-06,-0.4873657336043625,0.0
1668680910.8156068,72131,1668680910,815373518,,4.471759109260432,-6.78360978476108,-1.531481698445544,7.187125009785782e-06,-0.4873657336043625,0.0
1668680910.8239405,72132,1668680910,823709276,,4.783990187736123,-6.297919465846697,-1.28018819410761,3.8025483479236875e-06,-0.4242525350307677,0.0
1668680910.8320184,72133,1668680910,831741003,,4.882740281759192,-5.905742662812234,-0.9226976302294672,2.0118439457515626e-06,-0.370528708208459,0.0
1668680910.8402286,72134,1668680910,839975656,,5.355291116645606,-5.781854559457374,-1.0129672210760308,1.0644219853949494e-06,-0.3537324609690788,0.0
1668680910.8478615,72135,1668680910,847642805,,5.6052850163947205,-5.716304110540804,-1.0608119276304042,5.631620511047512e-07,-0.3448402971834843,0.0
1668680910.855693,72136,1668680910,855418986,,5.6052850163947205,-5.716304110540804,-1.0608119276304042,5.631620511047512e-07,-0.3448402971834843,0.0
1668680910.863797,72137,1668680910,863545975,,5.260370346321411,-6.353482818114982,-1.1443280985217323,2.979565436980641e-07,-0.4360588311734517,0.0
1668680910.871865,72138,1668680910,871617415,,5.07772974075035,-6.690661182269681,-1.18869764395391,1.5764219509880147e-07,-0.4843402422851696,0.0
1668680910.8798554,72139,1668680910,879625149,,4.483688078020426,-7.217751925645397,-1.4795469802241168,8.34049870733886e-08,-0.5559531389881694,0.0
1668680910.8880844,72140,1668680910,887730070,,4.349324177923206,-7.850081656454584,-1.8585565248497962,4.412772775938724e-08,-0.6362251420840994,0.0
1668680910.8955417,72141,1668680910,895283959,,4.349324177923206,-7.850081656454584,-1.8585565248497962,4.412772775938724e-08,-0.6362251420840994,0.0
1668680910.9036725,72142,1668680910,903478454,,4.278360071495198,-8.184524740863228,-2.0592004016503638,2.3347001486771902e-08,-0.6786930529181168,0.0
1668680910.9119148,72143,1668680910,911604522,,4.174551780964572,-8.346727173696472,-2.2408015521084605,1.2352380376244836e-08,-0.6953680098533443,0.0
1668680910.920008,72144,1668680910,919770984,,4.173318325374375,-8.329118162007775,-2.2312174932747317,6.5353703363530014e-09,-0.7084498816966218,0.0
1668680910.9276965,72145,1668680910,927455912,,4.173032996509105,-8.319613838753876,-2.2260997400398823,3.4577194137756183e-09,-0.715346125286932,0.0
1668680910.9354894,72146,1668680910,935291725,,4.173032996509105,-8.319613838753876,-2.2260997400398823,3.4577194137756183e-09,-0.715346125286932,0.0
1668680910.9437165,72147,1668680910,943539764,,4.501305873400862,-7.974115961173699,-2.2182008243493803,1.8294026090452027e-09,-0.6665246413339052,0.0
1668680910.9517462,72148,1668680910,951523595,,4.675111037346622,-7.791128149575778,-2.2143113041539038,9.678963228329125e-10,-0.6406886305976761,0.0
1668680910.959977,72149,1668680910,959730283,,5.221158603239001,-7.251248374286115,-2.106293827982589,5.120924651148377e-10,-0.576504511720806,0.0
1668680910.9677835,72150,1668680910,967551842,,5.492285628314537,-6.828593151937893,-1.707552563084955,2.7093675907338006e-10,-0.51978255625,0.0
1668680910.9756382,72151,1668680910,975354197,,5.492285628314537,-6.828593151937893,-1.707552563084955,2.7093675907338006e-10,-0.51978255625,0.0
1668680910.9840457,72152,1668680910,983767553,,5.635786159633653,-6.604919520046954,-1.496609944490565,1.4334662666970738e-10,-0.4897621728946008,0.0
1668680910.991908,72153,1668680910,991692571,,5.957468756574041,-6.600650217524186,-1.5204095760146576,7.584151906098207e-11,-0.4938446003433703,0.0
1668680910.9997597,72154,1668680910,999506226,,5.636896882060403,-6.715619200565254,-1.5371339666766763,4.0126064680480064e-11,-0.49816283737178757,0.0
1668680911.007836,72155,1668680911,7657224,,5.466772963697253,-6.776782947988062,-1.5462186617216398,2.1229810355557777e-11,-0.5004846317531513,0.0
1668680911.0157392,72156,1668680911,15496869,,5.157137331325869,-6.9189277896919545,-1.594430732340054,1.1232221532858179e-11,-0.5235393190270143,0.0
1668680911.0233643,72157,1668680911,23163603,,5.157137331325869,-6.9189277896919545,-1.594430732340054,1.1232221532858179e-11,-0.5235393190270143,0.0
1668680911.0333884,72158,1668680911,31563406,,4.993626940567957,-6.994091133648877,-1.6193856221726832,5.9427191505822676e-12,-0.5357184180774134,0.0
1668680911.0398405,72159,1668680911,39624566,,5.453122914858328,-7.09859799316888,-1.9274269763720115,3.144160823340764e-12,-0.5547377332133331,0.0
1668680911.0484774,72160,1668680911,47879428,,5.526358091039488,-7.1427925024113215,-2.075364838959291,1.6635057172544096e-12,-0.5735758453118754,0.0
1668680911.055721,72161,1668680911,55490298,,5.526358091039488,-7.1427925024113215,-2.075364838959291,1.6635057172544096e-12,-0.5735758453118754,0.0
1668680911.0638704,72162,1668680911,63631221,,5.565157562290548,-7.166021284949464,-2.153916759558202,8.801239589258101e-13,-0.5835457489707374,0.0
1668680911.0718346,72163,1668680911,71567537,,5.368923093360182,-7.063752442938104,-2.093162615099032,4.656540551923899e-13,-0.5678333341973647,0.0
1668680911.0798438,72164,1668680911,79620678,,5.361590623371944,-7.163628312434705,-2.064013077205226,2.463672269321727e-13,-0.583972828131275,0.0
1668680911.0878377,72165,1668680911,87605104,,5.357944783672884,-7.216610511945655,-2.047718305898461,1.303474324542737e-13,-0.59250858143065,0.0
1668680911.0954528,72166,1668680911,95239438,,5.357944783672884,-7.216610511945655,-2.047718305898461,1.303474324542737e-13,-0.59250858143065,0.0
1668680911.1038754,72167,1668680911,103583404,,5.648532155209517,-6.8682705442846395,-2.0580021796461745,6.89639338762338e-14,-0.5497383922578528,0.0
1668680911.1122193,72168,1668680911,112016240,,5.802380630937115,-6.683983237265121,-2.0631758431048466,3.6487286984758804e-14,-0.5271039893110578,0.0
1668680911.1198454,72169,1668680911,119597532,,5.450547438889628,-6.509131721478333,-1.7158151150305705,1.9304613827532053e-14,-0.5002660408068356,0.0
1668680911.128156,72170,1668680911,127920252,,6.837572016215825,-5.066706233966665,-1.7150325215212532,0.14301904436351007,-0.29510942934986534,0.0
1668680911.1370933,72171,1668680911,136681696,,7.571124338995041,-4.303795787789032,-1.7152266041257715,0.21864699232590462,-0.1866239787552152,0.0
1668680911.1442525,72172,1668680911,144042603,,7.571124338995041,-4.303795787789032,-1.7152266041257715,0.21864699232590462,-0.1866239787552152,0.0
1668680911.1518576,72173,1668680911,151600053,,7.918497688492395,-3.573716594742886,-1.5375590097991818,0.2529397792256588,-0.09873860565001365,0.0
1668680911.159773,72174,1668680911,159540324,,8.326022031344992,-2.9839917742817703,-1.5439676256861152,0.30653774046405,-0.05224040506872145,0.0
1668680911.167824,72175,1668680911,167605566,,8.541733018685822,-2.6719129211224493,-1.547068180535243,0.33490899037499355,-0.027639239016777836,0.0
1668680911.1756995,72176,1668680911,175484140,,8.541733018685822,-2.6719129211224493,-1.547068180535243,0.33490899037499355,-0.027639239016777836,0.0
1668680911.1838303,72177,1668680911,183641965,,8.631837723316801,-2.583435782886485,-1.5898185030415957,0.34927387718780434,-0.014623308001184892,0.0
1668680911.1917338,72178,1668680911,191501320,,8.679476812255364,-2.5369418602447302,-1.6121404078908599,0.35683930850914225,-0.00773686774689094,0.0
1668680911.2001874,72179,1668680911,199902384,,7.7485139234862475,-3.0991993088096126,-1.5206713303971375,0.2113692304889488,-0.05212464981152846,0.0
1668680911.207895,72180,1668680911,207641440,,6.842792085514811,-4.574552559315976,-1.799679985550199,0.1118307692023308,-0.24144167867587416,0.0
1668680911.2159326,72181,1668680911,215702495,,6.363669385348926,-5.3552070788530415,-1.9469527577771366,0.059167178266464136,-0.34160931367046116,0.0
1668680911.223609,72182,1668680911,223383757,,6.363669385348926,-5.3552070788530415,-1.9469527577771366,0.059167178266464136,-0.34160931367046116,0.0
1668680911.2316597,72183,1668680911,231456223,,6.124526891235403,-5.902134602700552,-2.139849441679204,0.03130404099860723,-0.4106769743395572,0.0
1668680911.2399747,72184,1668680911,239710949,,6.162158801742292,-6.308008502418023,-2.4618651900509487,0.016562273401466442,-0.48039835633417416,0.0
1668680911.2479012,72185,1668680911,247688691,,6.181740066233365,-6.522572154066523,-2.633211855295328,0.008762731311178875,-0.5172904761857515,0.0
1668680911.2565722,72186,1668680911,255975340,,6.181740066233365,-6.522572154066523,-2.633211855295328,0.008762731311178875,-0.5172904761857515,0.0
1668680911.2638526,72187,1668680911,263549596,,6.3155842968689235,-6.579835977428474,-2.7629373099795145,0.01569102287727644,-0.5271408663280432,0.0
1668680911.2723837,72188,1668680911,272147071,,6.386286974668888,-6.610449608102032,-2.831165557150861,0.019356058624294282,-0.5323504808827795,0.0
1668680911.2798598,72189,1668680911,279563724,,6.304035132532013,-6.191976453606387,-2.766805379999438,0.010240861073643415,-0.4759702811372665,0.0
1668680911.2877862,72190,1668680911,287594218,,7.399081155939614,-4.609903758318889,-2.536990411352539,0.17319796480586455,-0.2554522790560103,0.0
1668680911.2957973,72191,1668680911,295575950,,7.978705051893405,-3.772714494365582,-2.414813598467304,0.25943485915407494,-0.1387476998251018,0.0
1668680911.3034885,72192,1668680911,303292913,,7.978705051893405,-3.772714494365582,-2.414813598467304,0.25943485915407494,-0.1387476998251018,0.0
1668680911.3118324,72193,1668680911,311611979,,8.27964036061708,-3.010189145070303,-2.0980775486576144,0.3062646039106615,-0.0734083289256545,0.0
1668680911.320067,72194,1668680911,319791599,,8.662699250246906,-2.882401503085398,-2.011286836297404,0.3657566357213008,-0.056862443535478674,0.0
1668680911.3279977,72195,1668680911,327685949,,8.865328728080634,-2.814938894843552,-1.9653124573525802,0.397220542799521,-0.048124113740193,0.0
1668680911.3356166,72196,1668680911,335412026,,8.865328728080634,-2.814938894843552,-1.9653124573525802,0.397220542799521,-0.048124113740193,0.0
1668680911.3439097,72197,1668680911,343666757,,9.039103486429877,-2.7834589821060476,-2.035371245628224,0.4238834720792233,-0.048575109187715806,0.0
1668680911.3517299,72198,1668680911,351485841,,9.131008739092302,-2.766692674985028,-2.072686756055493,0.43797683484430516,-0.048837392845090595,0.0
1668680911.360773,72199,1668680911,360490435,,7.9873954745085065,-3.9955828930825694,-2.3662340850427688,0.25635669023289964,-0.2269005090191836,0.0
1668680911.3686988,72200,1668680911,368428449,,6.640906480449058,-5.6580439864865575,-1.9826864761025047,0.1356326358031933,-0.4180674573564599,0.0
1668680911.376651,72201,1668680911,376392649,,5.928378954230851,-6.537606116297599,-1.780102826484836,0.07176021768032947,-0.5192191874643584,0.0
1668680911.3838995,72202,1668680911,383696314,,5.928378954230851,-6.537606116297599,-1.780102826484836,0.07176021768032947,-0.5192191874643584,0.0
1668680911.3917856,72203,1668680911,391585757,,5.292033248683207,-6.945609567476069,-1.620534090980863,0.03796673869112431,-0.5427785021215801,0.0
1668680911.3998652,72204,1668680911,399665249,,4.72754706954757,-7.495501084362644,-0.9247262450489949,0.020087358893773877,-0.5985254493371664,0.0
1668680911.407921,72205,1668680911,407692158,,4.429190961058729,-7.786305525281726,-0.556292411617369,0.010627775817405283,-0.6280047562610218,0.0
1668680911.415642,72206,1668680911,415326978,,4.429190961058729,-7.786305525281726,-0.556292411617369,0.010627775817405283,-0.6280047562610218,0.0
1668680911.4241483,72207,1668680911,423791961,,4.443037578970626,-7.68147891531375,-0.311004352703338,0.005622920336233626,-0.6138161929831218,0.0
1668680911.4323068,72208,1668680911,431984196,,4.450696080805005,-7.625932340065761,-0.18017759731915828,0.002974962367558564,-0.6062865916170666,0.0
1668680911.439696,72209,1668680911,439510642,,4.903746897268286,-7.401545208099491,-0.38154878172972395,0.0015739865691068778,-0.602075480165776,0.0
1668680911.4477706,72210,1668680911,447479358,,5.6829042748265985,-7.510952066744148,-0.727085787766771,0.0008327613642259192,-0.6643453989906782,0.0
1668680911.4558513,72211,1668680911,455629291,,6.0950784104936995,-7.56879147860635,-0.9103037233870923,0.00044059555739469855,-0.6972870237406839,0.0
1668680911.463996,72212,1668680911,463711532,,6.0950784104936995,-7.56879147860635,-0.9103037233870923,0.00044059555739469855,-0.6972870237406839,0.0
1668680911.4717503,72213,1668680911,471561099,,6.270674085804266,-7.624935445728498,-1.4302890729384024,0.0002331093318388883,-0.728670113760707,0.0
1668680911.47994,72214,1668680911,479688464,,6.082184450615927,-7.239281779518368,-0.7567342078995409,0.00012333297437607522,-0.6522148508821063,0.0
1668680911.487847,72215,1668680911,487620816,,5.982384015474713,-7.0352767710469575,-0.40037127615670987,6.525273977003464e-05,-0.6117691070510315,0.0
1668680911.4956129,72216,1668680911,495355971,,5.982384015474713,-7.0352767710469575,-0.40037127615670987,6.525273977003464e-05,-0.6117691070510315,0.0
1668680911.5036597,72217,1668680911,503457382,,5.852757762324167,-6.920993438418089,-0.21182755728234826,3.452377654099481e-05,-0.5763602569264435,0.0
1668680911.5119925,72218,1668680911,511720661,,5.78416182321914,-6.8605294767679545,-0.11207325973765297,1.8265764025434592e-05,-0.557626649103439,0.0
1668680911.5197804,72219,1668680911,519541879,,5.63686892366016,-6.941784957979694,-0.05929547462741806,9.66401039691258e-06,-0.5777278831750206,0.0
1668680911.5280468,72220,1668680911,527832820,,5.361463449904923,-7.229099584508747,0.02967362348541111,5.113013439875115e-06,-0.6145359771695874,0.0
1668680911.5355535,72221,1668680911,535342744,,5.361463449904923,-7.229099584508747,0.02967362348541111,5.113013439875115e-06,-0.6145359771695874,0.0
1668680911.5436842,72222,1668680911,543494548,,5.21531672991515,-7.381411007960761,0.07681136606225003,2.7051819444125996e-06,-0.6340417236402189,0.0
1668680911.5518684,72223,1668680911,551623609,,4.986412938131453,-7.319493644734743,0.5380771573691724,1.4312517341152687e-06,-0.6031419474616311,0.0
1668680911.5606048,72224,1668680911,560325982,,4.388855060592445,-7.483594043514082,0.7289213957981114,7.572435305651018e-07,-0.6032148475391841,0.0
1668680911.568029,72225,1668680911,567650697,,4.07211479326782,-7.570724189415566,0.8299393241824268,4.006407474763059e-07,-0.6032743056375369,0.0
1668680911.5760198,72226,1668680911,575787793,,3.8344105764197938,-7.626214735451254,0.8274758534846731,2.1197012857751114e-07,-0.6049917231132789,0.0
1668680911.5835507,72227,1668680911,583296471,,3.8344105764197938,-7.626214735451254,0.8274758534846731,2.1197012857751114e-07,-0.6049917231132789,0.0
1668680911.5919142,72228,1668680911,591666797,,3.708704923122186,-7.655631215861097,0.8257516949391872,1.1214869104601964e-07,-0.6058976229856134,0.0
1668680911.5997941,72229,1668680911,599580913,,4.1812015015627475,-7.553466761900951,0.8978806133496156,5.933538365872346e-08,-0.5871446196304071,0.0
1668680911.6077478,72230,1668680911,607558615,,4.4180185777494625,-7.3593341842556095,0.8725401078218883,3.139303473888261e-08,-0.5752628121732348,0.0
1668680911.6157346,72231,1668680911,615534554,,4.543440677854398,-7.25653826580556,0.8591140234926167,1.6609358014520886e-08,-0.5689680372482753,0.0
1668680911.6233628,72232,1668680911,623181385,,4.543440677854398,-7.25653826580556,0.8591140234926167,1.6609358014520886e-08,-0.5689680372482753,0.0
1668680911.6318638,72233,1668680911,631672855,,4.817504617364413,-7.372128399352485,0.679685575340924,8.787642735056855e-09,-0.6032664153696488,0.0
1668680911.6398854,72234,1668680911,639651990,,5.400341162222075,-7.324169508065625,0.44749123933474155,4.649346758103768e-09,-0.610029605362786,0.0
1668680911.647796,72235,1668680911,647538841,,5.708270291341648,-7.299053948331428,0.3254371967848941,2.459866192654242e-09,-0.6136421444498577,0.0
1668680911.6568089,72236,1668680911,656490859,,5.916229515510631,-7.243744897507334,0.2452783906165037,1.3014606138414053e-09,-0.61491940349478,0.0
1668680911.6634583,72237,1668680911,663247812,,5.916229515510631,-7.243744897507334,0.2452783906165037,1.3014606138414053e-09,-0.61491940349478,0.0
1668680911.6718998,72238,1668680911,671635795,,6.0260178063342025,-7.214640544559501,0.2032208528039684,6.885739291179922e-10,-0.6156242288606497,0.0
