Time,header.seq,header.stamp.secs,header.stamp.nsecs,header.frame_id,pose.position.x,pose.position.y,pose.position.z,pose.orientation.x,pose.orientation.y,pose.orientation.z,pose.orientation.w
1668680908.0717382,71788,1668680908,71589609,,-0.09879818043296344,-0.6160097982919182,0.0781922967147341,0.9955612156868467,0.09352316526210439,-0.00434759538630278,0.009611544820769187
1668680908.0796442,71789,1668680908,79515084,,-0.09879818043296344,-0.6160097982919182,0.0781922967147341,0.9955612156868467,0.09352316526210439,-0.00434759538630278,0.009611544820769187
1668680908.0878754,71790,1668680908,87683869,,-0.09879818043296344,-0.6160097982919182,0.0781922967147341,0.9955612156868467,0.09352316526210439,-0.00434759538630278,0.009611544820769187
1668680908.0955548,71791,1668680908,95421119,,-0.09879818043296344,-0.6160097982919182,0.0781922967147341,0.9955612156868467,0.09352316526210439,-0.00434759538630278,0.009611544820769187
1668680908.1039894,71792,1668680908,103639818,,-0.09879818043296344,-0.6160097982919182,0.0781922967147341,0.9955612156868467,0.09352316526210439,-0.00434759538630278,0.009611544820769187
1668680908.1119208,71793,1668680908,111776076,,-0.09879818043296344,-0.6160097982919182,0.0781922967147341,0.9955612156868467,0.09352316526210439,-0.00434759538630278,0.009611544820769187
1668680908.1195185,71794,1668680908,119400306,,-0.09879818043296344,-0.6160097982919182,0.0781922967147341,0.9955612156868467,0.09352316526210439,-0.00434759538630278,0.009611544820769187
1668680908.1277823,71795,1668680908,127578208,,-0.09879818043296344,-0.6160097982919182,0.0781922967147341,0.9955612156868467,0.09352316526210439,-0.00434759538630278,0.009611544820769187
1668680908.13572,71796,1668680908,135473990,,-0.09879818043296344,-0.6160097982919182,0.0781922967147341,0.9955612156868467,0.09352316526210439,-0.00434759538630278,0.009611544820769187
1668680908.1440675,71797,1668680908,143912743,,-0.09879818043296344,-0.6160097982919182,0.0781922967147341,0.9955612156868467,0.09352316526210439,-0.00434759538630278,0.009611544820769187
1668680908.1523874,71798,1668680908,152120358,,-0.09879818043296344,-0.6160097982919182,0.0781922967147341,0.9955612156868467,0.09352316526210439,-0.00434759538630278,0.009611544820769187
1668680908.1598032,71799,1668680908,159662623,,-0.09879818043296344,-0.6160097982919182,0.0781922967147341,0.9955612156868467,0.09352316526210439,-0.00434759538630278,0.009611544820769187
1668680908.1677883,71800,1668680908,167595396,,-0.09879818043296344,-0.6160097982919182,0.0781922967147341,0.9955612156868467,0.09352316526210439,-0.00434759538630278,0.009611544820769187
1668680908.1753917,71801,1668680908,175290036,,-0.09879818043296344,-0.6160097982919182,0.0781922967147341,0.9955612156868467,0.09352316526210439,-0.00434759538630278,0.009611544820769187
1668680908.1836061,71802,1668680908,183489243,,-0.09879818043296344,-0.6160097982919182,0.0781922967147341,0.9955612156868467,0.09352316526210439,-0.00434759538630278,0.009611544820769187
1668680908.1916618,71803,1668680908,191538536,,-0.09879818043296344,-0.6160097982919182,0.0781922967147341,0.9955612156868467,0.09352316526210439,-0.00434759538630278,0.009611544820769187
1668680908.2003973,71804,1668680908,200073996,,-0.09879818043296344,-0.6160097982919182,0.0781922967147341,0.9955612156868467,0.09352316526210439,-0.00434759538630278,0.009611544820769187
1668680908.2090628,71805,1668680908,208875050,,-0.09879818043296344,-0.6160097982919182,0.0781922967147341,0.9955612156868467,0.09352316526210439,-0.00434759538630278,0.009611544820769187
1668680908.2158723,71806,1668680908,215635439,,-0.09879818043296344,-0.6160097982919182,0.0781922967147341,0.9955612156868467,0.09352316526210439,-0.00434759538630278,0.009611544820769187
1668680908.2234468,71807,1668680908,223222963,,-0.09879818043296344,-0.6160097982919182,0.0781922967147341,0.9955612156868467,0.09352316526210439,-0.00434759538630278,0.009611544820769187
1668680908.2316406,71808,1668680908,231472135,,-0.09879818043296344,-0.6160097982919182,0.0781922967147341,0.9955612156868467,0.09352316526210439,-0.00434759538630278,0.009611544820769187
1668680908.239705,71809,1668680908,239559472,,-0.09879818043296344,-0.6160097982919182,0.0781922967147341,0.9955612156868467,0.09352316526210439,-0.00434759538630278,0.009611544820769187
1668680908.2478287,71810,1668680908,247655246,,-0.09879818043296344,-0.6160097982919182,0.0781922967147341,0.9955612156868467,0.09352316526210439,-0.00434759538630278,0.009611544820769187
1668680908.2555304,71811,1668680908,255363770,,-0.09879818043296344,-0.6160097982919182,0.0781922967147341,0.9955612156868467,0.09352316526210439,-0.00434759538630278,0.009611544820769187
1668680908.2639794,71812,1668680908,263822469,,-0.09879818043296344,-0.6160097982919182,0.0781922967147341,0.9955612156868467,0.09352316526210439,-0.00434759538630278,0.009611544820769187
1668680908.2721438,71813,1668680908,271823768,,-0.09879818043296344,-0.6160097982919182,0.0781922967147341,0.9955612156868467,0.09352316526210439,-0.00434759538630278,0.009611544820769187
1668680908.2798326,71814,1668680908,279583571,,-0.09879818043296344,-0.6160097982919182,0.0781922967147341,0.9955612156868467,0.09352316526210439,-0.00434759538630278,0.009611544820769187
1668680908.2880454,71815,1668680908,287845051,,-0.09879818043296344,-0.6160097982919182,0.0781922967147341,0.9955612156868467,0.09352316526210439,-0.00434759538630278,0.009611544820769187
1668680908.2959902,71816,1668680908,295778422,,-0.09879818043296344,-0.6160097982919182,0.0781922967147341,0.9955612156868467,0.09352316526210439,-0.00434759538630278,0.009611544820769187
1668680908.3039699,71817,1668680908,303606390,,-0.09879818043296344,-0.6160097982919182,0.0781922967147341,0.9955612156868467,0.09352316526210439,-0.00434759538630278,0.009611544820769187
1668680908.3117557,71818,1668680908,311549298,,-0.09879818043296344,-0.6160097982919182,0.0781922967147341,0.9955612156868467,0.09352316526210439,-0.00434759538630278,0.009611544820769187
1668680908.3197787,71819,1668680908,319551231,,-0.09879818043296344,-0.6160097982919182,0.0781922967147341,0.9955612156868467,0.09352316526210439,-0.00434759538630278,0.009611544820769187
1668680908.3278213,71820,1668680908,327608360,,-0.09879818043296344,-0.6160097982919182,0.0781922967147341,0.9955612156868467,0.09352316526210439,-0.00434759538630278,0.009611544820769187
1668680908.3353467,71821,1668680908,335203956,,-0.09879818043296344,-0.6160097982919182,0.0781922967147341,0.9955612156868467,0.09352316526210439,-0.00434759538630278,0.009611544820769187
1668680908.3438072,71822,1668680908,343628821,,-0.09879818043296344,-0.6160097982919182,0.0781922967147341,0.9955612156868467,0.09352316526210439,-0.00434759538630278,0.009611544820769187
1668680908.3539855,71823,1668680908,351640346,,-0.09879818043296344,-0.6160097982919182,0.0781922967147341,0.9955612156868467,0.09352316526210439,-0.00434759538630278,0.009611544820769187
1668680908.3601515,71824,1668680908,359952731,,-0.09879818043296344,-0.6160097982919182,0.0781922967147341,0.9955612156868467,0.09352316526210439,-0.00434759538630278,0.009611544820769187
1668680908.36784,71825,1668680908,367619492,,-0.09879818043296344,-0.6160097982919182,0.0781922967147341,0.9955612156868467,0.09352316526210439,-0.00434759538630278,0.009611544820769187
1668680908.375602,71826,1668680908,375427966,,-0.09879818043296344,-0.6160097982919182,0.0781922967147341,0.9955612156868467,0.09352316526210439,-0.00434759538630278,0.009611544820769187
1668680908.3834321,71827,1668680908,383259077,,-0.09879818043296344,-0.6160097982919182,0.0781922967147341,0.9955612156868467,0.09352316526210439,-0.00434759538630278,0.009611544820769187
1668680908.3918417,71828,1668680908,391603165,,-0.09879818043296344,-0.6160097982919182,0.0781922967147341,0.9955612156868467,0.09352316526210439,-0.00434759538630278,0.009611544820769187
1668680908.3996701,71829,1668680908,399557056,,-0.09879818043296344,-0.6160097982919182,0.0781922967147341,0.9955612156868467,0.09352316526210439,-0.00434759538630278,0.009611544820769187
1668680908.40773,71830,1668680908,407563311,,-0.09879818043296344,-0.6160097982919182,0.0781922967147341,0.9955612156868467,0.09352316526210439,-0.00434759538630278,0.009611544820769187
1668680908.4154046,71831,1668680908,415292230,,-0.09879818043296344,-0.6160097982919182,0.0781922967147341,0.9955612156868467,0.09352316526210439,-0.00434759538630278,0.009611544820769187
1668680908.4242313,71832,1668680908,423704411,,-0.09879818043296344,-0.6160097982919182,0.0781922967147341,0.9955612156868467,0.09352316526210439,-0.00434759538630278,0.009611544820769187
1668680908.4319363,71833,1668680908,431585715,,-0.09879818043296344,-0.6160097982919182,0.0781922967147341,0.9955612156868467,0.09352316526210439,-0.00434759538630278,0.009611544820769187
1668680908.4400656,71834,1668680908,439839640,,-0.09879818043296344,-0.6160097982919182,0.0781922967147341,0.9955612156868467,0.09352316526210439,-0.00434759538630278,0.009611544820769187
1668680908.4479544,71835,1668680908,447767902,,-0.09879818043296344,-0.6160097982919182,0.0781922967147341,0.9955612156868467,0.09352316526210439,-0.00434759538630278,0.009611544820769187
1668680908.4562814,71836,1668680908,456058026,,-0.09879818043296344,-0.6160097982919182,0.0781922967147341,0.9955612156868467,0.09352316526210439,-0.00434759538630278,0.009611544820769187
1668680908.463347,71837,1668680908,463212580,,-0.09879818043296344,-0.6160097982919182,0.0781922967147341,0.9955612156868467,0.09352316526210439,-0.00434759538630278,0.009611544820769187
1668680908.471689,71838,1668680908,471471931,,-0.09879818043296344,-0.6160097982919182,0.0781922967147341,0.9955612156868467,0.09352316526210439,-0.00434759538630278,0.009611544820769187
1668680908.4796405,71839,1668680908,479512444,,-0.09879818043296344,-0.6160097982919182,0.0781922967147341,0.9955612156868467,0.09352316526210439,-0.00434759538630278,0.009611544820769187
1668680908.4878476,71840,1668680908,487680841,,-0.09879818043296344,-0.6160097982919182,0.0781922967147341,0.9955612156868467,0.09352316526210439,-0.00434759538630278,0.009611544820769187
1668680908.4955733,71841,1668680908,495331135,,-0.09879818043296344,-0.6160097982919182,0.0781922967147341,0.9955612156868467,0.09352316526210439,-0.00434759538630278,0.009611544820769187
1668680908.5037212,71842,1668680908,503578538,,-0.09879818043296344,-0.6160097982919182,0.0781922967147341,0.9955612156868467,0.09352316526210439,-0.00434759538630278,0.009611544820769187
1668680908.5117779,71843,1668680908,511562435,,-0.09879818043296344,-0.6160097982919182,0.0781922967147341,0.9955612156868467,0.09352316526210439,-0.00434759538630278,0.009611544820769187
1668680908.5197387,71844,1668680908,519544953,,-0.09879818043296344,-0.6160097982919182,0.0781922967147341,0.9955612156868467,0.09352316526210439,-0.00434759538630278,0.009611544820769187
1668680908.5275831,71845,1668680908,527415644,,-0.09879818043296344,-0.6160097982919182,0.0781922967147341,0.9955612156868467,0.09352316526210439,-0.00434759538630278,0.009611544820769187
1668680908.535479,71846,1668680908,535345013,,-0.09879818043296344,-0.6160097982919182,0.0781922967147341,0.9955612156868467,0.09352316526210439,-0.00434759538630278,0.009611544820769187
1668680908.543781,71847,1668680908,543565980,,-0.09879818043296344,-0.6160097982919182,0.0781922967147341,0.9955612156868467,0.09352316526210439,-0.00434759538630278,0.009611544820769187
1668680908.5519247,71848,1668680908,551725037,,-0.09879818043296344,-0.6160097982919182,0.0781922967147341,0.9955612156868467,0.09352316526210439,-0.00434759538630278,0.009611544820769187
1668680908.5599744,71849,1668680908,559740863,,-0.09879818043296344,-0.6160097982919182,0.0781922967147341,0.9955612156868467,0.09352316526210439,-0.00434759538630278,0.009611544820769187
1668680908.5677395,71850,1668680908,567494924,,-0.09879818043296344,-0.6160097982919182,0.0781922967147341,0.9955612156868467,0.09352316526210439,-0.00434759538630278,0.009611544820769187
1668680908.5756028,71851,1668680908,575434430,,-0.09879818043296344,-0.6160097982919182,0.0781922967147341,0.9955612156868467,0.09352316526210439,-0.00434759538630278,0.009611544820769187
1668680908.5852387,71852,1668680908,584963754,,-0.09879818043296344,-0.6160097982919182,0.0781922967147341,0.9955612156868467,0.09352316526210439,-0.00434759538630278,0.009611544820769187
1668680908.5922,71853,1668680908,591938368,,-0.09879818043296344,-0.6160097982919182,0.0781922967147341,0.9955612156868467,0.09352316526210439,-0.00434759538630278,0.009611544820769187
1668680908.6000621,71854,1668680908,599824853,,-0.09879818043296344,-0.6160097982919182,0.0781922967147341,0.9955612156868467,0.09352316526210439,-0.00434759538630278,0.009611544820769187
1668680908.6078339,71855,1668680908,607606403,,-0.09879818043296344,-0.6160097982919182,0.0781922967147341,0.9955612156868467,0.09352316526210439,-0.00434759538630278,0.009611544820769187
1668680908.6157598,71856,1668680908,615485273,,-0.09879818043296344,-0.6160097982919182,0.0781922967147341,0.9955612156868467,0.09352316526210439,-0.00434759538630278,0.009611544820769187
1668680908.6239278,71857,1668680908,623640661,,-0.09879818043296344,-0.6160097982919182,0.0781922967147341,0.9955612156868467,0.09352316526210439,-0.00434759538630278,0.009611544820769187
1668680908.6317348,71858,1668680908,631539765,,-0.09879818043296344,-0.6160097982919182,0.0781922967147341,0.9955612156868467,0.09352316526210439,-0.00434759538630278,0.009611544820769187
1668680908.6397214,71859,1668680908,639519323,,-0.09879818043296344,-0.6160097982919182,0.0781922967147341,0.9955612156868467,0.09352316526210439,-0.00434759538630278,0.009611544820769187
1668680908.6479363,71860,1668680908,647746352,,-0.09879818043296344,-0.6160097982919182,0.0781922967147341,0.9955612156868467,0.09352316526210439,-0.00434759538630278,0.009611544820769187
1668680908.6558354,71861,1668680908,655662585,,-0.09879818043296344,-0.6160097982919182,0.0781922967147341,0.9955612156868467,0.09352316526210439,-0.00434759538630278,0.009611544820769187
1668680908.6633909,71862,1668680908,663265306,,-0.09879818043296344,-0.6160097982919182,0.0781922967147341,0.9955612156868467,0.09352316526210439,-0.00434759538630278,0.009611544820769187
1668680908.6720893,71863,1668680908,671783333,,-0.09879818043296344,-0.6160097982919182,0.0781922967147341,0.9955612156868467,0.09352316526210439,-0.00434759538630278,0.009611544820769187
1668680908.6799254,71864,1668680908,679800774,,-0.09879818043296344,-0.6160097982919182,0.0781922967147341,0.9955612156868467,0.09352316526210439,-0.00434759538630278,0.009611544820769187
1668680908.6877725,71865,1668680908,687638807,,-0.09879818043296344,-0.6160097982919182,0.0781922967147341,0.9955612156868467,0.09352316526210439,-0.00434759538630278,0.009611544820769187
1668680908.695266,71866,1668680908,695129442,,-0.09879818043296344,-0.6160097982919182,0.0781922967147341,0.9955612156868467,0.09352316526210439,-0.00434759538630278,0.009611544820769187
1668680908.703688,71867,1668680908,703518657,,-0.09879818043296344,-0.6160097982919182,0.0781922967147341,0.9955612156868467,0.09352316526210439,-0.00434759538630278,0.009611544820769187
1668680908.7118247,71868,1668680908,711636288,,-0.09879818043296344,-0.6160097982919182,0.0781922967147341,0.9955612156868467,0.09352316526210439,-0.00434759538630278,0.009611544820769187
1668680908.7197092,71869,1668680908,719571703,,-0.09879818043296344,-0.6160097982919182,0.0781922967147341,0.9955612156868467,0.09352316526210439,-0.00434759538630278,0.009611544820769187
1668680908.7281466,71870,1668680908,727901890,,-0.09879818043296344,-0.6160097982919182,0.0781922967147341,0.9955612156868467,0.09352316526210439,-0.00434759538630278,0.009611544820769187
1668680908.7358618,71871,1668680908,735535710,,-0.09879818043296344,-0.6160097982919182,0.0781922967147341,0.9955612156868467,0.09352316526210439,-0.00434759538630278,0.009611544820769187
1668680908.7442174,71872,1668680908,743887920,,-0.09879818043296344,-0.6160097982919182,0.0781922967147341,0.9955612156868467,0.09352316526210439,-0.00434759538630278,0.009611544820769187
1668680908.7519586,71873,1668680908,751813532,,-0.09879818043296344,-0.6160097982919182,0.0781922967147341,0.9955612156868467,0.09352316526210439,-0.00434759538630278,0.009611544820769187
1668680908.75982,71874,1668680908,759598560,,-0.09879818043296344,-0.6160097982919182,0.0781922967147341,0.9955612156868467,0.09352316526210439,-0.00434759538630278,0.009611544820769187
1668680908.767773,71875,1668680908,767584504,,-0.09879818043296344,-0.6160097982919182,0.0781922967147341,0.9955612156868467,0.09352316526210439,-0.00434759538630278,0.009611544820769187
1668680908.7755382,71876,1668680908,775373551,,-0.09879818043296344,-0.6160097982919182,0.0781922967147341,0.9955612156868467,0.09352316526210439,-0.00434759538630278,0.009611544820769187
1668680908.7838929,71877,1668680908,783643973,,-0.09879818043296344,-0.6160097982919182,0.0781922967147341,0.9955612156868467,0.09352316526210439,-0.00434759538630278,0.009611544820769187
1668680908.791689,71878,1668680908,791523217,,-0.09879818043296344,-0.6160097982919182,0.0781922967147341,0.9955612156868467,0.09352316526210439,-0.00434759538630278,0.009611544820769187
1668680908.7996397,71879,1668680908,799511436,,-0.09879818043296344,-0.6160097982919182,0.0781922967147341,0.9955612156868467,0.09352316526210439,-0.00434759538630278,0.009611544820769187
1668680908.8081205,71880,1668680908,807844334,,-0.09879818043296344,-0.6160097982919182,0.0781922967147341,0.9955612156868467,0.09352316526210439,-0.00434759538630278,0.009611544820769187
1668680908.8154035,71881,1668680908,815220062,,-0.09879818043296344,-0.6160097982919182,0.0781922967147341,0.9955612156868467,0.09352316526210439,-0.00434759538630278,0.009611544820769187
1668680908.8238702,71882,1668680908,823623735,,-0.09879818043296344,-0.6160097982919182,0.0781922967147341,0.9955612156868467,0.09352316526210439,-0.00434759538630278,0.009611544820769187
1668680908.8315108,71883,1668680908,831387216,,-0.09879818043296344,-0.6160097982919182,0.0781922967147341,0.9955612156868467,0.09352316526210439,-0.00434759538630278,0.009611544820769187
1668680908.8397367,71884,1668680908,839496833,,-0.09879818043296344,-0.6160097982919182,0.0781922967147341,0.9955612156868467,0.09352316526210439,-0.00434759538630278,0.009611544820769187
1668680908.8478725,71885,1668680908,847713973,,-0.09879818043296344,-0.6160097982919182,0.0781922967147341,0.9955612156868467,0.09352316526210439,-0.00434759538630278,0.009611544820769187
1668680908.8559039,71886,1668680908,855571627,,-0.09879818043296344,-0.6160097982919182,0.0781922967147341,0.9955612156868467,0.09352316526210439,-0.00434759538630278,0.009611544820769187
1668680908.8637886,71887,1668680908,863514592,,-0.09879818043296344,-0.6160097982919182,0.0781922967147341,0.9955612156868467,0.09352316526210439,-0.00434759538630278,0.009611544820769187
1668680908.8719957,71888,1668680908,871820520,,-0.09879818043296344,-0.6160097982919182,0.0781922967147341,0.9955612156868467,0.09352316526210439,-0.00434759538630278,0.009611544820769187
1668680908.8821206,71889,1668680908,879636455,,-0.09879818043296344,-0.6160097982919182,0.0781922967147341,0.9955612156868467,0.09352316526210439,-0.00434759538630278,0.009611544820769187
1668680908.8878057,71890,1668680908,887650776,,-0.09879818043296344,-0.6160097982919182,0.0781922967147341,0.9955612156868467,0.09352316526210439,-0.00434759538630278,0.009611544820769187
1668680908.8960226,71891,1668680908,895788948,,-0.09879818043296344,-0.6160097982919182,0.0781922967147341,0.9955612156868467,0.09352316526210439,-0.00434759538630278,0.009611544820769187
1668680908.903844,71892,1668680908,903652535,,-0.09879818043296344,-0.6160097982919182,0.0781922967147341,0.9955612156868467,0.09352316526210439,-0.00434759538630278,0.009611544820769187
1668680908.9117298,71893,1668680908,911506366,,-0.09879818043296344,-0.6160097982919182,0.0781922967147341,0.9955612156868467,0.09352316526210439,-0.00434759538630278,0.009611544820769187
1668680908.9197989,71894,1668680908,919631989,,-0.09879818043296344,-0.6160097982919182,0.0781922967147341,0.9955612156868467,0.09352316526210439,-0.00434759538630278,0.009611544820769187
1668680908.927596,71895,1668680908,927481034,,-0.09879818043296344,-0.6160097982919182,0.0781922967147341,0.9955612156868467,0.09352316526210439,-0.00434759538630278,0.009611544820769187
1668680908.9357867,71896,1668680908,935625594,,-0.09879818043296344,-0.6160097982919182,0.0781922967147341,0.9955612156868467,0.09352316526210439,-0.00434759538630278,0.009611544820769187
1668680908.943413,71897,1668680908,943262668,,-0.09879818043296344,-0.6160097982919182,0.0781922967147341,0.9955612156868467,0.09352316526210439,-0.00434759538630278,0.009611544820769187
1668680908.9516919,71898,1668680908,951498117,,-0.09879818043296344,-0.6160097982919182,0.0781922967147341,0.9955612156868467,0.09352316526210439,-0.00434759538630278,0.009611544820769187
1668680908.959749,71899,1668680908,959496931,,-0.09879818043296344,-0.6160097982919182,0.0781922967147341,0.9955612156868467,0.09352316526210439,-0.00434759538630278,0.009611544820769187
1668680908.967624,71900,1668680908,967506335,,-0.09879818043296344,-0.6160097982919182,0.0781922967147341,0.9955612156868467,0.09352316526210439,-0.00434759538630278,0.009611544820769187
1668680908.9754095,71901,1668680908,975244406,,-0.09879818043296344,-0.6160097982919182,0.0781922967147341,0.9955612156868467,0.09352316526210439,-0.00434759538630278,0.009611544820769187
1668680908.9838338,71902,1668680908,983552726,,-0.09879818043296344,-0.6160097982919182,0.0781922967147341,0.9955612156868467,0.09352316526210439,-0.00434759538630278,0.009611544820769187
1668680908.9918401,71903,1668680908,991662989,,-0.09879818043296344,-0.6160097982919182,0.0781922967147341,0.9955612156868467,0.09352316526210439,-0.00434759538630278,0.009611544820769187
1668680908.9998682,71904,1668680908,999695554,,-0.09879818043296344,-0.6160097982919182,0.0781922967147341,0.9955612156868467,0.09352316526210439,-0.00434759538630278,0.009611544820769187
1668680909.0076218,71905,1668680909,7469440,,-0.09879818043296344,-0.6160097982919182,0.0781922967147341,0.9955612156868467,0.09352316526210439,-0.00434759538630278,0.009611544820769187
1668680909.0156918,71906,1668680909,15458435,,-0.09879818043296344,-0.6160097982919182,0.0781922967147341,0.9955612156868467,0.09352316526210439,-0.00434759538630278,0.009611544820769187
1668680909.0239303,71907,1668680909,23621737,,-0.09879818043296344,-0.6160097982919182,0.0781922967147341,0.9955612156868467,0.09352316526210439,-0.00434759538630278,0.009611544820769187
1668680909.032051,71908,1668680909,31851193,,-0.09879818043296344,-0.6160097982919182,0.0781922967147341,0.9955612156868467,0.09352316526210439,-0.00434759538630278,0.009611544820769187
1668680909.039931,71909,1668680909,39714544,,-0.09879818043296344,-0.6160097982919182,0.0781922967147341,0.9955612156868467,0.09352316526210439,-0.00434759538630278,0.009611544820769187
1668680909.047858,71910,1668680909,47626036,,-0.09879690133441453,-0.6160113051943948,0.0781922967147341,0.9955612156868467,0.09352316526210439,-0.00434759538630278,0.009611544820769187
1668680909.0557926,71911,1668680909,55593636,,-0.09879306406494526,-0.6160158258709837,0.0781922967147341,0.9955612156868467,0.09352316526210439,-0.00434759538630278,0.009611544820769187
1668680909.0634766,71912,1668680909,63326486,,-0.09878666870308758,-0.6160233602291527,0.0781922967147341,0.9955612156868467,0.09352316526210439,-0.00434759538630278,0.009611544820769187
1668680909.071808,71913,1668680909,71620528,,-0.09877771537972627,-0.6160339081146537,0.0781922967147341,0.9955612156868467,0.09352316526210439,-0.00434759538630278,0.009611544820769187
1668680909.079804,71914,1668680909,79581601,,-0.09876620427809622,-0.61604746931148,0.0781922967147341,0.9955612156868467,0.09352316526210439,-0.00434759538630278,0.009611544820769187
1668680909.0878577,71915,1668680909,87707140,,-0.0987521356337788,-0.6160640435418062,0.0781922967147341,0.9955612156868467,0.09352316526210439,-0.00434759538630278,0.009611544820769187
1668680909.095908,71916,1668680909,95753237,,-0.09873550973469691,-0.616083630465913,0.0781922967147341,0.9955612156868467,0.09352316526210439,-0.00434759538630278,0.009611544820769187
1668680909.1035104,71917,1668680909,103247850,,-0.09871632692110918,-0.6161062296820927,0.0781922967147341,0.9955612156868467,0.09352316526210439,-0.00434759538630278,0.009611544820769187
1668680909.1117659,71918,1668680909,111640486,,-0.09869458758560296,-0.6161318407265405,0.0781922967147341,0.9955612156868467,0.09352316526210439,-0.00434759538630278,0.009611544820769187
1668680909.1197634,71919,1668680909,119628709,,-0.09867029217308625,-0.6161604630732257,0.0781922967147341,0.9955612156868467,0.09352316526210439,-0.00434759538630278,0.009611544820769187
1668680909.127736,71920,1668680909,127570287,,-0.09864344118077872,-0.6161920961337495,0.0781922967147341,0.9955612156868467,0.09352316526210439,-0.00434759538630278,0.009611544820769187
1668680909.1352997,71921,1668680909,135165225,,-0.0986140351582014,-0.6162267392571833,0.0781922967147341,0.9955612156868467,0.09352316526210439,-0.00434759538630278,0.009611544820769187
1668680909.144389,71922,1668680909,144164448,,-0.0985820747071655,-0.6162643917298916,0.0781922967147341,0.9955612156868467,0.09352316526210439,-0.00434759538630278,0.009611544820769187
1668680909.1525056,71923,1668680909,152292827,,-0.0985475604817601,-0.6163050527753383,0.0781922967147341,0.9955612156868467,0.09352316526210439,-0.00434759538630278,0.009611544820769187
1668680909.1609693,71924,1668680909,160774401,,-0.09851049318833871,-0.6163487215538758,0.0781922967147341,0.9955612156868467,0.09352316526210439,-0.00434759538630278,0.009611544820769187
1668680909.1680667,71925,1668680909,167681543,,-0.09847087358550488,-0.6163953971625175,0.0781922967147341,0.9955612156868467,0.09352316526210439,-0.00434759538630278,0.009611544820769187
1668680909.175657,71926,1668680909,175398097,,-0.09842870248409663,-0.616445078634695,0.0781922967147341,0.9955612156868467,0.09352316526210439,-0.00434759538630278,0.009611544820769187
1668680909.1837437,71927,1668680909,183618516,,-0.09838398074716988,-0.6164977649399972,0.0781922967147341,0.9955612156868467,0.09352316526210439,-0.00434759538630278,0.009611544820769187
1668680909.1919813,71928,1668680909,191816243,,-0.09833670928998077,-0.6165534549838942,0.0781922967147341,0.9955612156868467,0.09352316526210439,-0.00434759538630278,0.009611544820769187
1668680909.1998653,71929,1668680909,199647553,,-0.09828688907996692,-0.6166121476074449,0.0781922967147341,0.9955612156868467,0.09352316526210439,-0.00434759538630278,0.009611544820769187
1668680909.207792,71930,1668680909,207563265,,-0.09823452113672769,-0.6166738415869879,0.0781922967147341,0.9955612156868467,0.09352316526210439,-0.00434759538630278,0.009611544820769187
1668680909.2158332,71931,1668680909,215607108,,-0.09817960653200324,-0.6167385356338168,0.0781922967147341,0.9955612156868467,0.09352316526210439,-0.00434759538630278,0.009611544820769187
1668680909.223811,71932,1668680909,223555022,,-0.0981221463896526,-0.6168062283938395,0.0781922967147341,0.9955612156868467,0.09352316526210439,-0.00434759538630278,0.009611544820769187
1668680909.2316954,71933,1668680909,231555837,,-0.09806214188563075,-0.6168769184472216,0.0781922967147341,0.9955612156868467,0.09352316526210439,-0.00434759538630278,0.009611544820769187
1668680909.239725,71934,1668680909,239607393,,-0.09799959424796448,-0.6169506043080139,0.0781922967147341,0.9955612156868467,0.09352316526210439,-0.00434759538630278,0.009611544820769187
1668680909.247726,71935,1668680909,247537113,,-0.09793450475672726,-0.6170272844237645,0.0781922967147341,0.9955612156868467,0.09352316526210439,-0.00434759538630278,0.009611544820769187
1668680909.2556322,71936,1668680909,255419875,,-0.09786687474401307,-0.6171069571751155,0.0781922967147341,0.9955612156868467,0.09352316526210439,-0.00434759538630278,0.009611544820769187
1668680909.2637537,71937,1668680909,263600180,,-0.09779670559390913,-0.6171896208753839,0.0781922967147341,0.9955612156868467,0.09352316526210439,-0.00434759538630278,0.009611544820769187
1668680909.2718081,71938,1668680909,271625193,,-0.09772399874246757,-0.6172752737701277,0.0781922967147341,0.9955612156868467,0.09352316526210439,-0.00434759538630278,0.009611544820769187
1668680909.2800372,71939,1668680909,279817374,,-0.09764875567767603,-0.6173639140366967,0.0781922967147341,0.9955612156868467,0.09352316526210439,-0.00434759538630278,0.009611544820769187
1668680909.287785,71940,1668680909,287623316,,-0.09757097793942725,-0.6174555397837683,0.0781922967147341,0.9955612156868467,0.09352316526210439,-0.00434759538630278,0.009611544820769187
1668680909.2954612,71941,1668680909,295285612,,-0.09749066711948748,-0.6175501490508686,0.0781922967147341,0.9955612156868467,0.09352316526210439,-0.00434759538630278,0.009611544820769187
1668680909.3038025,71942,1668680909,303604571,,-0.097407824861464,-0.6176477398078788,0.0781922967147341,0.9955612156868467,0.09352316526210439,-0.00434759538630278,0.009611544820769187
1668680909.3120053,71943,1668680909,311684390,,-0.09732245286077139,-0.6177483099545268,0.0781922967147341,0.9955612156868467,0.09352316526210439,-0.00434759538630278,0.009611544820769187
1668680909.3198845,71944,1668680909,319725814,,-0.09723455286459687,-0.6178518573198652,0.0781922967147341,0.9955612156868467,0.09352316526210439,-0.00434759538630278,0.009611544820769187
1668680909.3280232,71945,1668680909,327840915,,-0.09714412667186459,-0.6179583796617344,0.0781922967147341,0.9955612156868467,0.09352316526210439,-0.00434759538630278,0.009611544820769187
1668680909.3358135,71946,1668680909,335499376,,-0.0970511761331987,-0.6180678746662116,0.0781922967147341,0.9955612156868467,0.09352316526210439,-0.00434759538630278,0.009611544820769187
1668680909.3447108,71947,1668680909,344551882,,-0.09695570315088564,-0.6181803399470465,0.0781922967147341,0.9955612156868467,0.09352316526210439,-0.00434759538630278,0.009611544820769187
1668680909.3526697,71948,1668680909,352412942,,-0.09685770967883502,-0.6182957730450834,0.0781922967147341,0.9955612156868467,0.09352316526210439,-0.00434759538630278,0.009611544820769187
1668680909.3604572,71949,1668680909,360118057,,-0.09675719772253977,-0.6184141714276691,0.0781922967147341,0.9955612156868467,0.09352316526210439,-0.00434759538630278,0.009611544820769187
1668680909.3676875,71950,1668680909,367483101,,-0.09665416933903506,-0.618535532488048,0.0781922967147341,0.9955612156868467,0.09352316526210439,-0.00434759538630278,0.009611544820769187
1668680909.375792,71951,1668680909,375592556,,-0.09654862663685619,-0.6186598535447445,0.0781922967147341,0.9955612156868467,0.09352316526210439,-0.00434759538630278,0.009611544820769187
1668680909.3834617,71952,1668680909,383301262,,-0.09644057177599542,-0.6187871318409311,0.0781922967147341,0.9955612156868467,0.09352316526210439,-0.00434759538630278,0.009611544820769187
1668680909.3916495,71953,1668680909,391508852,,-0.0963300069678578,-0.6189173645437861,0.0781922967147341,0.9955612156868467,0.09352316526210439,-0.00434759538630278,0.009611544820769187
1668680909.3997028,71954,1668680909,399565883,,-0.09621693447521593,-0.6190505487438361,0.0781922967147341,0.9955612156868467,0.09352316526210439,-0.00434759538630278,0.009611544820769187
1668680909.4077337,71955,1668680909,407502205,,-0.09610135661216354,-0.6191866814542885,0.0781922967147341,0.9955612156868467,0.09352316526210439,-0.00434759538630278,0.009611544820769187
1668680909.4157605,71956,1668680909,415556285,,-0.0959832757440683,-0.6193257596103505,0.0781922967147341,0.9955612156868467,0.09352316526210439,-0.00434759538630278,0.009611544820769187
1668680909.4238029,71957,1668680909,423531668,,-0.09586269428752327,-0.6194677800685376,0.0781922967147341,0.9955612156868467,0.09352316526210439,-0.00434759538630278,0.009611544820769187
1668680909.4320197,71958,1668680909,431841343,,-0.09573961471029752,-0.6196127396059687,0.0781922967147341,0.9955612156868467,0.09352316526210439,-0.00434759538630278,0.009611544820769187
1668680909.4397993,71959,1668680909,439642288,,-0.09561403953128556,-0.6197606349196516,0.0781922967147341,0.9955612156868467,0.09352316526210439,-0.00434759538630278,0.009611544820769187
1668680909.4484885,71960,1668680909,448170744,,-0.09548597132045587,-0.6199114626257559,0.0781922967147341,0.9955612156868467,0.09352316526210439,-0.00434759538630278,0.009611544820769187
1668680909.4556932,71961,1668680909,455432146,,-0.09535541269879828,-0.6200652192588765,0.0781922967147341,0.9955612156868467,0.09352316526210439,-0.00434759538630278,0.009611544820769187
1668680909.4642596,71962,1668680909,464028745,,-0.09522236633827025,-0.6202219012712848,0.0781922967147341,0.9955612156868467,0.09352316526210439,-0.00434759538630278,0.009611544820769187
1668680909.4724848,71963,1668680909,472098303,,-0.09508683496174229,-0.6203815050321712,0.0781922967147341,0.9955612156868467,0.09352316526210439,-0.00434759538630278,0.009611544820769187
1668680909.4799664,71964,1668680909,479723951,,-0.09494882134294222,-0.6205440268268753,0.0781922967147341,0.9955612156868467,0.09352316526210439,-0.00434759538630278,0.009611544820769187
1668680909.4876032,71965,1668680909,487484621,,-0.09480832830639833,-0.6207094628561086,0.0781922967147341,0.9955612156868467,0.09352316526210439,-0.00434759538630278,0.009611544820769187
1668680909.4959085,71966,1668680909,495723365,,-0.09466535872738165,-0.620877809235166,0.0781922967147341,0.9955612156868467,0.09352316526210439,-0.00434759538630278,0.009611544820769187
1668680909.5045805,71967,1668680909,504411053,,-0.09451991553184708,-0.6210490619931281,0.0781922967147341,0.9955612156868467,0.09352316526210439,-0.00434759538630278,0.009611544820769187
1668680909.5116003,71968,1668680909,511475580,,-0.09437200169637351,-0.6212232170720551,0.0781922967147341,0.9955612156868467,0.09352316526210439,-0.00434759538630278,0.009611544820769187
1668680909.5197701,71969,1668680909,519614135,,-0.09422162024810288,-0.6214002703261704,0.0781922967147341,0.9955612156868467,0.09352316526210439,-0.00434759538630278,0.009611544820769187
1668680909.527766,71970,1668680909,527563470,,-0.09406877426467829,-0.6215802175210379,0.0781922967147341,0.9955612156868467,0.09352316526210439,-0.00434759538630278,0.009611544820769187
1668680909.5356932,71971,1668680909,535545972,,-0.09391346687418094,-0.6217630543327288,0.0781922967147341,0.9955612156868467,0.09352316526210439,-0.00434759538630278,0.009611544820769187
1668680909.543452,71972,1668680909,543276086,,-0.09375570125506615,-0.6219487763469815,0.0781922967147341,0.9955612156868467,0.09352316526210439,-0.00434759538630278,0.009611544820769187
1668680909.551741,71973,1668680909,551589582,,-0.0935954806360983,-0.6221373790583542,0.0781922967147341,0.9955612156868467,0.09352316526210439,-0.00434759538630278,0.009611544820769187
1668680909.559824,71974,1668680909,559638681,,-0.0934328082962848,-0.6223288578693686,0.0781922967147341,0.9955612156868467,0.09352316526210439,-0.00434759538630278,0.009611544820769187
1668680909.5676298,71975,1668680909,567476488,,-0.09326768756480888,-0.622523208089648,0.0781922967147341,0.9955612156868467,0.09352316526210439,-0.00434759538630278,0.009611544820769187
1668680909.5754275,71976,1668680909,575289736,,-0.09310012182096158,-0.6227204249350479,0.0781922967147341,0.9955612156868467,0.09352316526210439,-0.00434759538630278,0.009611544820769187
1668680909.5838048,71977,1668680909,583581936,,-0.09293011449407249,-0.62292050352678,0.0781922967147341,0.9955612156868467,0.09352316526210439,-0.00434759538630278,0.009611544820769187
1668680909.5917807,71978,1668680909,591639909,,-0.09275766906343957,-0.6231234388905302,0.0781922967147341,0.9955612156868467,0.09352316526210439,-0.00434759538630278,0.009611544820769187
1668680909.5997002,71979,1668680909,599495560,,-0.09258278905825808,-0.623329225955571,0.0781922967147341,0.9955612156868467,0.09352316526210439,-0.00434759538630278,0.009611544820769187
1668680909.6077437,71980,1668680909,607569692,,-0.09240547805754816,-0.6235378595538675,0.0781922967147341,0.9955612156868467,0.09352316526210439,-0.00434759538630278,0.009611544820769187
1668680909.6157744,71981,1668680909,615551159,,-0.09222573969008172,-0.6237493344191787,0.0781922967147341,0.9955612156868467,0.09352316526210439,-0.00434759538630278,0.009611544820769187
1668680909.6235325,71982,1668680909,623347865,,-0.09204357763430811,-0.6239636451861539,0.0781922967147341,0.9955612156868467,0.09352316526210439,-0.00434759538630278,0.009611544820769187
1668680909.6319604,71983,1668680909,631720442,,-0.09185899561827889,-0.6241807863894244,0.0781922967147341,0.9955612156868467,0.09352316526210439,-0.00434759538630278,0.009611544820769187
1668680909.6401384,71984,1668680909,639834634,,-0.09167199741957145,-0.624400752462691,0.0781922967147341,0.9955612156868467,0.09352316526210439,-0.00434759538630278,0.009611544820769187
1668680909.6477706,71985,1668680909,647620420,,-0.09148258686521182,-0.6246235377378065,0.0781922967147341,0.9955612156868467,0.09352316526210439,-0.00434759538630278,0.009611544820769187
1668680909.6554353,71986,1668680909,655307470,,-0.09129076783159622,-0.624849136443857,0.0781922967147341,0.9955612156868467,0.09352316526210439,-0.00434759538630278,0.009611544820769187
1668680909.663666,71987,1668680909,663502340,,-0.09109654424441181,-0.6250775427062369,0.0781922967147341,0.9955612156868467,0.09352316526210439,-0.00434759538630278,0.009611544820769187
1668680909.671566,71988,1668680909,671458137,,-0.09089992007855635,-0.6253087505457233,0.0781922967147341,0.9955612156868467,0.09352316526210439,-0.00434759538630278,0.009611544820769187
1668680909.6798189,71989,1668680909,679582927,,-0.09070089935805678,-0.6255427538775469,0.0781922967147341,0.9955612156868467,0.09352316526210439,-0.00434759538630278,0.009611544820769187
1668680909.6877344,71990,1668680909,687596084,,-0.09049948615598694,-0.62577954651046,0.0781922967147341,0.9955612156868467,0.09352316526210439,-0.00434759538630278,0.009611544820769187
1668680909.6958199,71991,1668680909,695602955,,-0.09029568459438418,-0.6260191221458042,0.0781922967147341,0.9955612156868467,0.09352316526210439,-0.00434759538630278,0.009611544820769187
1668680909.7036257,71992,1668680909,703466050,,-0.09008949884416502,-0.6262614743765749,0.0781922967147341,0.9955612156868467,0.09352316526210439,-0.00434759538630278,0.009611544820769187
1668680909.7117083,71993,1668680909,711519459,,-0.08988093312503975,-0.6265065966864856,0.0781922967147341,0.9955612156868467,0.09352316526210439,-0.00434759538630278,0.009611544820769187
1668680909.7198114,71994,1668680909,719626976,,-0.08966999170542614,-0.6267544824490309,0.0781922967147341,0.9955612156868467,0.09352316526210439,-0.00434759538630278,0.009611544820769187
1668680909.7277932,71995,1668680909,727670122,,-0.08945667890236196,-0.6270051249265494,0.0781922967147341,0.9955612156868467,0.09352316526210439,-0.00434759538630278,0.009611544820769187
1668680909.7359855,71996,1668680909,735781854,,-0.08924099908141679,-0.6272585172692859,0.0781922967147341,0.9955612156868467,0.09352316526210439,-0.00434759538630278,0.009611544820769187
1668680909.743455,71997,1668680909,743288825,,-0.08902295665660256,-0.6275146525144547,0.0781922967147341,0.9955612156868467,0.09352316526210439,-0.00434759538630278,0.009611544820769187
1668680909.751876,71998,1668680909,751681199,,-0.08880255609028326,-0.6277735235853021,0.0781922967147341,0.9955612156868467,0.09352316526210439,-0.00434759538630278,0.009611544820769187
1668680909.7596734,71999,1668680909,759538672,,-0.08857980189308359,-0.6280351232901719,0.0781922967147341,0.9955612156868467,0.09352316526210439,-0.00434759538630278,0.009611544820769187
1668680909.7678936,72000,1668680909,767679599,,-0.0883546986237967,-0.6282994443215698,0.0781922967147341,0.9955612156868467,0.09352316526210439,-0.00434759538630278,0.009611544820769187
1668680909.7769763,72001,1668680909,776748704,,-0.08812725088929083,-0.6285664792552323,0.0781922967147341,0.9955612156868467,0.09352316526210439,-0.00434759538630278,0.009611544820769187
1668680909.7837772,72002,1668680909,783621187,,-0.08789746334441502,-0.6288362205491949,0.0781922967147341,0.9955612156868467,0.09352316526210439,-0.00434759538630278,0.009611544820769187
1668680909.791912,72003,1668680909,791596908,,-0.08766534069190395,-0.6291086605428645,0.0781922967147341,0.9955612156868467,0.09352316526210439,-0.00434759538630278,0.009611544820769187
1668680909.7995439,72004,1668680909,799432305,,-0.08743088768228156,-0.6293837914560948,0.0781922967147341,0.9955612156868467,0.09352316526210439,-0.00434759538630278,0.009611544820769187
1668680909.807633,72005,1668680909,807482892,,-0.08719410911376395,-0.6296616053882637,0.0781922967147341,0.9955612156868467,0.09352316526210439,-0.00434759538630278,0.009611544820769187
1668680909.8155513,72006,1668680909,815330407,,-0.08695500983216106,-0.629942094317355,0.0781922967147341,0.9955612156868467,0.09352316526210439,-0.00434759538630278,0.009611544820769187
1668680909.8235965,72007,1668680909,823457302,,-0.08671359473077764,-0.6302252500990444,0.0781922967147341,0.9955612156868467,0.09352316526210439,-0.00434759538630278,0.009611544820769187
1668680909.8322482,72008,1668680909,831663233,,-0.08646986875031294,-0.6305110644657894,0.0781922967147341,0.9955612156868467,0.09352316526210439,-0.00434759538630278,0.009611544820769187
1668680909.83987,72009,1668680909,839733768,,-0.08622383687875976,-0.6307995290259242,0.0781922967147341,0.9955612156868467,0.09352316526210439,-0.00434759538630278,0.009611544820769187
1668680909.8484573,72010,1668680909,848275045,,-0.08597550415130224,-0.6310906352627593,0.0781922967147341,0.9955612156868467,0.09352316526210439,-0.00434759538630278,0.009611544820769187
1668680909.8556309,72011,1668680909,855471021,,-0.08572487565021289,-0.6313843745336877,0.0781922967147341,0.9955612156868467,0.09352316526210439,-0.00434759538630278,0.009611544820769187
1668680909.8647065,72012,1668680909,864524418,,-0.08547195650474854,-0.6316807380692959,0.0781922967147341,0.9955612156868467,0.09352316526210439,-0.00434759538630278,0.009611544820769187
1668680909.8718708,72013,1668680909,871698548,,-0.08521675189104537,-0.6319797169724817,0.0781922967147341,0.9955612156868467,0.09352316526210439,-0.00434759538630278,0.009611544820769187
1668680909.879859,72014,1668680909,879667732,,-0.08495926703201301,-0.6322813022175789,0.0781922967147341,0.9955612156868467,0.09352316526210439,-0.00434759538630278,0.009611544820769187
1668680909.8875854,72015,1668680909,887470759,,-0.08469950719722762,-0.6325854846494887,0.0781922967147341,0.9955612156868467,0.09352316526210439,-0.00434759538630278,0.009611544820769187
1668680909.8954191,72016,1668680909,895263898,,-0.08443747770282402,-0.6328922549828194,0.0781922967147341,0.9955612156868467,0.09352316526210439,-0.00434759538630278,0.009611544820769187
1668680909.9036422,72017,1668680909,903496633,,-0.08417318391138696,-0.6332016038010326,0.0781922967147341,0.9955612156868467,0.09352316526210439,-0.00434759538630278,0.009611544820769187
1668680909.912033,72018,1668680909,911884923,,-0.08390663123184135,-0.6335135215555991,0.0781922967147341,0.9955612156868467,0.09352316526210439,-0.00434759538630278,0.009611544820769187
1668680909.9199371,72019,1668680909,919720957,,-0.08363782511934147,-0.6338279985651631,0.0781922967147341,0.9955612156868467,0.09352316526210439,-0.00434759538630278,0.009611544820769187
1668680909.9284952,72020,1668680909,928230121,,-0.08336677107515948,-0.6341450250147149,0.0781922967147341,0.9955612156868467,0.09352316526210439,-0.00434759538630278,0.009611544820769187
1668680909.9361532,72021,1668680909,935907157,,-0.08309347464657274,-0.6344645909547737,0.0781922967147341,0.9955612156868467,0.09352316526210439,-0.00434759538630278,0.009611544820769187
1668680909.9446325,72022,1668680909,944377871,,-0.08281794142675028,-0.6347866863005801,0.0781922967147341,0.9955612156868467,0.09352316526210439,-0.00434759538630278,0.009611544820769187
1668680909.9517434,72023,1668680909,951594258,,-0.08254017705463837,-0.6351113008312991,0.0781922967147341,0.9955612156868467,0.09352316526210439,-0.00434759538630278,0.009611544820769187
1668680909.9598956,72024,1668680909,959695696,,-0.0822601872148451,-0.6354384241892331,0.0781922967147341,0.9955612156868467,0.09352316526210439,-0.00434759538630278,0.009611544820769187
1668680909.9678822,72025,1668680909,967673986,,-0.08197797763752403,-0.6357680458790474,0.0781922967147341,0.9955612156868467,0.09352316526210439,-0.00434759538630278,0.009611544820769187
1668680909.976028,72026,1668680909,975854289,,-0.08169355409825695,-0.6361001552670049,0.0781922967147341,0.9955612156868467,0.09352316526210439,-0.00434759538630278,0.009611544820769187
1668680909.9835339,72027,1668680909,983316043,,-0.08140692241793561,-0.6364347415802152,0.0781922967147341,0.9955612156868467,0.09352316526210439,-0.00434759538630278,0.009611544820769187
1668680909.9919167,72028,1668680909,991705721,,-0.08111808846264268,-0.6367717939058939,0.0781922967147341,0.9955612156868467,0.09352316526210439,-0.00434759538630278,0.009611544820769187
1668680909.9996967,72029,1668680909,999508831,,-0.08082705814353168,-0.6371113011906362,0.0781922967147341,0.9955612156868467,0.09352316526210439,-0.00434759538630278,0.009611544820769187
1668680910.007784,72030,1668680910,7634532,,-0.08053383741670592,-0.6374532522397021,0.0781922967147341,0.9955612156868467,0.09352316526210439,-0.00434759538630278,0.009611544820769187
1668680910.0153766,72031,1668680910,15252676,,-0.0802384322830967,-0.6377976357163162,0.0781922967147341,0.9955612156868467,0.09352316526210439,-0.00434759538630278,0.009611544820769187
1668680910.0241437,72032,1668680910,23928776,,-0.07994084878834047,-0.6381444401409806,0.0781922967147341,0.9955612156868467,0.09352316526210439,-0.00434759538630278,0.009611544820769187
1668680910.0317516,72033,1668680910,31543377,,-0.07964109302265512,-0.6384936538908024,0.0781922967147341,0.9955612156868467,0.09352316526210439,-0.00434759538630278,0.009611544820769187
1668680910.0397666,72034,1668680910,39564939,,-0.07933917112071524,-0.6388452651988361,0.0781922967147341,0.9955612156868467,0.09352316526210439,-0.00434759538630278,0.009611544820769187
1668680910.047849,72035,1668680910,47699822,,-0.07903508926152673,-0.6391992621534398,0.0781922967147341,0.9955612156868467,0.09352316526210439,-0.00434759538630278,0.009611544820769187
1668680910.0559597,72036,1668680910,55699044,,-0.07872885366830021,-0.6395556326976486,0.0781922967147341,0.9955612156868467,0.09352316526210439,-0.00434759538630278,0.009611544820769187
1668680910.0638726,72037,1668680910,63595478,,-0.07842047060832374,-0.6399143646285621,0.0781922967147341,0.9955612156868467,0.09352316526210439,-0.00434759538630278,0.009611544820769187
1668680910.0717206,72038,1668680910,71555086,,-0.0781099463928345,-0.6402754455967495,0.0781922967147341,0.9955612156868467,0.09352316526210439,-0.00434759538630278,0.009611544820769187
1668680910.0797718,72039,1668680910,79524294,,-0.07779728737688968,-0.6406388631056699,0.0781922967147341,0.9955612156868467,0.09352316526210439,-0.00434759538630278,0.009611544820769187
1668680910.0878694,72040,1668680910,87660375,,-0.07748249995923637,-0.6410046045111105,0.0781922967147341,0.9955612156868467,0.09352316526210439,-0.00434759538630278,0.009611544820769187
1668680910.0959024,72041,1668680910,95756759,,-0.07716559058218062,-0.6413726570206424,0.0781922967147341,0.9955612156868467,0.09352316526210439,-0.00434759538630278,0.009611544820769187
1668680910.1047125,72042,1668680910,104113744,,-0.07684656573145564,-0.6417430076930924,0.0781922967147341,0.9955612156868467,0.09352316526210439,-0.00434759538630278,0.009611544820769187
1668680910.112111,72043,1668680910,111896216,,-0.076525431936089,-0.6421156434380351,0.0781922967147341,0.9955612156868467,0.09352316526210439,-0.00434759538630278,0.009611544820769187
1668680910.1204653,72044,1668680910,120269932,,-0.07620219576826905,-0.6424905510153016,0.0781922967147341,0.9955612156868467,0.09352316526210439,-0.00434759538630278,0.009611544820769187
1668680910.1276731,72045,1668680910,127491688,,-0.0758768638432104,-0.6428677170345084,0.0781922967147341,0.9955612156868467,0.09352316526210439,-0.00434759538630278,0.009611544820769187
1668680910.1356547,72046,1668680910,135505819,,-0.07554944281901854,-0.6432471279546044,0.0781922967147341,0.9955612156868467,0.09352316526210439,-0.00434759538630278,0.009611544820769187
1668680910.1435635,72047,1668680910,143327359,,-0.0752199393965536,-0.6436287700834379,0.0781922967147341,0.9955612156868467,0.09352316526210439,-0.00434759538630278,0.009611544820769187
1668680910.1520445,72048,1668680910,151869006,,-0.07488836031929313,-0.6440126295773441,0.0781922967147341,0.9955612156868467,0.09352316526210439,-0.00434759538630278,0.009611544820769187
1668680910.1596272,72049,1668680910,159504001,,-0.07455471237319423,-0.6443986924407519,0.0781922967147341,0.9955612156868467,0.09352316526210439,-0.00434759538630278,0.009611544820769187
1668680910.1677918,72050,1668680910,167652358,,-0.07421900238655456,-0.6447869445258114,0.0781922967147341,0.9955612156868467,0.09352316526210439,-0.00434759538630278,0.009611544820769187
1668680910.175345,72051,1668680910,175209446,,-0.07388123722987261,-0.6451773715320439,0.0781922967147341,0.9955612156868467,0.09352316526210439,-0.00434759538630278,0.009611544820769187
1668680910.1836796,72052,1668680910,183532306,,-0.07354142381570714,-0.6455699590060108,0.0781922967147341,0.9955612156868467,0.09352316526210439,-0.00434759538630278,0.009611544820769187
1668680910.191838,72053,1668680910,191691006,,-0.07319956909853567,-0.6459646923410061,0.0781922967147341,0.9955612156868467,0.09352316526210439,-0.00434759538630278,0.009611544820769187
1668680910.1997354,72054,1668680910,199584279,,-0.07285568007461216,-0.6463615567767704,0.0781922967147341,0.9955612156868467,0.09352316526210439,-0.00434759538630278,0.009611544820769187
1668680910.207697,72055,1668680910,207498997,,-0.07250976378182383,-0.6467605373992271,0.0781922967147341,0.9955612156868467,0.09352316526210439,-0.00434759538630278,0.009611544820769187
1668680910.2156744,72056,1668680910,215559232,,-0.07216182729954712,-0.6471616191402413,0.0781922967147341,0.9955612156868467,0.09352316526210439,-0.00434759538630278,0.009611544820769187
1668680910.2234993,72057,1668680910,223267718,,-0.07181187774850285,-0.6475647867774016,0.0781922967147341,0.9955612156868467,0.09352316526210439,-0.00434759538630278,0.009611544820769187
1668680910.2320552,72058,1668680910,231910203,,-0.07145992229061042,-0.6479700249338264,0.0781922967147341,0.9955612156868467,0.09352316526210439,-0.00434759538630278,0.009611544820769187
1668680910.240801,72059,1668680910,240549580,,-0.07110596812884126,-0.6483773180779919,0.0781922967147341,0.9955612156868467,0.09352316526210439,-0.00434759538630278,0.009611544820769187
1668680910.2488172,72060,1668680910,248462187,,-0.07075002250707146,-0.6487866505235862,0.0781922967147341,0.9955612156868467,0.09352316526210439,-0.00434759538630278,0.009611544820769187
1668680910.2557683,72061,1668680910,255588140,,-0.07039209270993348,-0.6491980064293863,0.0781922967147341,0.9955612156868467,0.09352316526210439,-0.00434759538630278,0.009611544820769187
1668680910.2638407,72062,1668680910,263692956,,-0.07003218606266705,-0.6496113697991602,0.0781922967147341,0.9955612156868467,0.09352316526210439,-0.00434759538630278,0.009611544820769187
1668680910.271795,72063,1668680910,271565248,,-0.06967030993096929,-0.6500267244815945,0.0781922967147341,0.9955612156868467,0.09352316526210439,-0.00434759538630278,0.009611544820769187
1668680910.2808256,72064,1668680910,280649815,,-0.06930647172084398,-0.650444054170246,0.0781922967147341,0.9955612156868467,0.09352316526210439,-0.00434759538630278,0.009611544820769187
1668680910.288478,72065,1668680910,288328401,,-0.06894067887844993,-0.6508633424035203,0.0781922967147341,0.9955612156868467,0.09352316526210439,-0.00434759538630278,0.009611544820769187
1668680910.2966266,72066,1668680910,296412630,,-0.06857293888994864,-0.6512845725646756,0.0781922967147341,0.9955612156868467,0.09352316526210439,-0.00434759538630278,0.009611544820769187
1668680910.3040335,72067,1668680910,303804866,,-0.06820325928135111,-0.6517077278818522,0.0781922967147341,0.9955612156868467,0.09352316526210439,-0.00434759538630278,0.009611544820769187
1668680910.3120813,72068,1668680910,311912806,,-0.06783164761836372,-0.6521327914281291,0.0781922967147341,0.9955612156868467,0.09352316526210439,-0.00434759538630278,0.009611544820769187
1668680910.3196986,72069,1668680910,319507871,,-0.0674581115062335,-0.652559746121607,0.0781922967147341,0.9955612156868467,0.09352316526210439,-0.00434759538630278,0.009611544820769187
1668680910.3277626,72070,1668680910,327604381,,-0.06708265858959245,-0.6529885747255191,0.0781922967147341,0.9955612156868467,0.09352316526210439,-0.00434759538630278,0.009611544820769187
1668680910.3355715,72071,1668680910,335419212,,-0.06670529655230104,-0.6534192598483669,0.0781922967147341,0.9955612156868467,0.09352316526210439,-0.00434759538630278,0.009611544820769187
1668680910.3438106,72072,1668680910,343679235,,-0.06632603311729103,-0.6538517839440868,0.0781922967147341,0.9955612156868467,0.09352316526210439,-0.00434759538630278,0.009611544820769187
1668680910.3519022,72073,1668680910,351696935,,-0.06594487604640739,-0.6542861293122415,0.0781922967147341,0.9955612156868467,0.09352316526210439,-0.00434759538630278,0.009611544820769187
1668680910.3601184,72074,1668680910,359949979,,-0.0655618331402494,-0.6547222780982411,0.0781922967147341,0.9955612156868467,0.09352316526210439,-0.00434759538630278,0.009611544820769187
1668680910.3676658,72075,1668680910,367542317,,-0.06517691223801106,-0.6551602122935921,0.0781922967147341,0.9955612156868467,0.09352316526210439,-0.00434759538630278,0.009611544820769187
1668680910.3760843,72076,1668680910,375854467,,-0.06479012121732065,-0.6555999137361747,0.0781922967147341,0.9955612156868467,0.09352316526210439,-0.00434759538630278,0.009611544820769187
1668680910.3835561,72077,1668680910,383369667,,-0.06440146799407953,-0.6560413641105487,0.0781922967147341,0.9955612156868467,0.09352316526210439,-0.00434759538630278,0.009611544820769187
1668680910.3918655,72078,1668680910,391700658,,-0.06401096052230006,-0.6564845449482893,0.0781922967147341,0.9955612156868467,0.09352316526210439,-0.00434759538630278,0.009611544820769187
1668680910.40001,72079,1668680910,399818246,,-0.06361860679394289,-0.6569294376283511,0.0781922967147341,0.9955612156868467,0.09352316526210439,-0.00434759538630278,0.009611544820769187
1668680910.407874,72080,1668680910,407751891,,-0.06322441483875338,-0.6573760233774614,0.0781922967147341,0.9955612156868467,0.09352316526210439,-0.00434759538630278,0.009611544820769187
1668680910.4154322,72081,1668680910,415260791,,-0.06282839272409725,-0.6578242832705444,0.0781922967147341,0.9955612156868467,0.09352316526210439,-0.00434759538630278,0.009611544820769187
1668680910.423992,72082,1668680910,423837441,,-0.062430548554795504,-0.6582741982311738,0.0781922967147341,0.9955612156868467,0.09352316526210439,-0.00434759538630278,0.009611544820769187
1668680910.4319775,72083,1668680910,431767694,,-0.06203089047295851,-0.6587257490320562,0.0781922967147341,0.9955612156868467,0.09352316526210439,-0.00434759538630278,0.009611544820769187
1668680910.4402957,72084,1668680910,439896846,,-0.06162942665781947,-0.659178916295544,0.0781922967147341,0.9955612156868467,0.09352316526210439,-0.00434759538630278,0.009611544820769187
1668680910.447779,72085,1668680910,447611205,,-0.06122616532556688,-0.6596336804941803,0.0781922967147341,0.9955612156868467,0.09352316526210439,-0.00434759538630278,0.009611544820769187
1668680910.4559982,72086,1668680910,455811644,,-0.06082111472917652,-0.660090021951272,0.0781922967147341,0.9955612156868467,0.09352316526210439,-0.00434759538630278,0.009611544820769187
1668680910.463509,72087,1668680910,463379585,,-0.060414283158242474,-0.6605479208414954,0.0781922967147341,0.9955612156868467,0.09352316526210439,-0.00434759538630278,0.009611544820769187
1668680910.4721189,72088,1668680910,471963505,,-0.06000567893880748,-0.661007357191532,0.0781922967147341,0.9955612156868467,0.09352316526210439,-0.00434759538630278,0.009611544820769187
1668680910.4800093,72089,1668680910,479771405,,-0.059595310433192564,-0.6614683108807358,0.0781922967147341,0.9955612156868467,0.09352316526210439,-0.00434759538630278,0.009611544820769187
1668680910.487884,72090,1668680910,487690680,,-0.059183186039825905,-0.6619307616418306,0.0781922967147341,0.9955612156868467,0.09352316526210439,-0.00434759538630278,0.009611544820769187
1668680910.495418,72091,1668680910,495278908,,-0.05876931419307091,-0.6623946890616405,0.0781922967147341,0.9955612156868467,0.09352316526210439,-0.00434759538630278,0.009611544820769187
1668680910.5039423,72092,1668680910,503797820,,-0.05835370336305362,-0.6628600725818496,0.0781922967147341,0.9955612156868467,0.09352316526210439,-0.00434759538630278,0.009611544820769187
1668680910.5116773,72093,1668680910,511546977,,-0.057936362055489424,-0.6633268914997955,0.0781922967147341,0.9955612156868467,0.09352316526210439,-0.00434759538630278,0.009611544820769187
1668680910.5198827,72094,1668680910,519669590,,-0.05751729881150887,-0.6637951249692927,0.0781922967147341,0.9955612156868467,0.09352316526210439,-0.00434759538630278,0.009611544820769187
1668680910.527948,72095,1668680910,527762472,,-0.05709652220748296,-0.664264752001489,0.0781922967147341,0.9955612156868467,0.09352316526210439,-0.00434759538630278,0.009611544820769187
1668680910.5355873,72096,1668680910,535437526,,-0.05667404085484759,-0.664735751465753,0.0781922967147341,0.9955612156868467,0.09352316526210439,-0.00434759538630278,0.009611544820769187
1668680910.543828,72097,1668680910,543619113,,-0.05624986339992734,-0.6652081020905938,0.0781922967147341,0.9955612156868467,0.09352316526210439,-0.00434759538630278,0.009611544820769187
1668680910.552283,72098,1668680910,552036345,,-0.05582399852375845,-0.6656817824646131,0.0781922967147341,0.9955612156868467,0.09352316526210439,-0.00434759538630278,0.009611544820769187
1668680910.5596664,72099,1668680910,559532328,,-0.05539645494191127,-0.6661567710374888,0.0781922967147341,0.9955612156868467,0.09352316526210439,-0.00434759538630278,0.009611544820769187
1668680910.5677965,72100,1668680910,567625849,,-0.05496724140431178,-0.6666330461209918,0.0781922967147341,0.9955612156868467,0.09352316526210439,-0.00434759538630278,0.009611544820769187
1668680910.5758107,72101,1668680910,575643749,,-0.05453636669506262,-0.6671105858900336,0.0781922967147341,0.9955612156868467,0.09352316526210439,-0.00434759538630278,0.009611544820769187
1668680910.5835097,72102,1668680910,583338462,,-0.054103839632263215,-0.6675893683837474,0.0781922967147341,0.9955612156868467,0.09352316526210439,-0.00434759538630278,0.009611544820769187
1668680910.5918179,72103,1668680910,591638878,,-0.05366966906782937,-0.6680693715066014,0.0781922967147341,0.9955612156868467,0.09352316526210439,-0.00434759538630278,0.009611544820769187
1668680910.6000745,72104,1668680910,599657181,,-0.05323386388731213,-0.6685505730295438,0.0781922967147341,0.9955612156868467,0.09352316526210439,-0.00434759538630278,0.009611544820769187
