Time,header.seq,header.stamp.secs,header.stamp.nsecs,header.frame_id,pose.position.x,pose.position.y,pose.position.z,pose.orientation.x,pose.orientation.y,pose.orientation.z,pose.orientation.w
1668678579.4167976,64063,1668678579,416365517,,-0.09535995813588473,-0.6129993762482631,0.07067483646203643,0.9955579608931779,0.09353957205846195,-0.004372514059561868,0.009776302068589895
1668678579.424455,64064,1668678579,424318010,,-0.09536041479414627,-0.6129993762382306,0.07067571628380445,0.9955579609006112,0.09353957205596282,-0.0043725137722755575,0.009776301464033316
1668678579.4321027,64065,1668678579,431986264,,-0.09536090474060346,-0.6129993762288527,0.07067637937603276,0.9955579609079971,0.0935395720534989,-0.004372513487698886,0.009776300862755887
1668678579.4412165,64066,1668678579,440985357,,-0.09536138562392382,-0.612999376220088,0.07067680871024963,0.995557960915335,0.0935395720510702,-0.004372513205846379,0.009776300264807683
1668678579.4491043,64067,1668678579,448963104,,-0.09536183670736025,-0.6129993762117447,0.07067698808913293,0.9955579609226243,0.09353957204867687,-0.004372512926732508,0.009776299670238776
1668678579.4563665,64068,1668678579,456270506,,-0.09536230462983514,-0.6129993762036241,0.07067693032183373,0.9955579609298646,0.09353957204631873,-0.004372512650371401,0.009776299079098454
1668678579.4645455,64069,1668678579,464391504,,-0.09536288754793212,-0.6129993761954248,0.07067669589581822,0.9955579609370554,0.09353957204399593,-0.004372512376777171,0.009776298491437274
1668678579.4724584,64070,1668678579,472280556,,-0.09536361385530787,-0.6129993761869951,0.07067629093697758,0.9955579609441958,0.09353957204170851,-0.0043725121059635065,0.009776297907304315
1668678579.4805393,64071,1668678579,480410338,,-0.09536447468749132,-0.6129993761782357,0.07067570702149878,0.9955579609512856,0.09353957203945652,-0.0043725118379431185,0.009776297326746725
1668678579.4885995,64072,1668678579,488441420,,-0.09536545965638527,-0.6129993761690846,0.0706749474607547,0.9955579609583242,0.09353957203723987,-0.0043725115727283334,0.009776296749810535
1668678579.4966614,64073,1668678579,496451588,,-0.09536649806723059,-0.6129993761597167,0.07067408603641051,0.9955579609653109,0.09353957203505878,-0.0043725113103305,0.009776296176539846
1668678579.5048482,64074,1668678579,504621372,,-0.0953674905547651,-0.6129993761506003,0.07067317833038626,0.9955579609722458,0.09353957203291288,-0.004372511050759092,0.009776295606974864
1668678579.5121675,64075,1668678579,512069392,,-0.09536838953560638,-0.6129993761417448,0.07067219236159444,0.9955579609791279,0.0935395720308024,-0.004372510794024184,0.009776295041157217
1668678579.5204594,64076,1668678579,520354167,,-0.09536918358223977,-0.6129993761331185,0.07067112338167494,0.9955579609859571,0.09353957202872706,-0.004372510540136059,0.009776294479129428
1668678579.5290575,64077,1668678579,528889124,,-0.09536988624639943,-0.6129993761246305,0.07066995942916103,0.9955579609927326,0.09353957202668745,-0.0043725102891048915,0.009776293920933952
1668678579.5368688,64078,1668678579,536685866,,-0.09537056642554492,-0.6129993761160673,0.07066867846570951,0.9955579609994543,0.09353957202468292,-0.004372510040940829,0.009776293366613361
1668678579.5441823,64079,1668678579,544030996,,-0.09537131061866166,-0.6129993761072264,0.07066727510056628,0.9955579610061215,0.09353957202271371,-0.004372509795653694,0.009776292816210286
1668678579.5524676,64080,1668678579,552259494,,-0.09537214212760495,-0.6129993760980578,0.070665755819721,0.995557961012734,0.09353957202077981,-0.00437250955325268,0.009776292269765344
1668678579.5603595,64081,1668678579,560266614,,-0.09537299965179764,-0.6129993760887334,0.07066414525718313,0.995557961019291,0.09353957201888138,-0.00437250931374536,0.009776291727316118
1668678579.568973,64082,1668678579,568703318,,-0.09537379876815891,-0.6129993760795857,0.07066247273859934,0.9955579610257925,0.09353957201701789,-0.004372509077138309,0.00977629118889718
1668678579.5767558,64083,1668678579,576463265,,-0.09537458292068265,-0.612999376070681,0.07066075612565291,0.9955579610322379,0.09353957201518981,-0.004372508843438972,0.009776290654545834
1668678579.5841653,64084,1668678579,584027496,,-0.09537543710925347,-0.6129993760622994,0.07065912624543044,0.995557961038627,0.09353957201339676,-0.004372508612655415,0.00977629012430141
1668678579.5927496,64085,1668678579,592627397,,-0.09537637115945224,-0.6129993760551324,0.07065770020766787,0.9955579610449592,0.09353957201163865,-0.0043725083847942,0.009776289598199548
1668678579.6010451,64086,1668678579,600890121,,-0.09537738619603085,-0.6129993760490541,0.07065652851865384,0.9955579610512343,0.09353957200991576,-0.004372508159861477,0.009776289076275141
1668678579.6085765,64087,1668678579,608412102,,-0.0953784708145765,-0.6129993760439676,0.07065561576836406,0.9955579610574518,0.09353957200822763,-0.0043725079378628155,0.009776288558562019
1668678579.6175048,64088,1668678579,617360091,,-0.09537955154214832,-0.6129993760394534,0.07065485239378402,0.9955579610636115,0.09353957200657433,-0.004372507718802605,0.009776288045090778
1668678579.62533,64089,1668678579,625111191,,-0.09538054466482461,-0.6129993760354203,0.0706541524320507,0.995557961069713,0.09353957200495593,-0.004372507502683762,0.009776287535889504
1668678579.6332164,64090,1668678579,632840768,,-0.09538141181963077,-0.612999376031767,0.07065344153229537,0.9955579610757562,0.09353957200337235,-0.004372507289510314,0.009776287030988623
1668678579.6410844,64091,1668678579,640933265,,-0.09538214625792985,-0.6129993760283348,0.07065267742596043,0.9955579610817406,0.09353957200182354,-0.004372507079286052,0.00977628653041844
1668678579.6485832,64092,1668678579,648404277,,-0.09538274908585308,-0.6129993760250267,0.07065184222944314,0.9955579610876658,0.09353957200030934,-0.004372506872015133,0.009776286034209939
1668678579.6565762,64093,1668678579,656473128,,-0.09538333579420083,-0.6129993760216619,0.07065093637305304,0.9955579610935318,0.0935395719988296,-0.004372506667701194,0.009776285542393438
1668678579.6649294,64094,1668678579,664684635,,-0.09538399952239156,-0.6129993760181085,0.07064997942787787,0.9955579610993381,0.09353957199738454,-0.004372506466348326,0.009776285055000668
1668678579.6722937,64095,1668678579,672106327,,-0.09538470049545342,-0.6129993760144277,0.07064897033099866,0.9955579611050844,0.09353957199597375,-0.00437250626795828,0.00977628457205775
1668678579.6805367,64096,1668678579,680361102,,-0.09538542319711495,-0.6129993760106649,0.07064791276586317,0.9955579611107706,0.09353957199459714,-0.004372506072532875,0.00977628409359097
1668678579.6885195,64097,1668678579,688359614,,-0.095386140655946,-0.612999376006941,0.07064684166417923,0.9955579611163963,0.09353957199325467,-0.004372505880073595,0.009776283619625658
1668678579.696943,64098,1668678579,696658911,,-0.0953867965304889,-0.612999376003448,0.07064577380247625,0.9955579611219614,0.09353957199194628,-0.00437250569058064,0.009776283150184974
1668678579.7046564,64099,1668678579,704451910,,-0.09538734620941469,-0.6129993760001597,0.07064468735741367,0.9955579611274655,0.09353957199067198,-0.004372505504054664,0.009776282685292547
1668678579.7123687,64100,1668678579,712265287,,-0.09538777150650243,-0.6129993759970634,0.07064358848005574,0.9955579611329086,0.09353957198943152,-0.004372505320495817,0.009776282224971398
1668678579.720482,64101,1668678579,720351001,,-0.0953880725899,-0.6129993759941739,0.07064249111199816,0.9955579611382903,0.09353957198822486,-0.004372505139904241,0.00977628176924502
1668678579.7286599,64102,1668678579,728485765,,-0.09538825401339328,-0.6129993759914585,0.07064140294643893,0.9955579611436105,0.0935395719870516,-0.0043725049622798445,0.00977628131813566
1668678579.7366962,64103,1668678579,736561788,,-0.0953883177378788,-0.6129993759889762,0.07064036418274713,0.995557961148869,0.09353957198591215,-0.004372504787621957,0.00977628087166469
1668678579.7453103,64104,1668678579,745086230,,-0.09538826916199855,-0.6129993759867537,0.07063937782208228,0.9955579611540655,0.09353957198480599,-0.0043725046159297535,0.00977628042985326
1668678579.7524893,64105,1668678579,752200143,,-0.0953881152572457,-0.6129993759845833,0.07063839831120129,0.9955579611592,0.09353957198373325,-0.004372504447201821,0.009776279992721447
1668678579.761264,64106,1668678579,760967451,,-0.09538786395844974,-0.6129993759823846,0.07063741195933815,0.9955579611642722,0.0935395719826935,-0.004372504281436328,0.009776279560288228
1668678579.76857,64107,1668678579,768397233,,-0.09538752309111473,-0.6129993759801666,0.07063642722285357,0.995557961169282,0.09353957198168687,-0.004372504118631042,0.009776279132572183
1668678579.7764893,64108,1668678579,776286266,,-0.09538717983037455,-0.6129993759780488,0.0706354715015956,0.9955579611742291,0.09353957198071322,-0.004372503958783104,0.009776278709589714
1668678579.7854183,64109,1668678579,785253347,,-0.09538695723101173,-0.6129993759762382,0.07063457432150051,0.9955579611791135,0.09353957197977225,-0.004372503801888653,0.00977627829135626
1668678579.7925372,64110,1668678579,792258758,,-0.09538687858215597,-0.6129993759747404,0.0706337485756578,0.9955579611839352,0.09353957197886387,-0.004372503647944331,0.009776277877887768
1668678579.8003602,64111,1668678579,800263528,,-0.0953869226515385,-0.6129993759734665,0.0706329956790842,0.995557961188694,0.09353957197798801,-0.004372503496946803,0.009776277469199963
1668678579.8084633,64112,1668678579,808282546,,-0.09538707444058792,-0.6129993759723422,0.07063231420365068,0.9955579611933898,0.09353957197714427,-0.00437250334889243,0.009776277065307953
1668678579.816505,64113,1668678579,816361085,,-0.09538733366830421,-0.6129993759713301,0.07063171766222931,0.9955579611980222,0.09353957197633285,-0.004372503203776667,0.009776276666225584
1668678579.8250213,64114,1668678579,824793159,,-0.09538764804307161,-0.6129993759704354,0.07063122538421833,0.9955579612025917,0.09353957197555339,-0.004372503061595092,0.009776276271965978
1668678579.8323872,64115,1668678579,832248783,,-0.09538792537472583,-0.6129993759696897,0.07063084523379838,0.9955579612070976,0.09353957197480596,-0.004372502922342184,0.009776275882540127
1668678579.8405068,64116,1668678579,840341973,,-0.09538813786656089,-0.6129993759690663,0.07063057433803242,0.99555796121154,0.09353957197409024,-0.00437250278601233,0.009776275497959177
1668678579.8485494,64117,1668678579,848370123,,-0.09538827425689468,-0.6129993759684961,0.07063037567467294,0.9955579612159192,0.09353957197340598,-0.004372502652600035,0.009776275118234357
1668678579.8570337,64118,1668678579,856853051,,-0.0953883158768755,-0.6129993759679184,0.07063020136077973,0.9955579612202348,0.09353957197275319,-0.004372502522099111,0.009776274743375323
1668678579.8645012,64119,1668678579,864372729,,-0.09538825721625915,-0.6129993759672997,0.0706300289798969,0.9955579612244868,0.09353957197213142,-0.004372502394503324,0.009776274373391958
1668678579.872289,64120,1668678579,872144157,,-0.0953880994805804,-0.6129993759666285,0.0706298921581452,0.9955579612286751,0.0935395719715409,-0.004372502269806237,0.009776274008293501
1668678579.880686,64121,1668678579,880502319,,-0.09538784844474206,-0.6129993759659086,0.07062982898747384,0.9955579612327998,0.09353957197098123,-0.004372502148000846,0.009776273648087952
1668678579.8891137,64122,1668678579,888870345,,-0.09538751072489932,-0.6129993759651116,0.07062985521721381,0.9955579612368609,0.09353957197045228,-0.0043725020290797485,0.009776273292782887
1668678579.8967817,64123,1668678579,896518355,,-0.09538709192354324,-0.6129993759642172,0.07062995029262274,0.9955579612408583,0.09353957196995395,-0.004372501913035665,0.009776272942385188
1668678579.9050822,64124,1668678579,904810467,,-0.09538659826127219,-0.6129993759632183,0.07063008640113606,0.9955579612447919,0.09353957196948598,-0.004372501799860472,0.009776272596901092
1668678579.912109,64125,1668678579,912004814,,-0.09538603609145407,-0.6129993759621075,0.07063027938653857,0.9955579612486619,0.0935395719690479,-0.00437250168954602,0.00977627225633571
1668678579.9209354,64126,1668678579,920678663,,-0.09538541175078397,-0.6129993759608824,0.0706305310305042,0.9955579612524682,0.09353957196864016,-0.004372501582083638,0.009776271920693594
1668678579.9286103,64127,1668678579,928468151,,-0.09538473128516874,-0.6129993759595623,0.07063081085973587,0.9955579612562108,0.09353957196826211,-0.004372501477464493,0.009776271589978463
1668678579.9363432,64128,1668678579,936260937,,-0.09538402004752392,-0.612999375958192,0.0706311196044687,0.9955579612598897,0.09353957196791352,-0.004372501375679254,0.009776271264193528
1668678579.9443302,64129,1668678579,944156362,,-0.0953833121615811,-0.6129993759567942,0.07063149841749083,0.995557961263505,0.09353957196759463,-0.004372501276717946,0.009776270943340229
1668678579.952451,64130,1668678579,952229075,,-0.09538260505843955,-0.6129993759553737,0.07063193432810305,0.9955579612670569,0.09353957196730467,-0.004372501180570906,0.009776270627420577
1668678579.9604666,64131,1668678579,960296998,,-0.09538188575531277,-0.6129993759539369,0.07063240008261523,0.9955579612705452,0.09353957196704395,-0.004372501087228185,0.009776270316436164
1668678579.968587,64132,1668678579,968428013,,-0.09538114906091172,-0.6129993759524962,0.07063288084276247,0.9955579612739701,0.09353957196681208,-0.004372500996679522,0.009776270010387772
1668678579.976526,64133,1668678579,976335164,,-0.0953803862211195,-0.6129993759510628,0.07063335934071788,0.9955579612773314,0.09353957196660874,-0.004372500908914552,0.009776269709275582
1668678579.9849002,64134,1668678579,984641332,,-0.09537961502488508,-0.6129993759496962,0.07063379644203707,0.9955579612806297,0.09353957196643387,-0.004372500823922201,0.009776269413098742
1668678579.992211,64135,1668678579,992053439,,-0.09537886564155829,-0.6129993759485186,0.07063414130426972,0.9955579612838645,0.09353957196628734,-0.004372500741690784,0.009776269121854959
1668678580.000565,64136,1668678580,441052,,-0.09537814758802002,-0.6129993759475333,0.0706343820810858,0.9955579612870363,0.09353957196616858,-0.00437250066220897,0.009776268835542166
1668678580.0085242,64137,1668678580,8327683,,-0.09537747665847798,-0.6129993759466991,0.07063454735783342,0.9955579612901451,0.09353957196607807,-0.0043725005854651396,0.009776268554158033
1668678580.016892,64138,1668678580,16622796,,-0.09537684406939448,-0.6129993759459784,0.07063464688952355,0.9955579612931909,0.09353957196601495,-0.004372500511447024,0.009776268277698898
1668678580.024391,64139,1668678580,24194680,,-0.09537621250827892,-0.6129993759452886,0.07063466014517376,0.9955579612961739,0.09353957196597933,-0.00437250044014316,0.009776268006162101
1668678580.0322468,64140,1668678580,32130853,,-0.09537556434110667,-0.6129993759445833,0.07063464082343224,0.9955579612990941,0.09353957196597093,-0.00437250037154126,0.009776267739543942
1668678580.0409968,64141,1668678580,40766243,,-0.09537489565403577,-0.6129993759438557,0.07063464725304573,0.9955579613019517,0.09353957196598942,-0.004372500305628773,0.009776267477839568
1668678580.0491073,64142,1668678580,48877213,,-0.09537420594607478,-0.6129993759431063,0.07063470681021844,0.995557961304747,0.09353957196603473,-0.00437250024239279,0.009776267221043414
1668678580.0563803,64143,1668678580,56295790,,-0.09537349297651017,-0.6129993759423163,0.07063485998769002,0.9955579613074798,0.09353957196610661,-0.0043725001818201836,0.009776266969149648
1668678580.064254,64144,1668678580,64052170,,-0.09537275720562653,-0.6129993759414504,0.07063513604943424,0.9955579613101504,0.09353957196620472,-0.0043725001238975655,0.009776266722151672
1668678580.0727327,64145,1668678580,72600917,,-0.09537200092308219,-0.612999375940461,0.07063554632033921,0.9955579613127591,0.09353957196632892,-0.004372500068611253,0.009776266480042064
1668678580.0806684,64146,1668678580,80472145,,-0.09537122673173654,-0.6129993759393116,0.07063609080053168,0.9955579613153059,0.09353957196647911,-0.004372500015947523,0.009776266242813162
1668678580.0884566,64147,1668678580,88297630,,-0.09537043679446637,-0.6129993759379945,0.0706367445246208,0.9955579613177908,0.093539571966655,-0.004372499965892158,0.009776266010456136
1668678580.0963874,64148,1668678580,96277975,,-0.0953696335013326,-0.6129993759365482,0.07063748975539262,0.9955579613202145,0.09353957196685618,-0.004372499918430862,0.009776265782962364
1668678580.104396,64149,1668678580,104277766,,-0.09536881927403894,-0.6129993759349206,0.07063834365373675,0.9955579613225765,0.09353957196708265,-0.004372499873549057,0.009776265560322149
1668678580.1124535,64150,1668678580,112187380,,-0.09536799646727995,-0.6129993759331698,0.07063926532700002,0.9955579613248776,0.0935395719673342,-0.004372499831232114,0.009776265342525611
1668678580.1205444,64151,1668678580,120397767,,-0.09536716734214344,-0.6129993759314603,0.07064020800353724,0.9955579613271175,0.09353957196761033,-0.004372499791464928,0.009776265129561852
1668678580.1283388,64152,1668678580,128194316,,-0.09536633401229676,-0.6129993759298455,0.07064114714606595,0.9955579613292966,0.09353957196791106,-0.004372499754232395,0.009776264921419893
1668678580.1364968,64153,1668678580,136337517,,-0.09536549842150346,-0.6129993759283439,0.07064209464545189,0.9955579613314154,0.09353957196823583,-0.004372499719519192,0.009776264718087915
1668678580.145152,64154,1668678580,144868503,,-0.09536466237956621,-0.6129993759268209,0.07064308582207776,0.9955579613334735,0.09353957196858477,-0.004372499687309672,0.009776264519553877
1668678580.1524022,64155,1668678580,152283749,,-0.09536382756227152,-0.6129993759252776,0.07064412053464073,0.9955579613354717,0.09353957196895771,-0.004372499657588087,0.009776264325804971
1668678580.16033,64156,1668678580,160235060,,-0.09536299551649821,-0.6129993759237257,0.07064519519980075,0.9955579613374098,0.09353957196935413,-0.004372499630338409,0.009776264136827997
1668678580.1687398,64157,1668678580,168582843,,-0.09536216766291025,-0.6129993759221841,0.07064630440251816,0.9955579613392884,0.09353957196977376,-0.004372499605544515,0.00977626395260924
1668678580.1769314,64158,1668678580,176713262,,-0.09536134530080913,-0.612999375920771,0.07064739851209831,0.9955579613411074,0.09353957197021652,-0.0043724995831901405,0.009776263773134468
1668678580.1846292,64159,1668678580,184513627,,-0.09536052961723901,-0.6129993759197286,0.07064840844130171,0.9955579613428671,0.0935395719706822,-0.004372499563258759,0.009776263598388965
1668678580.1924808,64160,1668678580,192333249,,-0.09535972169281429,-0.6129993759190058,0.07064936251096451,0.995557961344568,0.09353957197117038,-0.004372499545733583,0.009776263428357591
1668678580.202083,64161,1668678580,201620410,,-0.0953589225078622,-0.6129993759183762,0.0706503104605461,0.99555796134621,0.09353957197168106,-0.004372499530597845,0.009776263263024507
1668678580.2087822,64162,1668678580,208543462,,-0.0953581329481816,-0.612999375917791,0.07065127584578548,0.9955579613477935,0.09353957197221405,-0.004372499517834386,0.00977626310237366
1668678580.2166533,64163,1668678580,216528714,,-0.09535735381049176,-0.6129993759171043,0.07065230783073538,0.9955579613493188,0.09353957197276869,-0.004372499507426206,0.00977626294638859
1668678580.2245271,64164,1668678580,224409511,,-0.09535658580810813,-0.612999375916223,0.07065342648225388,0.9955579613507863,0.093539571973345,-0.004372499499355741,0.009776262795051808
1668678580.2321548,64165,1668678580,232030958,,-0.09535582957610741,-0.6129993759151732,0.07065462263024362,0.995557961352196,0.09353957197394283,-0.004372499493605623,0.00977626264834631
1668678580.2409973,64166,1668678580,240785448,,-0.09535508567620572,-0.6129993759139832,0.07065588781537908,0.9955579613535482,0.09353957197456182,-0.004372499490158111,0.009776262506253826
1668678580.2486923,64167,1668678580,248520697,,-0.09535441457689121,-0.6129993759127372,0.07065721781294247,0.9955579613548434,0.09353957197520153,-0.004372499488994943,0.00977626236875495
1668678580.2564743,64168,1668678580,256342309,,-0.09535384358140606,-0.6129993759115169,0.07065860949816498,0.9955579613560819,0.09353957197586199,-0.0043724994900974515,0.009776262235829527
1668678580.2645044,64169,1668678580,264283272,,-0.09535332271959443,-0.6129993759102415,0.07066005666565776,0.9955579613572638,0.09353957197654296,-0.004372499493448267,0.009776262107459936
1668678580.2725098,64170,1668678580,272256259,,-0.09535284100605176,-0.6129993759088174,0.07066158189604393,0.9955579613583894,0.093539571977244,-0.004372499499029308,0.009776261983626675
1668678580.2804513,64171,1668678580,280286453,,-0.09535240318927413,-0.6129993759071056,0.07066320531173238,0.9955579613594591,0.09353957197796511,-0.004372499506822089,0.009776261864309601
1668678580.288557,64172,1668678580,288446736,,-0.09535200918263037,-0.6129993759050968,0.07066493159255566,0.9955579613604733,0.09353957197870587,-0.004372499516808079,0.009776261749488233
1668678580.2967587,64173,1668678580,296601089,,-0.09535170152511392,-0.6129993759027861,0.07066675529551214,0.995557961361432,0.09353957197946576,-0.004372499528968622,0.009776261639141396
1668678580.3048906,64174,1668678580,304607793,,-0.0953514788972431,-0.6129993759003766,0.07066863898202926,0.9955579613623358,0.09353957198024498,-0.00437249954328475,0.009776261533247302
1668678580.3127065,64175,1668678580,312551627,,-0.09535127381592143,-0.6129993758980335,0.07067054887218999,0.9955579613631849,0.09353957198104289,-0.004372499559737806,0.009776261431785315
1668678580.3203778,64176,1668678580,320243647,,-0.09535105489570508,-0.6129993758958444,0.07067247039673917,0.9955579613639797,0.09353957198185953,-0.004372499578309035,0.00977626133473348
1668678580.3285694,64177,1668678580,328422653,,-0.09535079859359032,-0.6129993758938409,0.0706743937647415,0.9955579613647204,0.09353957198269451,-0.004372499598979307,0.009776261242069222
1668678580.3377357,64178,1668678580,337414039,,-0.09535047516280644,-0.6129993758916492,0.07067641076808556,0.9955579613654073,0.09353957198354791,-0.004372499621729461,0.009776261153770187
1668678580.345418,64179,1668678580,345260184,,-0.09535006106070622,-0.6129993758882272,0.07067866409667908,0.995557961366041,0.09353957198441924,-0.004372499646540274,0.009776261069813406
1668678580.3525696,64180,1668678580,352320151,,-0.09534953528632371,-0.6129993758833175,0.07068115248910109,0.9955579613666216,0.09353957198530806,-0.004372499673392558,0.009776260990175813
1668678580.3604782,64181,1668678580,360328125,,-0.0953488782617486,-0.6129993758773248,0.07068382106558962,0.9955579613671494,0.09353957198621438,-0.00437249970226706,0.009776260914834243
1668678580.3689094,64182,1668678580,368706020,,-0.09534806976283783,-0.6129993758704387,0.0706866336851814,0.9955579613676249,0.09353957198713758,-0.0043724997331442556,0.009776260843764985
1668678580.3767197,64183,1668678580,376531564,,-0.09534708795468674,-0.6129993758627085,0.07068959297032318,0.9955579613680485,0.09353957198807773,-0.004372499766005311,0.009776260776945205
1668678580.384467,64184,1668678580,384367929,,-0.09534591049151536,-0.6129993758543014,0.07069263148567655,0.9955579613684202,0.09353957198903452,-0.0043724998008309035,0.009776260714351318
1668678580.3921406,64185,1668678580,391997246,,-0.09534451434946586,-0.6129993758465666,0.07069560519478435,0.9955579613687408,0.09353957199000784,-0.004372499837602189,0.009776260655960014
1668678580.400819,64186,1668678580,400553537,,-0.0953428758499545,-0.6129993758398185,0.07069846777114745,0.9955579613690102,0.09353957199099709,-0.0043724998763003025,0.009776260601748707
1668678580.4085314,64187,1668678580,408353211,,-0.09534097060226136,-0.6129993758340649,0.07070115352217721,0.995557961369229,0.09353957199200216,-0.004372499916906528,0.009776260551694697
1668678580.4166076,64188,1668678580,416405227,,-0.09533877352569767,-0.6129993758296379,0.0707035815178586,0.9955579613693972,0.09353957199302294,-0.004372499959402457,0.009776260505775635
1668678580.4245777,64189,1668678580,424405039,,-0.09533625902633402,-0.6129993758260238,0.07070573552540917,0.9955579613695156,0.09353957199405881,-0.004372500003769973,0.009776260463969531
1668678580.4325292,64190,1668678580,432338140,,-0.09533344546906838,-0.6129993758224982,0.07070767663801363,0.9955579613695842,0.09353957199510998,-0.004372500049989771,0.009776260426252334
1668678580.4404926,64191,1668678580,440344965,,-0.09533034726221525,-0.612999375818363,0.07070947257439392,0.9955579613696036,0.09353957199617573,-0.00437250009804158,0.009776260392596707
1668678580.4486446,64192,1668678580,448453116,,-0.09532695435112953,-0.6129993758131449,0.07071116020803335,0.9955579613695739,0.09353957199725621,-0.004372500147906742,0.009776260362979343
1668678580.4564927,64193,1668678580,456348943,,-0.09532322291059298,-0.6129993758058941,0.07071287995758417,0.9955579613694956,0.09353957199835086,-0.004372500199567335,0.009776260337378747
1668678580.4649043,64194,1668678580,464611020,,-0.09531906956956566,-0.6129993757950385,0.0707147259477473,0.9955579613693687,0.09353957199945952,-0.004372500253009794,0.00977626031578218
1668678580.4721937,64195,1668678580,472095804,,-0.0953144383348295,-0.6129993757799438,0.0707166751212004,0.9955579613691937,0.09353957200058205,-0.004372500308219886,0.009776260298176279
1668678580.4807055,64196,1668678580,480582830,,-0.09530929241969263,-0.6129993757600373,0.07071871222924776,0.9955579613689706,0.09353957200171815,-0.004372500365183278,0.00977626028454634
1668678580.4885552,64197,1668678580,488429530,,-0.09530360007316882,-0.6129993757345825,0.07072086947757188,0.9955579613686997,0.09353957200286729,-0.004372500423885521,0.009776260274877739
1668678580.4971986,64198,1668678580,496939728,,-0.09529732751210825,-0.6129993757026587,0.070723154392712,0.9955579613683814,0.09353957200402949,-0.004372500484313159,0.009776260269158043
1668678580.504735,64199,1668678580,504513488,,-0.09529044507568327,-0.6129993756638508,0.07072551890824688,0.9955579613680154,0.09353957200520423,-0.0043725005464533406,0.009776260267375917
1668678580.5122218,64200,1668678580,512054674,,-0.09528292534974399,-0.6129993756178631,0.07072787415404465,0.9955579613676024,0.09353957200639144,-0.004372500610293603,0.009776260269520172
1668678580.520391,64201,1668678580,520271534,,-0.09527474256447713,-0.6129993755644821,0.07073014987444355,0.9955579613671426,0.09353957200759058,-0.004372500675821829,0.009776260275581136
1668678580.528967,64202,1668678580,528734725,,-0.09526587151847367,-0.6129993755029146,0.07073231271391482,0.9955579613666357,0.09353957200880177,-0.004372500743026667,0.009776260285550354
1668678580.536393,64203,1668678580,536252931,,-0.0952563814211848,-0.6129993754339724,0.07073430839183967,0.9955579613660823,0.09353957201002447,-0.00437250081188761,0.009776260299398761
1668678580.5444226,64204,1668678580,544295802,,-0.09524639436247537,-0.6129993753605444,0.0707361271073609,0.9955579613654835,0.09353957201125847,-0.004372500882368526,0.009776260317061688
1668678580.5523038,64205,1668678580,552027662,,-0.09523595809626022,-0.612999375283728,0.07073778648186757,0.9955579613648393,0.09353957201250354,-0.004372500954442181,0.009776260338494786
1668678580.5615804,64206,1668678580,561266006,,-0.09522505452390119,-0.6129993752030994,0.07073929834766704,0.9955579613641506,0.0935395720137595,-0.00437250102809114,0.009776260363675389
1668678580.5694401,64207,1668678580,569237745,,-0.09521423383024799,-0.6129993751275776,0.07074089088038747,0.9955579613634192,0.09353957201502644,-0.0043725011032345355,0.009776260392438929
1668678580.5765042,64208,1668678580,576373298,,-0.09520445342050382,-0.6129993750810102,0.07074299838833725,0.9955579613626498,0.09353957201630414,-0.004372501179679236,0.009776260424368495
1668678580.5843801,64209,1668678580,584286590,,-0.09519622931043138,-0.6129993750696786,0.07074591904928487,0.9955579613618449,0.09353957201759276,-0.004372501257329426,0.009776260459266103
1668678580.5923917,64210,1668678580,592132461,,-0.09518979720129891,-0.6129993750855991,0.07074985525679685,0.9955579613610048,0.09353957201889221,-0.0043725013361730816,0.009776260497119613
1668678580.6007173,64211,1668678580,600500683,,-0.09518512748552653,-0.6129993751153099,0.07075487270562025,0.9955579613601289,0.09353957202020176,-0.0043725014162335285,0.009776260537997026
1668678580.6083455,64212,1668678580,608206399,,-0.0951820824697859,-0.6129993751444465,0.07076095738070969,0.9955579613592154,0.09353957202152138,-0.0043725014975551126,0.00977626058201261
1668678580.6163514,64213,1668678580,616255936,,-0.09518035860371395,-0.6129993751608123,0.07076816935414143,0.995557961358264,0.09353957202285042,-0.004372501580165289,0.009776260629242832
1668678580.625327,64214,1668678580,625052428,,-0.09517951430157334,-0.612999375155112,0.0707764897829058,0.9955579613572737,0.09353957202418857,-0.0043725016640856085,0.009776260679751228
1668678580.632196,64215,1668678580,632008626,,-0.09517928760051238,-0.6129993751252407,0.0707858289539115,0.9955579613562445,0.09353957202553573,-0.00437250174931106,0.009776260733541282
1668678580.6419868,64216,1668678580,641740812,,-0.0951794724985893,-0.6129993750717275,0.07079609286280092,0.9955579613551769,0.09353957202689145,-0.0043725018358272095,0.00977626079059552
1668678580.6486266,64217,1668678580,648503651,,-0.09517948031952454,-0.612999375005532,0.07080681895754105,0.9955579613540713,0.09353957202825532,-0.0043725019236140325,0.009776260850883726
1668678580.6570399,64218,1668678580,656637697,,-0.09517821459895967,-0.61299937495103,0.07081731255396162,0.9955579613529276,0.09353957202962743,-0.004372502012657337,0.009776260914389084
1668678580.6643603,64219,1668678580,664238868,,-0.09517478902091649,-0.6129993749151479,0.07082716185838288,0.9955579613517452,0.09353957203100717,-0.00437250210298577,0.009776260981190324
1668678580.6722658,64220,1668678580,672134188,,-0.09516878563209973,-0.6129993748854012,0.07083622679609038,0.9955579613505219,0.09353957203239426,-0.004372502194678498,0.00977626105147879
1668678580.680602,64221,1668678580,680428982,,-0.09516011331342172,-0.6129993748411895,0.07084452160535816,0.9955579613492552,0.09353957203378796,-0.004372502287830606,0.009776261125481075
1668678580.6897,64222,1668678580,689409396,,-0.09514876302688181,-0.6129993747633246,0.07085207505795088,0.9955579613479425,0.09353957203518808,-0.004372502382531879,0.009776261203411483
1668678580.6973848,64223,1668678580,697170797,,-0.09513480690889814,-0.6129993746363602,0.07085886172470654,0.9955579613465815,0.0935395720365935,-0.0043725024788652915,0.009776261285469321
1668678580.705005,64224,1668678580,704854100,,-0.09511846053010312,-0.6129993744549044,0.07086477107834077,0.9955579613451714,0.09353957203800421,-0.0043725025768639484,0.009776261371741386
1668678580.71296,64225,1668678580,712852518,,-0.09509988014027976,-0.6129993742155189,0.07086970131726518,0.9955579613437114,0.09353957203941982,-0.004372502676549234,0.00977626146228872
1668678580.7214434,64226,1668678580,721186627,,-0.09507914556626124,-0.6129993739119565,0.07087366495327098,0.9955579613422009,0.09353957204084011,-0.004372502777947605,0.009776261557183493
1668678580.7285154,64227,1668678580,728339462,,-0.09505619710751317,-0.6129993735325351,0.07087680707259386,0.9955579613406378,0.0935395720422642,-0.0043725028811174745,0.009776261656569099
1668678580.7363427,64228,1668678580,736253426,,-0.09503090112040877,-0.6129993730602776,0.0708792742978133,0.9955579613390199,0.0935395720436919,-0.0043725029861630665,0.009776261760691086
1668678580.744392,64229,1668678580,744178319,,-0.09500319380297209,-0.6129993724832146,0.07088113255668735,0.9955579613373444,0.0935395720451227,-0.004372503093175569,0.00977626186976566
1668678580.7529035,64230,1668678580,752668876,,-0.09497309801182523,-0.6129993717957116,0.07088243238865621,0.9955579613356096,0.09353957204655597,-0.004372503202214221,0.009776261983937435
1668678580.7604814,64231,1668678580,760332224,,-0.0949407222354503,-0.612999370999846,0.07088320356369346,0.9955579613338152,0.09353957204799161,-0.00437250331329348,0.00977626210325084
1668678580.7685213,64232,1668678580,768383568,,-0.09490619110768823,-0.6129993701025165,0.07088346819205515,0.9955579613319615,0.09353957204942911,-0.004372503426397244,0.009776262227681364
1668678580.7767518,64233,1668678580,776437207,,-0.09486954120958496,-0.6129993691062503,0.07088337642975054,0.995557961330048,0.09353957205086832,-0.00437250354153881,0.009776262357270058
1668678580.785044,64234,1668678580,784765535,,-0.0948307470823683,-0.6129993680077915,0.07088310351388476,0.9955579613280733,0.09353957205230902,-0.004372503658774517,0.009776262492154322
1668678580.7927134,64235,1668678580,792563377,,-0.09478980274787956,-0.612999366805185,0.07088270996541225,0.9955579613260358,0.09353957205375048,-0.004372503778154039,0.009776262632456347
1668678580.8008347,64236,1668678580,800558543,,-0.0947467408173661,-0.612999365500519,0.07088222186822564,0.9955579613239348,0.09353957205519269,-0.004372503899701814,0.009776262778241729
1668678580.8085284,64237,1668678580,808404662,,-0.0947016073339152,-0.6129993640983842,0.07088161074106254,0.9955579613217702,0.09353957205663492,-0.004372504023424089,0.009776262929534867
1668678580.8168974,64238,1668678580,816623741,,-0.09465443755952237,-0.6129993626024857,0.07088084828287342,0.9955579613195417,0.09353957205807745,-0.004372504149330293,0.009776263086367065
1668678580.8246083,64239,1668678580,824334575,,-0.09460526524404722,-0.6129993610168085,0.07087994449742088,0.9955579613172487,0.0935395720595193,-0.004372504277428788,0.009776263248767432
1668678580.83216,64240,1668678580,832015620,,-0.09455417963132164,-0.6129993593500221,0.07087880496137064,0.9955579613148923,0.09353957206096102,-0.004372504407692755,0.009776263416685926
1668678580.8405116,64241,1668678580,840362513,,-0.09450126793344894,-0.6129993576146175,0.07087734432242736,0.9955579613124736,0.09353957206240202,-0.004372504540061934,0.009776263589997286
1668678580.848791,64242,1668678580,848575412,,-0.0944465881974012,-0.6129993558172796,0.07087553451237982,0.9955579613099933,0.09353957206384239,-0.004372504674513723,0.009776263768660679
1668678580.8567586,64243,1668678580,856551061,,-0.09439026715560236,-0.6129993539742418,0.07087348846260622,0.9955579613074534,0.09353957206528209,-0.004372504810965829,0.009776263952501283
1668678580.864515,64244,1668678580,864331406,,-0.09433232326845034,-0.6129993520974961,0.07087137623457668,0.9955579613048553,0.0935395720667207,-0.004372504949368344,0.009776264141416573
1668678580.872356,64245,1668678580,872152128,,-0.09427266298751506,-0.6129993501721809,0.07086922125051714,0.9955579613021959,0.09353957206815797,-0.004372505089829827,0.009776264335658638
1668678580.880865,64246,1668678580,880657405,,-0.0942112725955096,-0.6129993481950736,0.07086703589818437,0.9955579612994743,0.09353957206959337,-0.004372505232389323,0.00977626453532356
1668678580.8884244,64247,1668678580,888314468,,-0.09414815731295136,-0.6129993461683462,0.0708647861301354,0.9955579612966902,0.09353957207102657,-0.004372505377048627,0.009776264740424062
1668678580.896591,64248,1668678580,896421933,,-0.09408342632380824,-0.6129993441027697,0.0708624222631006,0.9955579612938451,0.09353957207245779,-0.004372505523750829,0.009776264950840812
1668678580.9043615,64249,1668678580,904271057,,-0.0940172556268616,-0.612999342029644,0.07085992977741251,0.9955579612909441,0.09353957207388731,-0.004372505672300819,0.00977626516614559
1668678580.912788,64250,1668678580,912549603,,-0.09394975881418766,-0.6129993399671512,0.07085730950307964,0.9955579612879902,0.09353957207531487,-0.004372505822576769,0.009776265386073896
1668678580.9206457,64251,1668678580,920449144,,-0.0938809850862692,-0.6129993379255727,0.0708545722012564,0.9955579612849856,0.09353957207674081,-0.0043725059745002,0.00977626561045799
1668678580.928544,64252,1668678580,928385278,,-0.09381095310133176,-0.6129993359050085,0.07085173008319179,0.9955579612819305,0.09353957207816485,-0.004372506128055558,0.009776265839270428
1668678580.9373093,64253,1668678580,937044564,,-0.09373966820665523,-0.6129993339067441,0.07084874581405426,0.9955579612788256,0.09353957207958666,-0.004372506283214516,0.009776266072456056
1668678580.945488,64254,1668678580,945196702,,-0.0936670332850444,-0.6129993319141969,0.07084556040216271,0.9955579612756688,0.09353957208100577,-0.004372506440059795,0.009776266310207104
1668678580.9525063,64255,1668678580,952346956,,-0.09359293174639599,-0.6129993299027772,0.0708421542344006,0.9955579612724559,0.0935395720824219,-0.004372506598739208,0.009776266552861795
1668678580.9604962,64256,1668678580,960362882,,-0.0935173278968667,-0.6129993278637468,0.07083853700526134,0.9955579612691856,0.09353957208383441,-0.004372506759311734,0.009776266800558472
1668678580.9684918,64257,1668678580,968377347,,-0.09344025745158613,-0.6129993258030428,0.07083474140968775,0.9955579612658585,0.09353957208524327,-0.004372506921747412,0.00977626705323686
1668678580.9770224,64258,1668678580,976692924,,-0.09336166992304094,-0.6129993237191251,0.07083080157824402,0.9955579612624743,0.09353957208664826,-0.004372507086062157,0.00977626731093929
1668678580.9843876,64259,1668678580,984283462,,-0.09328144408889111,-0.6129993215865605,0.07082674232720454,0.9955579612590282,0.09353957208804865,-0.004372507252430154,0.009776267574061638
1668678580.9921408,64260,1668678580,991983604,,-0.0931995284275599,-0.6129993193947195,0.07082252379925913,0.995557961255518,0.09353957208944394,-0.004372507420934511,0.009776267842795613
1668678581.000291,64261,1668678581,174982,,-0.09311591981781764,-0.612999317142104,0.07081810762013999,0.9955579612519432,0.09353957209083383,-0.004372507591598285,0.009776268117198533
1668678581.0088804,64262,1668678581,8673239,,-0.09303062665955951,-0.6129993148334124,0.07081348675256689,0.9955579612483041,0.09353957209221861,-0.004372507764413152,0.009776268397256892
1668678581.0164082,64263,1668678581,16220972,,-0.09294396550990477,-0.6129993125177111,0.07080880828240921,0.9955579612446077,0.0935395720935985,-0.0043725079390941925,0.009776268682338498
1668678581.024309,64264,1668678581,24137064,,-0.09285639048926045,-0.6129993103107847,0.07080433315883218,0.9955579612408731,0.09353957209497499,-0.0043725081149207255,0.009776268970835543
1668678581.0326443,64265,1668678581,32415024,,-0.09276801007830146,-0.6129993082433477,0.07080014814931544,0.9955579612371067,0.09353957209634849,-0.0043725082916479885,0.00977626926220626
1668678581.0409033,64266,1668678581,40665179,,-0.09267885143646197,-0.6129993063073471,0.07079628845827932,0.9955579612333089,0.09353957209771878,-0.00437250846925642,0.00977626955641213
1668678581.0485804,64267,1668678581,48421589,,-0.09258882175039662,-0.612999304488163,0.07079270625171889,0.995557961229479,0.09353957209908605,-0.004372508647765659,0.009776269853502315
1668678581.056681,64268,1668678581,56502589,,-0.09249764752061672,-0.6129993027139096,0.07078931295515667,0.9955579612256069,0.09353957210044873,-0.004372508827564576,0.009776270154352432
1668678581.064433,64269,1668678581,64300040,,-0.09240513533376582,-0.6129993009338055,0.07078610949096086,0.9955579612216847,0.09353957210180636,-0.004372509008954797,0.00977627045964208
1668678581.0730417,64270,1668678581,72809170,,-0.09231144893728312,-0.6129992991631362,0.07078309183688984,0.9955579612177153,0.09353957210315847,-0.004372509191830276,0.00977627076913839
1668678581.0806713,64271,1668678581,80478752,,-0.0922167955218787,-0.6129992974671001,0.07078025266499466,0.9955579612137102,0.09353957210450595,-0.004372509375742483,0.009776271081841295
1668678581.0886912,64272,1668678581,88496374,,-0.09212125433018462,-0.6129992958497362,0.0707775841848924,0.9955579612096714,0.09353957210584919,-0.004372509560617714,0.009776271397590295
1668678581.0968955,64273,1668678581,96667612,,-0.09202496448237175,-0.6129992943442054,0.07077515271100414,0.9955579612056057,0.0935395721071886,-0.004372509746191256,0.009776271715797244
1668678581.1056285,64274,1668678581,105369471,,-0.09192802973793551,-0.6129992929668832,0.07077302865709333,0.9955579612015176,0.09353957210852404,-0.004372509932298309,0.009776272036097619
1668678581.11255,64275,1668678581,112372936,,-0.09183053038758789,-0.6129992917321847,0.07077120794859443,0.9955579611974114,0.0935395721098563,-0.00437251011876539,0.009776272358107598
1668678581.1214006,64276,1668678581,121178834,,-0.09173243696338526,-0.6129992906273032,0.07076967571480866,0.9955579611932872,0.09353957211118476,-0.004372510305589175,0.009776272681823356
1668678581.1292539,64277,1668678581,129022554,,-0.09163353211457628,-0.612999289601773,0.0707685204719058,0.9955579611891383,0.09353957211250868,-0.004372510493023903,0.009776273007818062
1668678581.1378555,64278,1668678581,137510777,,-0.09153367208806049,-0.6129992886017189,0.07076800091509976,0.9955579611849564,0.09353957211382737,-0.00437251068138886,0.009776273336809697
1668678581.1445243,64279,1668678581,144360418,,-0.09143288839590062,-0.6129992876367054,0.07076833992271742,0.9955579611807437,0.09353957211514059,-0.004372510870601488,0.009776273668617046
1668678581.1527665,64280,1668678581,152501051,,-0.09133128819988207,-0.6129992867203659,0.07076956708766821,0.9955579611765036,0.09353957211644849,-0.004372511060528204,0.009776274002943671
1668678581.1605651,64281,1668678581,160410241,,-0.0912289382712076,-0.6129992858745336,0.0707716137502042,0.9955579611722415,0.09353957211775138,-0.004372511250962772,0.009776274339331351
1668678581.1688685,64282,1668678581,168636770,,-0.09112583398679559,-0.6129992850845697,0.07077441322784381,0.9955579611679566,0.09353957211904927,-0.004372511441935167,0.00977627467784981
1668678581.176523,64283,1668678581,176387836,,-0.0910220667411783,-0.6129992843657788,0.07077796461531873,0.995557961163653,0.09353957212034208,-0.004372511633286396,0.00977627501814588
1668678581.1841702,64284,1668678581,183995569,,-0.09091763825956167,-0.6129992837207524,0.07078224888266167,0.995557961159333,0.09353957212163005,-0.0043725118249332605,0.009776275360036226
1668678581.1927044,64285,1668678581,192539799,,-0.09081245128505092,-0.6129992831168047,0.07078718506512835,0.9955579611549924,0.09353957212291263,-0.004372512017026683,0.009776275703861621
1668678581.2010841,64286,1668678581,200891610,,-0.09070641866833806,-0.6129992825273698,0.07079270417504367,0.9955579611506281,0.09353957212418935,-0.004372512209696108,0.009776276049913414
1668678581.2083018,64287,1668678581,208211190,,-0.09059970499922872,-0.612999281971313,0.07079882598946202,0.995557961146244,0.09353957212546037,-0.004372512402785364,0.009776276397844607
1668678581.2166653,64288,1668678581,216492835,,-0.09049264183116838,-0.6129992815372675,0.07080566528629842,0.9955579611418568,0.09353957212672709,-0.004372512595656275,0.009776276746228716
1668678581.2246878,64289,1668678581,224408628,,-0.09038537978370384,-0.6129992812609519,0.07081328955721966,0.9955579611374752,0.09353957212798997,-0.004372512787974504,0.009776277094320027
1668678581.234378,64290,1668678581,232378095,,-0.09027783384358527,-0.612999281118769,0.0708216355915283,0.995557961133098,0.09353957212924882,-0.004372512979786998,0.009776277442226394
1668678581.2406793,64291,1668678581,240465724,,-0.09016982957448519,-0.6129992810503704,0.0708305960874087,0.9955579611287172,0.09353957213050286,-0.004372513171407175,0.009776277790651475
1668678581.2490923,64292,1668678581,248899717,,-0.09006122515576143,-0.6129992810141204,0.07084008681042665,0.9955579611243268,0.09353957213175135,-0.004372513363052193,0.00977627814008323
1668678581.2566178,64293,1668678581,256428369,,-0.08995169622773194,-0.6129992809356318,0.07085001958106751,0.995557961119915,0.09353957213299294,-0.004372513555178638,0.009776278491544697
1668678581.2645435,64294,1668678581,264323818,,-0.08984084691878601,-0.6129992807038721,0.0708603102963245,0.9955579611154624,0.09353957213422619,-0.004372513748527315,0.009776278846695028
1668678581.2724757,64295,1668678581,272364851,,-0.0897285042260339,-0.6129992802704589,0.07087089034771278,0.9955579611109592,0.09353957213544974,-0.004372513943480337,0.009776279206388915
1668678581.2817836,64296,1668678581,281492159,,-0.08961456472560962,-0.6129992796246858,0.07088170543225347,0.9955579611064009,0.09353957213666352,-0.004372514140189693,0.009776279570966108
1668678581.2893093,64297,1668678581,289105514,,-0.08949882277009119,-0.6129992787272288,0.0708926221561789,0.9955579611017787,0.09353957213786626,-0.004372514339014649,0.009776279941229277
1668678581.2975872,64298,1668678581,297375592,,-0.089381006022788,-0.6129992775208172,0.07090349979425263,0.9955579610970792,0.09353957213905703,-0.004372514540462815,0.009776280318313239
1668678581.3046012,64299,1668678581,304455554,,-0.08926089778969497,-0.6129992759535536,0.07091427683220944,0.9955579610922894,0.0935395721402347,-0.004372514745023716,0.00977628070331093
1668678581.312191,64300,1668678581,312106642,,-0.0891384585864558,-0.6129992740250723,0.07092488664600263,0.995557961087405,0.09353957214139857,-0.004372514952872188,0.009776281096610093
1668678581.3210893,64301,1668678581,320945771,,-0.08901373128268777,-0.6129992717696396,0.07093528310866451,0.9955579610824274,0.09353957214254895,-0.004372515163953496,0.009776281498085003
1668678581.3294334,64302,1668678581,329185550,,-0.08888675128424475,-0.6129992692150973,0.07094544224984788,0.9955579610773575,0.09353957214368587,-0.004372515378235946,0.009776281907661217
1668678581.3370712,64303,1668678581,336871092,,-0.08875748300593284,-0.6129992663750046,0.07095530235476984,0.9955579610721939,0.09353957214480922,-0.0043725155957753765,0.009776282325459077
1668678581.3454573,64304,1668678581,345317466,,-0.08862577411863908,-0.6129992632209265,0.07096484939980809,0.9955579610669277,0.09353957214591802,-0.004372515816899143,0.00977628275220728
1668678581.3527808,64305,1668678581,352551210,,-0.08849149499585564,-0.6129992597202358,0.07097412283907098,0.99555796106155,0.09353957214701177,-0.00437251604197125,0.009776283188715809
1668678581.3615723,64306,1668678581,361341317,,-0.08835464314308152,-0.6129992558830162,0.07098313764469515,0.9955579610560579,0.09353957214809001,-0.004372516271094642,0.00977628363520876
1668678581.369381,64307,1668678581,369232894,,-0.08821516023679679,-0.6129992517207058,0.07099182950058641,0.9955579610504489,0.0935395721491529,-0.004372516504363692,0.009776284091891376
1668678581.3772943,64308,1668678581,377069321,,-0.08807312190173945,-0.6129992472491278,0.07100019380402117,0.9955579610447213,0.09353957215019992,-0.004372516741847585,0.009776284558912298
1668678581.385237,64309,1668678581,385009734,,-0.08792878634930265,-0.612999242581228,0.0710083224212914,0.995557961038891,0.0935395721512326,-0.004372516982946411,0.009776285034921773
1668678581.3942885,64310,1668678581,393943343,,-0.0877822460088986,-0.6129992377710299,0.07101626210677675,0.9955579610329648,0.09353957215225141,-0.004372517227404269,0.009776285519340884
1668678581.401071,64311,1668678581,400889383,,-0.0876335200214099,-0.6129992328315483,0.0710240278028369,0.9955579610269425,0.09353957215325656,-0.004372517475217835,0.009776286012155579
1668678581.4085379,64312,1668678581,408392452,,-0.08748263682153702,-0.6129992277825548,0.07103162622648786,0.9955579610208258,0.09353957215424803,-0.004372517726334055,0.009776286513241094
1668678581.4169602,64313,1668678581,416793416,,-0.08732955405949008,-0.6129992226233367,0.07103890087444481,0.9955579610146127,0.09353957215522568,-0.0043725179808322655,0.009776287022767774
1668678581.4250245,64314,1668678581,424740102,,-0.08717420743196931,-0.6129992173343045,0.07104558374491868,0.9955579610082976,0.09353957215618912,-0.004372518238927253,0.009776287541209462
1668678581.432265,64315,1668678581,432125605,,-0.08701658976527123,-0.6129992119182716,0.07105153059879508,0.9955579610018789,0.09353957215713844,-0.004372518500680827,0.009776288068697214
1668678581.440453,64316,1668678581,440335502,,-0.08685673321638629,-0.6129992063916522,0.07105672626287918,0.9955579609953576,0.0935395721580736,-0.004372518766054714,0.009776288605137042
1668678581.4485445,64317,1668678581,448423165,,-0.08669451800037299,-0.6129992007343376,0.07106127723248289,0.9955579609887291,0.09353957215899414,-0.00437251903524046,0.009776289150949491
1668678581.4578602,64318,1668678581,457357385,,-0.08652976674411701,-0.6129991948681968,0.07106523735837937,0.9955579609819775,0.09353957215989925,-0.004372519308835533,0.009776289707463174
1668678581.4661994,64319,1668678581,464345872,,-0.0863624516976095,-0.6129991887885368,0.07106857609272618,0.9955579609750992,0.09353957216078843,-0.0043725195869873485,0.009776290274997674
1668678581.4721081,64320,1668678581,471981254,,-0.08619258117969555,-0.6129991825103153,0.0710713295471358,0.9955579609680937,0.09353957216166225,-0.0043725198697166364,0.009776290853589617
1668678581.4804637,64321,1668678581,480339600,,-0.08602020174981542,-0.6129991760592812,0.07107355605552701,0.9955579609609624,0.09353957216252043,-0.004372520156970733,0.00977629144310994
1668678581.4891694,64322,1668678581,488908909,,-0.08584537587371499,-0.6129991694750992,0.07107530209701426,0.9955579609537094,0.09353957216336355,-0.004372520448592801,0.009776292043196662
1668678581.496536,64323,1668678581,496379344,,-0.08566815894000615,-0.6129991627881904,0.07107663238256046,0.9955579609463381,0.09353957216419218,-0.004372520744473045,0.009776292653592936
1668678581.5044763,64324,1668678581,504326894,,-0.08548856738871309,-0.6129991560205976,0.07107760804145201,0.99555796093885,0.0935395721650063,-0.004372521044543373,0.009776293274135345
1668678581.5121768,64325,1668678581,512063514,,-0.08530659286850967,-0.6129991491707407,0.07107827029992017,0.9955579609312433,0.09353957216580609,-0.004372521348884713,0.009776293904993242
1668678581.5206974,64326,1668678581,520475251,,-0.08512228544106161,-0.6129991422629918,0.0710786477986697,0.9955579609235202,0.09353957216659169,-0.004372521657405514,0.009776294545950682
1668678581.5282948,64327,1668678581,528209891,,-0.08493584854413455,-0.6129991353759017,0.07107873552430279,0.9955579609156932,0.0935395721673642,-0.004372521969641889,0.009776295195957067
1668678581.5365736,64328,1668678581,536388067,,-0.0847474014180411,-0.6129991285944706,0.07107854424569553,0.9955579609077769,0.09353957216812475,-0.004372522285039136,0.009776295853759602
1668678581.544422,64329,1668678581,544279556,,-0.08455689191112965,-0.6129991218850881,0.07107811905750011,0.9955579608997661,0.09353957216887329,-0.004372522603802845,0.009776296519807298
1668678581.5530238,64330,1668678581,552772101,,-0.08436434262423491,-0.6129991152501987,0.071077487140024,0.9955579608916613,0.0935395721696096,-0.0043725229259114215,0.00977629719404123
1668678581.5610998,64331,1668678581,560906716,,-0.084169771434202,-0.612999108702753,0.07107672928741343,0.995557960883465,0.09353957217033411,-0.004372523251273914,0.009776297876245987
1668678581.568736,64332,1668678581,568554832,,-0.08397317438850607,-0.6129991022361198,0.07107595357590817,0.9955579608751762,0.09353957217104725,-0.004372523579932317,0.009776298566504343
1668678581.5766377,64333,1668678581,576453206,,-0.08377456361774428,-0.6129990958547094,0.07107522894316814,0.995557960866796,0.09353957217174892,-0.004372523911850451,0.009776299264723473
1668678581.5850742,64334,1668678581,584759144,,-0.0835739591842088,-0.6129990895633914,0.07107460254754248,0.9955579608583258,0.09353957217243938,-0.004372524246983801,0.0097762999707914
1668678581.5921116,64335,1668678581,591951606,,-0.08337139942939789,-0.6129990833762065,0.0710740941980082,0.9955579608497683,0.09353957217311909,-0.004372524585218393,0.009776300684441245
1668678581.6005669,64336,1668678581,600415043,,-0.08316693442578162,-0.6129990773117221,0.07107370471814284,0.9955579608411281,0.09353957217378842,-0.004372524926399454,0.00977630140531429
1668678581.6085026,64337,1668678581,608359016,,-0.0829606964937089,-0.612999071418,0.07107349062359725,0.9955579608324144,0.09353957217444807,-0.004372525270169885,0.009776302132599328
1668678581.616831,64338,1668678581,616604268,,-0.0827528285415065,-0.6129990657698082,0.0710735367944712,0.9955579608236419,0.09353957217509928,-0.00437252561597273,0.009776302865037551
1668678581.6246731,64339,1668678581,624442256,,-0.08254339527591037,-0.6129990603878602,0.07107387338325122,0.9955579608148172,0.0935395721757425,-0.004372525963565544,0.009776303602075513
1668678581.6322176,64340,1668678581,632055170,,-0.08233237395758411,-0.6129990552558008,0.07107445831203923,0.9955579608059407,0.09353957217637789,-0.004372526312931531,0.009776304343665129
1668678581.6405034,64341,1668678581,640335000,,-0.08211973339532139,-0.6129990503296008,0.07107523470840946,0.9955579607970081,0.09353957217700491,-0.004372526664243346,0.009776305090182761
1668678581.6488044,64342,1668678581,648537295,,-0.08190547449971594,-0.6129990456019524,0.07107616687633368,0.9955579607880206,0.09353957217762462,-0.004372527017450056,0.00977630584150256
1668678581.6567168,64343,1668678581,656535731,,-0.08168958106382761,-0.6129990410480218,0.07107720897019443,0.9955579607789768,0.09353957217823644,-0.004372527372618841,0.009776306597764328
1668678581.66414,64344,1668678581,664015096,,-0.08147206224409355,-0.6129990366591415,0.07107829826699577,0.9955579607698775,0.09353957217884079,-0.004372527729718489,0.009776307358886589
1668678581.6725233,64345,1668678581,672343295,,-0.08125294425834272,-0.6129990324360408,0.07107938957033533,0.9955579607607251,0.09353957217943785,-0.004372528088657323,0.009776308124651797
1668678581.6809363,64346,1668678581,680552856,,-0.08103225592047118,-0.612999028383955,0.07108045979907203,0.995557960751523,0.09353957218002797,-0.004372528449314699,0.009776308894779037
1668678581.6888607,64347,1668678581,688651750,,-0.08081002146711377,-0.6129990245022686,0.07108135656650955,0.9955579607422739,0.09353957218061158,-0.004372528811594501,0.009776309669041059
1668678581.6965344,64348,1668678581,696352150,,-0.08058626696043085,-0.6129990207888694,0.07108181616045602,0.9955579607329805,0.09353957218118897,-0.004372529175391056,0.009776310447189998
1668678581.7047865,64349,1668678581,704594626,,-0.08036101844454982,-0.6129990172419335,0.07108165130629364,0.9955579607236458,0.09353957218176027,-0.004372529540596752,0.009776311228973013
1668678581.7127519,64350,1668678581,712441410,,-0.0801343010257273,-0.612999013862035,0.07108086928165816,0.9955579607142726,0.093539572182326,-0.004372529907105544,0.009776312014141711
1668678581.72069,64351,1668678581,720519736,,-0.07990613863979598,-0.6129990106516324,0.07107955443560882,0.9955579607048637,0.0935395721828864,-0.004372530274814634,0.009776312802454647
1668678581.7286887,64352,1668678581,728482674,,-0.07967655355805114,-0.6129990076116703,0.07107776950205776,0.9955579606954219,0.09353957218344183,-0.0043725306436259445,0.009776313593680329
1668678581.7366362,64353,1668678581,736443482,,-0.07944556619197779,-0.6129990047425026,0.07107558561952208,0.9955579606859496,0.09353957218399252,-0.0043725310134475025,0.009776314387602193
1668678581.7445457,64354,1668678581,744284142,,-0.07921319545548805,-0.6129990020435856,0.07107307048730006,0.9955579606764493,0.0935395721845387,-0.004372531384192324,0.009776315184014216
1668678581.7526891,64355,1668678581,752470651,,-0.07897945881077864,-0.6129989995134264,0.0710702746741861,0.9955579606669231,0.09353957218508077,-0.0043725317557783035,0.009776315982721013
1668678581.7605786,64356,1668678581,760446987,,-0.07874437227167251,-0.6129989971491941,0.07106723613629928,0.9955579606573732,0.0935395721856188,-0.004372532128128089,0.009776316783538463
1668678581.7684224,64357,1668678581,768288286,,-0.07850795044748196,-0.6129989949467192,0.07106395178028992,0.9955579606478016,0.09353957218615307,-0.004372532501169263,0.009776317586293324
1668678581.7769866,64358,1668678581,776741368,,-0.07827020666610053,-0.6129989929008676,0.0710604456958504,0.9955579606382101,0.09353957218668389,-0.004372532874834063,0.009776318390822611
1668678581.7844727,64359,1668678581,784334008,,-0.07803115304332299,-0.6129989910087719,0.07105679852644278,0.9955579606286006,0.09353957218721154,-0.004372533249058759,0.009776319196972966
1668678581.7920964,64360,1668678581,791998961,,-0.0777908005514133,-0.6129989892649725,0.07105301296353199,0.9955579606189746,0.09353957218773626,-0.00437253362378427,0.00977632000460061
1668678581.800414,64361,1668678581,800302500,,-0.07754915908989952,-0.6129989876620506,0.0710490722673815,0.9955579606093338,0.09353957218825835,-0.004372533998954979,0.009776320813570404
1668678581.8088136,64362,1668678581,808545886,,-0.07730623755190785,-0.6129989861935393,0.07104497791817067,0.9955579605996795,0.0935395721887777,-0.004372534374519498,0.009776321623755862
1668678581.8163705,64363,1668678581,816218366,,-0.07706204388689424,-0.6129989848504306,0.0710406475358338,0.9955579605900131,0.0935395721892947,-0.004372534750429945,0.009776322435038825
1668678581.8245819,64364,1668678581,824421873,,-0.07681658516468418,-0.612998983621404,0.07103596527440728,0.995557960580336,0.0935395721898097,-0.004372535126641851,0.009776323247308255
1668678581.832239,64365,1668678581,832118730,,-0.07656986763553993,-0.612998982497228,0.07103087802188963,0.9955579605706492,0.09353957219032298,-0.004372535503113797,0.009776324060460874
1668678581.8408782,64366,1668678581,840606416,,-0.07632189678619256,-0.6129989814709051,0.07102539665326178,0.9955579605609538,0.0935395721908344,-0.004372535879807921,0.009776324874400312
1668678581.8493812,64367,1668678581,849051451,,-0.07607267739210768,-0.6129989805354734,0.07101950459760312,0.9955579605512509,0.09353957219134457,-0.004372536256688818,0.009776325689036185
1668678581.856411,64368,1668678581,856291651,,-0.07582221356713627,-0.6129989796818638,0.07101316152019577,0.9955579605415414,0.09353957219185358,-0.004372536633723984,0.009776326504284652
1668678581.865543,64369,1668678581,865420159,,-0.07557050881280135,-0.6129989789033107,0.07100637601271598,0.9955579605318263,0.09353957219236111,-0.004372537010883653,0.00977632732006747
1668678581.8731344,64370,1668678581,872812141,,-0.075317566062831,-0.6129989781931916,0.07099914688344554,0.9955579605221062,0.09353957219286807,-0.004372537388140229,0.009776328136311963
1668678581.8813918,64371,1668678581,881264817,,-0.07506338772588958,-0.6129989775448177,0.07099148758170219,0.9955579605123821,0.09353957219337455,-0.004372537765468872,0.00977632895295057
1668678581.8893175,64372,1668678581,889110984,,-0.074807975726578,-0.6129989769532033,0.070983428184703,0.9955579605026545,0.09353957219388047,-0.0043725381428463645,0.009776329769920506
1668678581.8971622,64373,1668678581,897019912,,-0.07455133154317721,-0.6129989764134506,0.07097501544441304,0.9955579604929241,0.09353957219438616,-0.004372538520251912,0.009776330587163349
1668678581.9051049,64374,1668678581,904845364,,-0.07429346969071167,-0.6129989759309971,0.07096640002389129,0.9955579604831926,0.09353957219489158,-0.004372538897628358,0.00977633140453966
1668678581.9122486,64375,1668678581,912060555,,-0.07403441042809003,-0.6129989755215314,0.07095774927707171,0.9955579604734629,0.09353957219539753,-0.0043725392748644905,0.009776332221789022
1668678581.9205732,64376,1668678581,920456042,,-0.07377415861258294,-0.6129989751852798,0.07094912951579047,0.9955579604637362,0.09353957219590388,-0.00437253965191437,0.00977633303879709
1668678581.9286966,64377,1668678581,928457663,,-0.07351298064288822,-0.6129989750316106,0.07094065816898537,0.9955579604540333,0.09353957219641175,-0.004372540028000734,0.009776333853813251
