Time,header.seq,header.stamp.secs,header.stamp.nsecs,header.frame_id,twist.linear.x,twist.linear.y,twist.linear.z,twist.angular.x,twist.angular.y,twist.angular.z
1668678579.416807,64063,1668678579,416365517,,-5.236267692302095e-05,1.2846922815512634e-09,0.00012189286800622316,1.576379310477837e-07,-5.7677571974446556e-08,-7.57963240172947e-10
1668678579.424464,64064,1668678579,424318010,,-6.1801896440848e-05,1.20512242227278e-09,9.806256803895608e-05,1.5676476492010289e-07,-5.7080977879433416e-08,-7.51145527789804e-10
1668678579.4321117,64065,1668678579,431986264,,-6.068472515143953e-05,1.117434543749158e-09,6.771048232519523e-05,1.5587882619286e-07,-5.648190022026816e-08,-7.442857417758403e-10
1668678579.441231,64066,1668678579,440985357,,-5.953610935654093e-05,1.0602986168165673e-09,3.9623067495383e-05,1.5497996617542694e-07,-5.588034721835888e-08,-7.373851257787105e-10
1668678579.4491138,64067,1668678579,448963104,,-5.3234751865192304e-05,1.016159670909416e-09,5.2216502580359024e-06,1.5406858145468728e-07,-5.52764595671781e-08,-7.30444872054886e-10
1668678579.4563766,64068,1668678579,456270506,,-6.374586700531122e-05,1.0191406660832088e-09,-1.9663475784525735e-05,1.5314412137573643e-07,-5.4670144361098396e-08,-7.234662559513824e-10
1668678579.4645464,64069,1668678579,464391504,,-8.198365701580495e-05,1.0436270048839267e-09,-3.894302843691014e-05,1.5220698509292495e-07,-5.406152830513836e-08,-7.164504556029377e-10
1668678579.472465,64070,1668678579,472280556,,-9.959318528316092e-05,1.0833300484933321e-09,-6.229668152317439e-05,1.512576417607619e-07,-5.3450764733570036e-08,-7.093986405519882e-10
1668678579.4805462,64071,1668678579,480410338,,-0.0001156148580390036,1.1298527786871924e-09,-8.368218753354235e-05,1.5029639363325624e-07,-5.283797429408481e-08,-7.023119918741702e-10
1668678579.488617,64072,1668678579,488441420,,-0.0001306273614371985,1.1866458440157949e-09,-0.0001062079970071206,1.493234603238465e-07,-5.222325412897175e-08,-6.951916943585129e-10
1668678579.4966655,64073,1668678579,496451588,,-0.0001289753488218729,1.1565301097222024e-09,-0.00010914808847695508,1.483403559620277e-07,-5.1607089176928505e-08,-6.88038799897964e-10
1668678579.504866,64074,1668678579,504621372,,-0.00011914653090084079,1.1227040115353818e-09,-0.00011777841524619107,1.4734668068805797e-07,-5.098939156153305e-08,-6.808545460821984e-10
1668678579.5121856,64075,1668678579,512069392,,-0.00010559867414470546,1.0923562687592453e-09,-0.00012871377926665484,1.463422229868307e-07,-5.0370123485803164e-08,-6.736401379748257e-10
1668678579.5204678,64076,1668678579,520354167,,-9.291297923462565e-05,1.0669999560819146e-09,-0.00013853119712023675,1.453268449465196e-07,-4.9749271551907856e-08,-6.663967727518847e-10
1668678579.5290575,64077,1668678579,528889124,,-8.275305411353964e-05,1.0659874059479238e-09,-0.0001524569267187314,1.4430069667917995e-07,-4.912691022926226e-08,-6.591256061999964e-10
1668678579.5368834,64078,1668678579,536685866,,-8.729172578189269e-05,1.0971916721559156e-09,-0.0001677839323711487,1.4326343944538878e-07,-4.850297919210151e-08,-6.518278566371421e-10
1668678579.5441916,64079,1668678579,544030996,,-9.875654704913806e-05,1.1413799785818373e-09,-0.00018305735019363706,1.4221567626639694e-07,-4.787767611688622e-08,-6.445046234172195e-10
1668678579.5524917,64080,1668678579,552259494,,-0.00010912068265237117,1.1784708785542446e-09,-0.00019676285803597627,1.4115801700373635e-07,-4.725120073719349e-08,-6.371570085775269e-10
1668678579.560365,64081,1668678579,560266614,,-0.00010526035993673728,1.1650814454110717e-09,-0.00020587777258960086,1.400915733230649e-07,-4.6623908517676486e-08,-6.297860591863123e-10
1668678579.568995,64082,1668678579,568703318,,-9.451872540650455e-05,1.1262683310139192e-09,-0.0002122518692325334,1.3901606905808318e-07,-4.5995745057693305e-08,-6.223929587044572e-10
1668678579.576786,64083,1668678579,576463265,,-0.00010151940352225173,1.1121437740581556e-09,-0.00021690136669357725,1.379302378309233e-07,-4.5366368776573354e-08,-6.149789637764896e-10
1668678579.58417,64084,1668678579,584027496,,-0.00011202775542663665,9.463661913642387e-10,-0.0001905687001516882,1.3683511281933751e-07,-4.473610324937874e-08,-6.075451178385802e-10
1668678579.5927582,64085,1668678579,592627397,,-0.00012148480764715151,8.165444043601417e-10,-0.00016594074923551358,1.3573117347077089e-07,-4.410511304399441e-08,-6.000925017860849e-10
1668678579.6010551,64086,1668678579,600890121,,-0.0001322743542518174,6.65717686093333e-10,-0.00012698151439468532,1.346184657189621e-07,-4.3473435398908444e-08,-5.926222306938331e-10
1668678579.6085932,64087,1668678579,608412102,,-0.00013888029107735593,5.881897606994346e-10,-0.0001012060626328679,1.3349763514346226e-07,-4.2841288159214764e-08,-5.851353643694483e-10
1668678579.6175165,64088,1668678579,617360091,,-0.00013130160384878874,5.251203986758129e-10,-8.963758306487677e-05,1.323697659920182e-07,-4.2209025789202e-08,-5.776329010649759e-10
1668678579.6253448,64089,1668678579,625111191,,-0.00011697906448895834,4.687341885235392e-10,-8.535284955342207e-05,1.3123437252834217e-07,-4.15765189793144e-08,-5.701159883813103e-10
1668678579.6332414,64090,1668678579,632840768,,-9.98096335089584e-05,4.37730729302981e-10,-9.237208712828769e-05,1.3009125170063977e-07,-4.094372333889894e-08,-5.625857463535059e-10
1668678579.6410904,64091,1668678579,640933265,,-8.379993816436672e-05,4.15806581742714e-10,-9.865449442086319e-05,1.2894031322778935e-07,-4.031063212389454e-08,-5.550432758262384e-10
1668678579.6485894,64092,1668678579,648404277,,-6.690703797879326e-05,4.1306277248644056e-10,-0.00011014463154469017,1.2778189036883883e-07,-3.9677365210078325e-08,-5.474896284756153e-10
1668678579.656584,64093,1668678579,656473128,,-7.977004796993798e-05,4.396827635482309e-10,-0.00011631946593250294,1.2661495257878398e-07,-3.9043665953534494e-08,-5.399259790889004e-10
1668678579.6649516,64094,1668678579,664684635,,-8.616199809125506e-05,4.582876849984749e-10,-0.00012291682716286765,1.254413071377585e-07,-3.841006138150056e-08,-5.323532190700149e-10
1668678579.6723106,64095,1668678579,672106327,,-8.908126537550454e-05,4.70101965121278e-10,-0.00012935739154574242,1.2426108192275132e-07,-3.777661445664601e-08,-5.247724041337193e-10
1668678579.6805525,64096,1668678579,680361102,,-9.159414816490242e-05,4.780742160879102e-10,-0.0001350338913390675,1.2307433480089062e-07,-3.714336380485187e-08,-5.17184579559328e-10
1668678579.688531,64097,1668678579,688359614,,-8.777056008927147e-05,4.482798546219416e-10,-0.0001327415297670446,1.2188159633136776e-07,-3.6510484802206597e-08,-5.095907377170895e-10
1668678579.6969597,64098,1668678579,696658911,,-7.619807408433986e-05,4.207148095733881e-10,-0.00013422389439406138,1.2068309984254755e-07,-3.587806370716207e-08,-5.019918944095718e-10
1668678579.7046628,64099,1668678579,704451910,,-6.122165501671692e-05,3.986636163876453e-10,-0.00013738736895789922,1.1947872586170863e-07,-3.524608119013505e-08,-4.943890924495294e-10
1668678579.7123785,64100,1668678579,712265287,,-4.510261594791409e-05,3.7037002171824327e-10,-0.00013733196887996864,1.1826851809751312e-07,-3.461456721425811e-08,-4.867833561098597e-10
1668678579.7204914,64101,1668678579,720351001,,-3.016823288449714e-05,3.4849676587535814e-10,-0.00013701004410657589,1.1705259605209353e-07,-3.3983576926056614e-08,-4.791756892126965e-10
1668678579.7286696,64102,1668678579,728485765,,-1.5187640686947274e-05,3.264689313691693e-10,-0.00013503134485096379,1.1583120844435763e-07,-3.335320007799747e-08,-4.715670774197876e-10
1668678579.7367084,64103,1668678579,736561788,,-7.434842753799764e-07,2.827131230836259e-10,-0.00012465957964336437,1.1460455153017337e-07,-3.272351270630982e-08,-4.6395849390930873e-10
1668678579.7453287,64104,1668678579,745086230,,1.2887453492484391e-05,2.711083815103878e-10,-0.0001219305861352936,1.1337283924781676e-07,-3.209459567188767e-08,-4.563509201468063e-10
1668678579.7525094,64105,1668678579,752200143,,2.5588735021136515e-05,2.7457092830984054e-10,-0.00012294713281286353,1.1213629072322049e-07,-3.146653080893972e-08,-4.487453160459203e-10
1668678579.7612708,64106,1668678579,760967451,,3.7235964016422684e-05,2.786490943027728e-10,-0.0001236408318767798,1.1089512628410302e-07,-3.083939998340977e-08,-4.411426416354872e-10
1668678579.7685876,64107,1668678579,768397233,,4.7980869032326404e-05,2.781048055726564e-10,-0.00012254328880659333,1.096495596713695e-07,-3.0213281814249114e-08,-4.3354383989357027e-10
1668678579.7764993,64108,1668678579,776286266,,3.78343141779978e-05,2.419703548595067e-10,-0.00011638702814288305,1.0840036072725023e-07,-2.958848803684536e-08,-4.259497973790622e-10
1668678579.785428,64109,1668678579,785253347,,1.7815524084155327e-05,1.9842591033670667e-10,-0.00010790799929223286,1.0714729689031955e-07,-2.8964919286320925e-08,-4.183614933027076e-10
1668678579.7925413,64110,1668678579,792258758,,1.8466870661141251e-06,1.6644949188916255e-10,-9.852846459630769e-05,1.0589021282855759e-07,-2.8342497102264048e-08,-4.107798858137769e-10
1668678579.8003693,64111,1668678579,800263528,,-1.2864035313726973e-05,1.4528977515916354e-10,-8.96956815070373e-05,1.046294067035026e-07,-2.7721334101453485e-08,-4.032058813925306e-10
1668678579.8084674,64112,1668678579,808282546,,-2.5083229484291274e-05,1.3065387823281214e-10,-8.067317914100825e-05,1.0336511905723019e-07,-2.7101514110312817e-08,-3.956403865209234e-10
1668678579.8165092,64113,1668678579,816361085,,-3.9723702696394554e-05,1.1780719411074478e-10,-6.846217869466414e-05,1.0209749534333974e-07,-2.6483101377087933e-08,-3.8808429835338314e-10
1668678579.825036,64114,1668678579,824793159,,-3.886999147472123e-05,9.877961257563679e-11,-5.460732546190974e-05,1.0082715178367332e-07,-2.5866271625782203e-08,-3.8053847370439356e-10
1668678579.8323965,64115,1668678579,832248783,,-3.046292366962707e-05,8.039470715976421e-11,-4.0430280299641425e-05,9.955414766533932e-08,-2.5251066368831967e-08,-3.730038053941149e-10
1668678579.840518,64116,1668678579,840341973,,-2.2660036121420054e-05,7.055976471258426e-11,-2.7293661687370018e-05,9.827845167275507e-08,-2.4637495462453526e-08,-3.654811962715775e-10
1668678579.8485625,64117,1668678579,848370123,,-1.1437547473236573e-05,6.986577059822741e-11,-2.237217821651312e-05,9.700029830829273e-08,-2.4025633350432484e-08,-3.579715077625125e-10
1668678579.857044,64118,1668678579,856853051,,1.032552249060448e-06,7.391008118104655e-11,-2.1206294915010554e-05,9.571980036549771e-08,-2.3415525481424457e-08,-3.504756032564968e-10
1668678579.8645113,64119,1668678579,864372729,,1.3632601829841551e-05,8.158569737025142e-11,-2.1888925603010776e-05,9.443711889268743e-08,-2.2807231010590232e-08,-3.4299433682066283e-10
1668678579.8722987,64120,1668678579,872144157,,2.5801317193656654e-05,8.645582830554524e-11,-1.2316512647904095e-05,9.315243956237208e-08,-2.2200815895586853e-08,-3.3552854190112584e-10
1668678579.8806942,64121,1668678579,880502319,,3.695764185778121e-05,9.523563911372425e-11,-3.4761555681873608e-06,9.186596340392599e-08,-2.159635092509151e-08,-3.280790559470788e-10
1668678579.8891306,64122,1668678579,888870345,,4.747231849382216e-05,1.0710385409867465e-10,1.0033590188634572e-05,9.057788020975251e-08,-2.099390091171915e-08,-3.206467008684717e-10
1668678579.8968081,64123,1668678579,896518355,,5.722802013753864e-05,1.2009898649029115e-10,1.3735261868401087e-05,8.928838346780786e-08,-2.0393532510979706e-08,-3.132322907317296e-10
1668678579.9051113,64124,1668678579,904810467,,6.618754739160764e-05,1.3407492541978119e-10,2.0291866230534523e-05,8.7997664186614e-08,-1.9795311053454386e-08,-3.0583663279313243e-10
1668678579.9121163,64125,1668678579,912004814,,7.435490711099703e-05,1.4875421594990825e-10,2.795448415312981e-05,8.670590999606087e-08,-1.9199300306320745e-08,-2.984605242800902e-10
1668678579.9209492,64126,1668678579,920678663,,8.173026044512959e-05,1.6293565681980848e-10,3.495650710659555e-05,8.54133061407603e-08,-1.8605562911279312e-08,-2.911047442596265e-10
1668678579.9286268,64127,1668678579,928468151,,8.838614283232422e-05,1.7072129586559587e-10,3.500080060666535e-05,8.412003169664415e-08,-1.8014158966920703e-08,-2.8377008132619147e-10
1668678579.936353,64128,1668678579,936260937,,8.942326902995603e-05,1.7459471096070031e-10,4.21853827175783e-05,8.282652885416895e-08,-1.7425245791616268e-08,-2.76457278049853e-10
1668678579.9443347,64129,1668678579,944156362,,8.754821811798065e-05,1.7761262948138208e-10,5.251787337023079e-05,8.153284224406979e-08,-1.6838832453502957e-08,-2.691671022896948e-10
1668678579.9524646,64130,1668678579,952229075,,8.922756775218766e-05,1.801436727247832e-10,5.6459779802390164e-05,8.023880026116082e-08,-1.6254848647583648e-08,-2.619003507174731e-10
1668678579.9604852,64131,1668678579,960296998,,9.05982143549217e-05,1.814265248402723e-10,5.99788484204935e-05,7.894477199277967e-08,-1.567342430701923e-08,-2.546577383645207e-10
1668678579.9685984,64132,1668678579,968428013,,9.35753856781653e-05,1.8067905956343647e-10,6.021118819357794e-05,7.765081957850563e-08,-1.5094575470272676e-08,-2.474400168539937e-10
1668678579.9765313,64133,1668678579,976335164,,9.713456193428171e-05,1.7943043145125286e-10,5.9413300438775294e-05,7.63571583512896e-08,-1.4518374552346775e-08,-2.4024790671955086e-10
1668678579.9849346,64134,1668678579,984641332,,9.566449542539449e-05,1.5721700009412894e-10,4.986202894450882e-05,7.506427355136088e-08,-1.3944991955614343e-08,-2.3308209130671644e-10
1668678579.992218,64135,1668678579,992053439,,9.16813350765715e-05,1.303149027461368e-10,3.635352903812881e-05,7.377217922463697e-08,-1.3374425308519076e-08,-2.2594329315492323e-10
1668678580.000591,64136,1668678580,441052,,8.783204885955974e-05,1.1089373379858157e-10,2.384067510758219e-05,7.248087971588973e-08,-1.2806668769720177e-08,-2.1883222976206394e-10
1668678580.0085337,64137,1668678580,8327683,,7.990033693792934e-05,9.24297115450991e-11,1.7478512070634997e-05,7.119074443205609e-08,-1.2241850067437848e-08,-2.1174956303356487e-10
1668678580.0168962,64138,1668678580,16622796,,7.824693380886848e-05,8.601581909277968e-11,7.4044107561346395e-06,6.990141302997872e-08,-1.1679828362835795e-08,-2.046960375994781e-10
1668678580.024398,64139,1668678580,24194680,,7.964334499392496e-05,8.730250728670223e-11,-4.090497622987e-06,6.86132236842892e-08,-1.1120719196839946e-08,-1.9767230051166013e-10
1668678580.0322611,64140,1668678580,32130853,,8.239844780536067e-05,9.034173554223754e-11,-7.399380197942568e-07,6.732640853328988e-08,-1.0564599417041718e-08,-1.9067900955556903e-10
1668678580.041008,64141,1668678580,40766243,,8.47733197199828e-05,9.27526133712204e-11,2.3473411940066336e-06,6.604120214372714e-08,-1.0011546256220761e-08,-1.83716810617544e-10
1668678580.0491312,64142,1668678580,48877213,,8.765367041593184e-05,9.667191222115827e-11,1.2541951498508443e-05,6.475771255840215e-08,-9.461590184521764e-09,-1.7678634971944954e-10
1668678580.0563912,64143,1668678580,56295790,,9.05887210993063e-05,1.0418589466810655e-10,2.5752416072067855e-05,6.347611185917809e-08,-8.914784889893114e-09,-1.6988826233928396e-10
1668678580.0642715,64144,1668678580,64052170,,9.335400113771057e-05,1.1855939848286227e-10,4.326302001410575e-05,6.219656112841796e-08,-8.371179715441247e-09,-1.6302317368223004e-10
1668678580.0727708,64145,1668678580,72600917,,9.57166369601576e-05,1.3664992227142806e-10,5.930470688664407e-05,6.091922185487888e-08,-7.830823847441064e-09,-1.561916955093636e-10
1668678580.0806816,64146,1668678580,80472145,,9.783120246962628e-05,1.6148861072378075e-10,7.681534246372829e-05,5.96442328271232e-08,-7.293758020603581e-09,-1.4939443689836011e-10
1668678580.0884743,64147,1668678580,88297630,,9.965311710154579e-05,1.7530620977091032e-10,8.661568077593592e-05,5.8371742173923954e-08,-6.760026114315703e-09,-1.4263199800933213e-10
1668678580.0963993,64148,1668678580,96277975,,0.00010117016954601646,1.969395829633757e-10,9.969201377196597e-05,5.710189464643134e-08,-6.22967055597283e-09,-1.359049702474597e-10
1668678580.1044102,64149,1668678580,104277766,,0.00010238665790219323,2.2282722124486215e-10,0.00011378257438834199,5.5834832405924125e-08,-5.702732606676723e-09,-1.2921392794173862e-10
1668678580.112468,64150,1668678580,112187380,,0.00010331503262700929,2.1818660137066193e-10,0.00011663574186957338,5.457069544795949e-08,-5.179252524945794e-09,-1.2255944707457306e-10
1668678580.1205535,64151,1668678580,120397767,,0.00010396625221911495,2.118556104290119e-10,0.0001190333928015128,5.330962220049222e-08,-4.659269783087557e-09,-1.1594209102451687e-10
1668678580.1283565,64152,1668678580,128194316,,0.00010436620835427047,1.889777366469457e-10,0.00011575223871854749,5.205174850596368e-08,-4.14282270716007e-09,-1.0936240650051554e-10
1668678580.1365077,64153,1668678580,136337517,,0.00010453149172718106,1.9166245515851e-10,0.00012112260877093375,5.079720915346346e-08,-3.6299490255943317e-09,-1.0282093958809829e-10
1668678580.1451688,64154,1668678580,144868503,,0.00010447899449756818,1.9458870056830836e-10,0.00012667154874035404,4.954613729839052e-08,-3.120685668590198e-09,-9.631821815819785e-11
1668678580.1524177,64155,1668678580,152283749,,0.00010422533112881283,1.9660247271330938e-10,0.00013200659313798916,4.82986645280855e-08,-2.6150687862022264e-09,-8.98547707051632e-11
1668678580.1603398,64156,1668678580,160235060,,0.00010378611398725064,1.9618707346494057e-10,0.00013665969791978215,4.7054920915094474e-08,-2.113133775980058e-09,-8.343111764603714e-11
1668678580.1687474,64157,1668678580,168582843,,0.00010317728460475683,1.9336531489918112e-10,0.0001406409824073897,4.5815034951230025e-08,-1.6149152585565037e-09,-7.704776394798149e-11
1668678580.1769547,64158,1668678580,176713262,,0.00010241323780690908,1.5079246042586727e-10,0.00013288641099813714,4.4579133675108735e-08,-1.1204471282281155e-09,-7.070520243509376e-11
1668678580.184635,64159,1668678580,184513627,,0.00010150765015150004,9.563763451002908e-11,0.0001195958872374377,4.334734263014092e-08,-6.297625424227568e-10,-6.440392227228912e-11
1668678580.19249,64160,1668678580,192333249,,0.00010047345594953687,8.381955409545794e-11,0.000118921528399594,4.2119785871888147e-08,-1.428939248539527e-10,-5.814440470980689e-11
1668678580.2021155,64161,1668678580,201620410,,9.932278191617435e-05,7.206369762044388e-11,0.00011806586698526987,4.089658597502672e-08,3.4012703278165656e-10,-5.192711562932058e-11
1668678580.2088058,64162,1668678580,208543462,,9.806714003410909e-05,7.849988251418336e-11,0.00012328044401897312,3.967786402223946e-08,8.192693624889925e-10,-4.575252045171778e-11
1668678580.2166667,64163,1668678580,216528714,,9.671728669892879e-05,1.0426540774260446e-10,0.00013471579598025386,3.846373961987523e-08,1.2945028223000677e-09,-3.962107605979398e-11
1668678580.2245362,64164,1668678580,224409511,,9.528331333749819e-05,1.268084930281848e-10,0.00014494708623994358,3.725433089589127e-08,1.7657978848885922e-09,-3.353321711020013e-11
1668678580.2321787,64165,1668678580,232030958,,9.377469080332915e-05,1.4585437273952732e-10,0.00015408991368081462,3.604975447893743e-08,2.2331257458797906e-09,-2.7489378368007397e-11
1668678580.241012,64166,1668678580,240785448,,9.220028834724855e-05,1.6114982905391706e-10,0.0001622063726260118,3.485012552610582e-08,2.6964583138617656e-09,-2.1489987361237445e-11
1668678580.2487009,64167,1668678580,248520697,,7.557454560268279e-05,1.529601650648389e-10,0.00017029302275039105,3.3656326421289053e-08,3.15549828425278e-09,-1.5535385057920993e-11
1668678580.2564838,64168,1668678580,256342309,,6.717432995810369e-05,1.5894786439700232e-10,0.00017762828635365397,3.246719979946149e-08,3.6106644655784263e-09,-9.626095398757896e-12
1668678580.2645104,64169,1668678580,264283272,,6.304112656908519e-05,1.6807909856723402e-10,0.00018416358961161687,3.128315229923969e-08,4.061827625149498e-09,-3.762489966937718e-12
1668678580.2725234,64170,1668678580,272256259,,5.738726651766556e-05,2.063225347240873e-10,0.00019714401248699476,3.010454126673236e-08,4.508874871665854e-09,2.0550638014232847e-12
1668678580.2804627,64171,1668678580,280286453,,5.206693486894827e-05,2.3923639155699187e-10,0.0002087099149763253,2.8931400717296224e-08,4.9518077100807874e-09,7.826183359141078e-12
1668678580.288566,64172,1668678580,288446736,,4.64347350439787e-05,2.8672024900869253e-10,0.00022286029776566428,2.7763859266854502e-08,5.3905943376565105e-09,1.355049415502265e-11
1668678580.2967677,64173,1668678580,296601089,,3.0479651586384418e-05,3.070867340804758e-10,0.00023306544860564075,2.6602252893729136e-08,5.825128500619026e-09,1.922765932745301e-11
1668678580.3049097,64174,1668678580,304607793,,2.517731961716136e-05,3.039834971233214e-10,0.0002378561838894899,2.544615938007485e-08,6.255576023107109e-09,2.4857282939351293e-11
1668678580.3127205,64175,1668678580,312551627,,2.6093011952602288e-05,2.853221140648608e-10,0.00023961635700841638,2.429587841410795e-08,6.681845314623374e-09,3.043903512220652e-11
1668678580.3203878,64176,1668678580,320243647,,2.8637042809196018e-05,2.6456791207911365e-10,0.00024076478041419328,2.3151589093984062e-08,7.103886257434401e-09,3.5972596774990536e-11
1668678580.3285773,64177,1668678580,328422653,,3.543848509133196e-05,2.359443777041489e-10,0.00024007721869822047,2.2013332573456274e-08,7.521698834305929e-09,4.145763338067555e-11
1668678580.3377438,64178,1668678580,337414039,,4.5419227469863854e-05,3.64049923937875e-10,0.0002641736278711779,2.088118587952293e-08,7.93526948855854e-09,4.689382733578766e-11
1668678580.3454301,64179,1668678580,345260184,,5.810632458557207e-05,5.760365130533812e-10,0.0002991585378608288,1.9755206031368423e-08,8.34459193193176e-09,5.228085857029302e-11
1668678580.3525746,64180,1668678580,352320151,,7.333729065520945e-05,7.175773534912234e-10,0.00032293957899572556,1.8635434972527146e-08,8.749665300780206e-09,5.76184221184493e-11
1668678580.3604863,64181,1668678580,360328125,,9.091887132095897e-05,8.469134710512318e-10,0.00034420455289157375,1.7521908677200194e-08,9.150490931769306e-09,6.290622471712137e-11
1668678580.3689332,64182,1668678580,368706020,,0.00011120586850121447,9.286743305246338e-10,0.0003589503499471766,1.6414625353372373e-08,9.547083292108083e-09,6.814397296764883e-11
1668678580.376725,64183,1668678580,376531564,,0.00013424618877676858,1.0867856281762898e-09,0.0003808709447531512,1.531357703581753e-08,9.93945900484142e-09,7.333139049334539e-11
1668678580.3844786,64184,1668678580,384367929,,0.00016011959740680576,1.030723718176039e-09,0.00037875788479415224,1.4218736234335263e-08,1.0327641472650664e-08,7.84682001992408e-11
1668678580.392154,64185,1668678580,391997246,,0.00018891589470013205,8.904450720380286e-10,0.0003646693745264004,1.3130054973323756e-08,1.0711661199781626e-08,8.355413035716561e-11
1668678580.4008236,64186,1668678580,400553537,,0.000220708962470985,7.9646793117172e-10,0.0003509746988711391,1.204746592348251e-08,1.1091555390023684e-08,8.858891392812471e-11
1668678580.4085503,64187,1668678580,408353211,,0.0002556029236654439,6.104975357495673e-10,0.00032046303224430764,1.0970875891056104e-08,1.1467370173638179e-08,9.357230040720615e-11
1668678580.4166129,64188,1668678580,416405227,,0.0002936661782345312,4.792383327983801e-10,0.00028653586275949084,9.900172404159539e-09,1.1839158355552663e-08,9.850404064475071e-11
1668678580.4246175,64189,1668678580,424405039,,0.0003349586244289264,4.326355274955706e-10,0.00025196600267250686,8.835221009100092e-09,1.2206980333460756e-08,1.0338388760529338e-10
1668678580.4325373,64190,1668678580,432338140,,0.0003684306682647177,4.885749938763302e-10,0.00023331213570074427,7.778250968094958e-09,1.2570094417202514e-08,1.0821184508354176e-10
1668678580.4405084,64191,1668678580,440344965,,0.0004061210204319338,6.083099612256608e-10,0.00021567194732391177,6.727021693055011e-09,1.2929276708422164e-08,1.1298747397761599e-10
1668678580.4486542,64192,1668678580,448453116,,0.00044210673122158355,7.794403744585236e-10,0.00020623645326965455,5.682865382388576e-09,1.3284090507232165e-08,1.177107077175027e-10
1668678580.4565012,64193,1668678580,456348943,,0.0004907533913820478,1.2090070364888278e-09,0.00022370092606364581,4.641952662629276e-09,1.3635849925400527e-08,1.223809720013111e-10
1668678580.464913,64194,1668678580,464611020,,0.0005475818461426314,1.7209332876629792e-09,0.00023779660285110248,3.6047368425247005e-09,1.3984416224075368e-08,1.2699813087008877e-10
1668678580.4722035,64195,1668678580,472095804,,0.0006102268112320448,2.309764805821042e-09,0.00024949674553566845,2.5713354747184254e-09,1.4329764948170363e-08,1.3156201659775962e-10
1668678580.4807158,64196,1668678580,480582830,,0.000676251939920207,2.9624036350871416e-09,0.00025978024891521226,1.5421566725584918e-09,1.467177348233109e-08,1.3607249593587667e-10
1668678580.488563,64197,1668678580,488429530,,0.0007468346578156533,3.767732594417783e-09,0.00027953181265573884,5.163959264013171e-10,1.5010730391221253e-08,1.4052932970944065e-10
1668678580.4972124,64198,1668678580,496939728,,0.000821305561657175,4.618986540066874e-09,0.00029169694918865956,-5.060954248302401e-10,1.5346702098629247e-08,1.449323571312694e-10
1668678580.5047436,64199,1668678580,504513488,,0.0008993034878026514,5.5366864308769776e-09,0.00029943190802512505,-1.525538751479162e-09,1.5679779829125967e-08,1.4928141080054746e-10
1668678580.512245,64200,1668678580,512054674,,0.0009806279183269641,6.4363218370009896e-09,0.00028937951246325833,-2.5422027826050425e-09,1.6010071002267655e-08,1.5357633611004506e-10
1668678580.5203996,64201,1668678580,520271534,,0.0010650683113308857,7.452122011546505e-09,0.0002795505573174657,-3.5563304728714306e-09,1.633767443524897e-08,1.5781698278934109e-10
1668678580.5289803,64202,1668678580,528734725,,0.001152693087532759,8.539118954672897e-09,0.0002611592813763699,-4.568325963926994e-09,1.6662743689457968e-08,1.6200320208589747e-10
1668678580.5364044,64203,1668678580,536252931,,0.0012198311474252912,9.177002584511132e-09,0.0002377601815030588,-5.561595582884155e-09,1.697967440661538e-08,1.6613645311899794e-10
1668678580.5444312,64204,1668678580,544295802,,0.0012769334535233372,9.615054297494347e-09,0.00021691868565881502,-6.541423241012933e-09,1.7290273636497405e-08,1.7021612288073418e-10
1668678580.5523121,64205,1668678580,552027662,,0.0013321330255859011,1.0035466821227506e-08,0.00019792492960861593,-7.513091903091793e-09,1.7596347952251415e-08,1.7424161592727305e-10
1668678580.561587,64206,1668678580,561266006,,0.0013937599802310223,1.0651806727334388e-08,0.00018004150761168338,-8.483146895897918e-09,1.7900131381761158e-08,1.7821223273137288e-10
1668678580.5694513,64207,1668678580,569237745,,0.0013114135516917459,7.546300912002977e-09,0.00021809168368193096,-9.327864544488368e-09,1.8159736813449514e-08,1.8213942029957075e-10
1668678580.5765128,64208,1668678580,576373298,,0.0011336891420552604,2.841224471020112e-09,0.0003087853478705126,-1.0099197690255265e-08,1.8392785709121675e-08,1.8601814858430765e-10
1668678580.5843887,64209,1668678580,584286590,,0.0009223386852565852,-1.112586068133487e-09,0.00042137998730002797,-1.0861802565886094e-08,1.8621199842056257e-08,1.89842321767289e-10
1668678580.5924175,64210,1668678580,592132461,,0.000685688967702556,-3.546106797949297e-09,0.0005626720731909281,-1.1631885505219115e-08,1.8850490128320956e-08,1.9361040028142984e-10
1668678580.6007228,64211,1668678580,600500683,,0.0004817403184334454,-3.981238022148836e-09,0.0006916903613337592,-1.243816718416036e-08,1.9090392998446267e-08,1.9731971156837502e-10
1668678580.6083553,64212,1668678580,608206399,,0.0002795139945939647,-2.9130083138920446e-09,0.0008294787166850674,-1.3261551825010424e-08,1.9334462200042753e-08,2.0097200607253202e-10
1668678580.6163607,64213,1668678580,616255936,,0.00015145292664921816,-2.5934390401062233e-10,0.0009735149807415666,-1.4108529636443745e-08,1.9584888235988478e-08,2.0456665918502925e-10
1668678580.6253502,64214,1668678580,625052428,,5.9623019770158846e-05,2.7920325894219774e-09,0.0011065925631947152,-1.495843168045486e-08,1.9834692672266187e-08,2.0810554976046901e-10
1668678580.632214,64215,1668678580,632008626,,-2.9473414359523744e-06,5.861711529292381e-09,0.0012282005393376913,-1.5804842530585446e-08,2.008171911175175e-08,2.1158924633583583e-10
1668678580.6420038,64216,1668678580,641740812,,-4.327677252239928e-05,8.704864215502455e-09,0.0013377770203490107,-1.6644357269584804e-08,2.0324832390793597e-08,2.1501804260963975e-10
1668678580.6486363,64217,1668678580,648503651,,4.132155071365501e-05,7.878071915230341e-09,0.0013437466050789935,-1.747397490945189e-08,2.0562985148721987e-08,2.1839220793666396e-10
1668678580.6570404,64218,1668678580,656637697,,0.00027510828890395966,5.210830700745387e-09,0.0012796521134811106,-1.831217368978118e-08,2.0802442882876038e-08,2.2171005249803713e-10
1668678580.6643686,64219,1668678580,664238868,,0.0005812857311353944,3.54037126209262e-09,0.0011826734875783214,-1.9193517901290332e-08,2.105497268263087e-08,2.2496841412325552e-10
1668678580.6722798,64220,1668678580,672134188,,0.0009195608945710504,4.553734454934273e-09,0.0010835604476615798,-2.0136394881522133e-08,2.1326843432268206e-08,2.2816565455573146e-10
1668678580.680612,64221,1668678580,680428982,,0.0012485181547198991,7.982577433754012e-09,0.000990141440287874,-2.1130958578135945e-08,2.1614755519641356e-08,2.313027547273805e-10
1668678580.6897044,64222,1668678580,689409396,,0.0015890527796216178,1.389992199888584e-08,0.0008982213123686242,-2.218945265991049e-08,2.1922868232427642e-08,2.3437872432793827e-10
1668678580.6974087,64223,1668678580,697170797,,0.001899975978416399,2.0694785349596827e-08,0.0007984450443191599,-2.327388355795635e-08,2.2238343175668112e-08,2.373971600896918e-10
1668678580.7050152,64224,1668678580,704854100,,0.0021866179450270033,2.7812578107601745e-08,0.000678893099797289,-2.4373934033441525e-08,2.2557701195508105e-08,2.403591431790475e-10
1668678580.712995,64225,1668678580,712852518,,0.002458478735039802,3.559671756314907e-08,0.0005536664443675744,-2.5490174106146087e-08,2.2881151322812882e-08,2.4326477117420087e-10
1668678580.721463,64226,1668678580,721186627,,0.0027251640003613698,4.442642644676532e-08,0.0004372424333002893,-2.663017404223758e-08,2.3211275183162802e-08,2.461135349338117e-10
1668678580.7285266,64227,1668678580,728339462,,0.0030119498617566204,5.561049975859054e-08,0.00034828728207763845,-2.783487906002157e-08,2.356195849348853e-08,2.4890203700195235e-10
1668678580.7363634,64228,1668678580,736253426,,0.003312046007467445,6.855954657095679e-08,0.0002685189202599165,-2.910085646271038e-08,2.393206323969576e-08,2.516309044811593e-10
1668678580.7443957,64229,1668678580,744178319,,0.0036147823799934442,8.253972035372554e-08,0.00019604571007008034,-3.0412232560375044e-08,2.4316237662208085e-08,2.5430186342129124e-10
1668678580.7529275,64230,1668678580,752668876,,0.003909164401947867,9.661458515067072e-08,0.00012891221322845447,-3.174495791194063e-08,2.4706359667858203e-08,2.569173016692128e-10
1668678580.7605033,64231,1668678580,760332224,,0.004184778696952768,1.0973023509671239e-07,6.388150751512528e-05,-3.3068910905103654e-08,2.509224875647223e-08,2.5948003468112546e-10
1668678580.7685316,64232,1668678580,768383568,,0.004448002244996266,1.2215838526202458e-07,2.2755640027930413e-06,-3.439123464169544e-08,2.547634398244753e-08,2.619896790831411e-10
1668678580.776774,64233,1668678580,776437207,,0.004714471201662631,1.350063792391052e-07,-2.5216254259847596e-05,-3.5748929691011456e-08,2.587119829965904e-08,2.644434688586772e-10
1668678580.7850578,64234,1668678580,784765535,,0.004984059444290557,1.4827087693231073e-07,-4.3012862357700366e-05,-3.714273174713656e-08,2.627708462540207e-08,2.668417370746412e-10
1668678580.7927256,64235,1668678580,792563377,,0.0052520229615890274,1.6146142546245153e-07,-5.537442899355607e-05,-3.855910786461559e-08,2.6689443295913528e-08,2.691859651848816e-10
1668678580.8008513,64236,1668678580,800558543,,0.00551345841995765,1.7402238644746143e-07,-6.665004611019919e-05,-3.998108931040957e-08,2.7102550112436275e-08,2.714778575552135e-10
1668678580.8085408,64237,1668678580,808404662,,0.005769911169340967,1.8611140042794051e-07,-8.613189185120625e-05,-4.1410633699036034e-08,2.7517090430740927e-08,2.7371757985172884e-10
1668678580.8169234,64238,1668678580,816623741,,0.006022531119739796,1.9774777665463183e-07,-0.00010448280675489769,-4.2849288305708486e-08,2.7933610944052027e-08,2.759053766704378e-10
1668678580.8246157,64239,1668678580,824334575,,0.006270546410909189,2.0878786426557547e-07,-0.00012146371253668533,-4.4292232803617776e-08,2.835050178716077e-08,2.78041957513242e-10
1668678580.8321698,64240,1668678580,832015620,,0.006500855509916009,2.1775061585885507e-07,-0.0001634203248740894,-4.5687060588425646e-08,2.8750034274604118e-08,2.8013136775528746e-10
1668678580.8405194,64241,1668678580,840362513,,0.006727067679069846,2.26117083175771e-07,-0.00020173944139944267,-4.708049974115852e-08,2.9148054087865588e-08,2.821704710165296e-10
1668678580.8488035,64242,1668678580,848575412,,0.006942865094650862,2.3315240026258836e-07,-0.0002507130285430784,-4.844487069232382e-08,2.953520751938516e-08,2.841614339665899e-10
1668678580.856775,64243,1668678580,856551061,,0.007137394164007659,2.3670185256847374e-07,-0.00026079954973914655,-4.973044709373324e-08,2.989467050396413e-08,2.8610763584679955e-10
1668678580.8645346,64244,1668678580,864331406,,0.007348576287510331,2.4262363203702935e-07,-0.00026725763240517176,-5.109431998376573e-08,3.027966714451609e-08,2.879991158749595e-10
1668678580.8723755,64245,1668678580,872152128,,0.007566492523789823,2.4946638656594166e-07,-0.0002714885816183569,-5.2497655073582166e-08,3.067707315851007e-08,2.898390520644778e-10
1668678580.8808844,64246,1668678580,880657405,,0.007781104036867544,2.5571166582424073e-07,-0.00027484970798961623,-5.389646384417845e-08,3.107201507820002e-08,2.9163063110237974e-10
1668678580.8884363,64247,1668678580,888314468,,0.007997715123948673,2.6232422151666844e-07,-0.0002875924627297539,-5.531438740627079e-08,3.147252248273053e-08,2.9337288501296577e-10
1668678580.8966017,64248,1668678580,896421933,,0.008185030863409555,2.6416265155496824e-07,-0.0003033744053092255,-5.660020597366799e-08,3.182739923831635e-08,2.950744613927636e-10
1668678580.9043703,64249,1668678580,904271057,,0.008357642157516635,2.6363615639525594e-07,-0.00031974710583996624,-5.781692309666359e-08,3.215799324193195e-08,2.967315976265539e-10
1668678580.9127965,64250,1668678580,912549603,,0.008516559874554967,2.609287625119484e-07,-0.00033532155562165185,-5.896543491264281e-08,3.246462193002989e-08,2.983441254461594e-10
1668678580.9206507,64251,1668678580,920449144,,0.008676870935328675,2.5864727109357115e-07,-0.0003490039921265482,-6.011970238349942e-08,3.2772350386407745e-08,2.9990846611704924e-10
1668678580.9285553,64252,1668678580,928385278,,0.008831124154981497,2.5548712588653647e-07,-0.0003615256166283357,-6.124092962095146e-08,3.306805996920476e-08,3.014267481449284e-10
1668678580.937323,64253,1668678580,937044564,,0.008990098334608594,2.5357105177340833e-07,-0.00038454169508161435,-6.238496793749249e-08,3.3370685404441117e-08,3.0289677016570593e-10
1668678580.9455218,64254,1668678580,945196702,,0.009168630720754632,2.554405417726023e-07,-0.00041181129659100956,-6.363339784292614e-08,3.370788284124326e-08,3.043158867260809e-10
1668678580.9525208,64255,1668678580,952346956,,0.009356752493515674,2.591051252678885e-07,-0.0004397306662132305,-6.493617789891991e-08,3.406273740245167e-08,3.056871613477119e-10
1668678580.9605052,64256,1668678580,960362882,,0.009544208414767079,2.625236134023437e-07,-0.0004645766589150745,-6.623793418077638e-08,3.4416522490103053e-08,3.0701331407700927e-10
1668678580.9685023,64257,1668678580,968377347,,0.009723401465342289,2.6419678503027744e-07,-0.00048432230017000867,-6.749449113492665e-08,3.4754297669023666e-08,3.082961715777932e-10
1668678580.9770353,64258,1668678580,976692924,,0.00992347901662743,2.6988925956794565e-07,-0.0005006356779755951,-6.887461112176671e-08,3.5133239605447154e-08,3.095310067285917e-10
1668678580.9844003,64259,1668678580,984283462,,0.010132977745353138,2.772378765725618e-07,-0.000514177233421055,-7.031573737072833e-08,3.553219908553713e-08,3.1072092815387364e-10
1668678580.9921489,64260,1668678580,991983604,,0.010345935778279991,2.853297778231429e-07,-0.0005404548088518221,-7.178419409355219e-08,3.593980132525791e-08,3.118677330271602e-10
1668678581.0002992,64261,1668678581,174982,,0.01055621483215636,2.925280582948622e-07,-0.0005635900463677416,-7.324249781487607e-08,3.6343377675927303e-08,3.1297290800647026e-10
1668678581.0088935,64262,1668678581,8673239,,0.01076707288260313,2.997268341597269e-07,-0.0005916268804202557,-7.47103434405082e-08,3.674962055906462e-08,3.140365779918941e-10
1668678581.0164106,64263,1668678581,16220972,,0.010898213303863617,2.8848316826566903e-07,-0.0005779909361090815,-7.566610431619723e-08,3.69818814992544e-08,3.150665145446041e-10
1668678581.0243287,64264,1668678581,24137064,,0.010995540884582416,2.7000539813622625e-07,-0.0005407903911826559,-7.639357122251841e-08,3.713622476566626e-08,3.160554283565542e-10
1668678581.0326643,64265,1668678581,32415024,,0.011099560819098412,2.541873787925658e-07,-0.0005054624170618169,-7.715555039163817e-08,3.730164723609285e-08,3.1699964181397533e-10
1668678581.0409248,64266,1668678581,40665179,,0.011190098708191605,2.3615411975593666e-07,-0.0004594608432680568,-7.781838918078396e-08,3.7432906980269104e-08,3.179005045317318e-10
1668678581.048598,64267,1668678581,48421589,,0.011317321562533797,2.2794195916921016e-07,-0.0004360911654961339,-7.871788550341133e-08,3.7643741164039395e-08,3.187570693508057e-10
1668678581.0566978,64268,1668678581,56502589,,0.011476234307093592,2.274278553582733e-07,-0.0004122334006802639,-7.982617198252161e-08,3.7924768501779085e-08,3.195720008064562e-10
1668678581.0644403,64269,1668678581,64300040,,0.011651810643466144,2.308573852283099e-07,-0.00038863310425579523,-8.104625795471638e-08,3.824319302344692e-08,3.203473250557032e-10
1668678581.073089,64270,1668678581,72809170,,0.011769787290870201,2.2078918145660915e-07,-0.00036578077706623965,-8.18606869984527e-08,3.8423797019614906e-08,3.210801659270235e-10
1668678581.0807834,64271,1668678581,80478752,,0.011893565307784097,2.127559866028335e-07,-0.0003440125638459433,-8.27078548640964e-08,3.8615015616723716e-08,3.217722373272114e-10
1668678581.0887022,64272,1668678581,88496374,,0.011991731625051445,1.9919862404111656e-07,-0.00032310778217982877,-8.336394828462848e-08,3.874107158750688e-08,3.2242088512934863e-10
1668678581.096914,64273,1668678581,96667612,,0.012080729396031562,1.8403223354194064e-07,-0.0002847611458213189,-8.394408819171659e-08,3.88409432311226e-08,3.230268032228256e-10
1668678581.1056466,64274,1668678581,105369471,,0.012152955958235678,1.6586146749544183e-07,-0.00024625276113049264,-8.43921453683096e-08,3.8895627145962494e-08,3.2358838178425664e-10
1668678581.1125531,64275,1668678581,112372936,,0.012221880912417948,1.4816106872320433e-07,-0.00020892477708262802,-8.480505053661816e-08,3.893794940027905e-08,3.241072306370274e-10
1668678581.1214113,64276,1668678581,121178834,,0.012301474312852806,1.3432696944197727e-07,-0.00017413408062837442,-8.528513558342171e-08,3.90025815790113e-08,3.245863473833044e-10
1668678581.1292706,64277,1668678581,129022554,,0.012424736554257456,1.3183993372885082e-07,-0.0001146773437322854,-8.607759755124042e-08,3.917259935518188e-08,3.2503489136304076e-10
1668678581.1378608,64278,1668678581,137510777,,0.012540268773998524,1.272972575735207e-07,-1.521287367955147e-05,-8.680433026588279e-08,3.9320017086307436e-08,3.2544298159131735e-10
1668678581.1445363,64279,1668678581,144360418,,0.012655652970869676,1.2319064537139765e-07,9.996364327720249e-05,-8.752135551980556e-08,3.9463817015519907e-08,3.258126303473663e-10
1668678581.1527786,64280,1668678581,152501051,,0.01274439506749016,1.1309354908964983e-07,0.0002068265932812192,-8.802688449092034e-08,3.9535674425895603e-08,3.2613550748905595e-10
1668678581.1605854,64281,1668678581,160410241,,0.01284308605249741,1.0655591123300382e-07,0.00030483809972829554,-8.859835085443563e-08,3.9629533493874304e-08,3.2642281239114723e-10
1668678581.168874,64282,1668678581,168636770,,0.0129329841217966,9.85176480999212e-08,0.00039503045728580345,-8.909210236996627e-08,3.969677249095931e-08,3.266684943381559e-10
1668678581.1765327,64283,1668678581,176387836,,0.013008826532624678,8.767930183448529e-08,0.0004928155434817936,-8.94663072406154e-08,3.972322867314788e-08,3.2686989573371683e-10
1668678581.18418,64284,1668678581,183995569,,0.013098292983515891,8.134837607255251e-08,0.0005782504937611289,-8.99363313809653e-08,3.978183989470979e-08,3.2703865657235376e-10
1668678581.1927128,64285,1668678581,192539799,,0.013198449643255339,7.843248033702826e-08,0.0006557943618459211,-9.048043186056184e-08,3.9865278543440956e-08,3.2717498155143687e-10
1668678581.2010932,64286,1668678581,200891610,,0.013309703407842512,7.878097187490826e-08,0.0007239823980535078,-9.110313767821728e-08,3.997511108949376e-08,3.2728048396379883e-10
1668678581.2083225,64287,1668678581,208211190,,0.013368713372300238,6.564393341545448e-08,0.000806470523034164,-9.129858192556488e-08,3.994004274591968e-08,3.273215865018386e-10
1668678581.2166693,64288,1668678581,216492835,,0.013397078540035969,4.570824557645355e-08,0.0009033529960940698,-9.123700552240879e-08,3.981766908653676e-08,3.2730633481303784e-10
1668678581.2247143,64289,1668678581,224408628,,0.013418433335485518,2.5687355285789966e-08,0.0010027140657410394,-9.110843660943297e-08,3.9672318343539174e-08,3.27246823389471e-10
1668678581.2343981,64290,1668678581,232378095,,0.013468051366207028,1.4658874182934392e-08,0.0010837939016515791,-9.119729566770094e-08,3.960032406299333e-08,3.2716565220858307e-10
1668678581.240691,64291,1668678581,240465724,,0.013533015400193466,8.623049509930144e-09,0.001156329479884947,-9.139966155894351e-08,3.956654890459625e-08,3.2705698566060093e-10
1668678581.2491164,64292,1668678581,248899717,,0.013618088519204386,8.407362238480527e-09,0.0012163507126532135,-9.175523440712696e-08,3.958447814900266e-08,3.2692612506046714e-10
1668678581.2566433,64293,1668678581,256428369,,0.013764141982420259,2.4694511805468998e-08,0.0012668412710150013,-9.260170978986153e-08,3.976853151351151e-08,3.268064256711778e-10
1668678581.264562,64294,1668678581,264323818,,0.013948183253962384,5.027662627409956e-08,0.0013058368220273443,-9.375901786532435e-08,4.005783508966975e-08,3.2668690669312994e-10
1668678581.2724833,64295,1668678581,272364851,,0.014137487836612218,7.578673079486263e-08,0.0013391753158325179,-9.496049009264209e-08,4.03621529915482e-08,3.265452040712713e-10
1668678581.2817883,64296,1668678581,281492159,,0.014347384874795439,1.0548795818461204e-07,0.001364595090278712,-9.633873604262709e-08,4.0726427307229574e-08,3.263963370414569e-10
1668678581.2893207,64297,1668678581,289105514,,0.014588101128274676,1.4175670833990997e-07,0.001364585221469781,-9.798902162139146e-08,4.118297909302699e-08,3.2625345480763457e-10
1668678581.2978544,64298,1668678581,297375592,,0.014866082279034774,1.8667096227408545e-07,0.0013548235724893287,-9.997948075820629e-08,4.175496078892083e-08,3.2612836042833493e-10
1668678581.3046107,64299,1668678581,304455554,,0.015160972287934223,2.3412352266318172e-07,0.001339435174979295,-1.0214160233256819e-07,4.2385395424568775e-08,3.2600662794313173e-10
1668678581.3121986,64300,1668678581,312106642,,0.015448824824875198,2.7676107425574823e-07,0.0013130176288054776,-1.0426193049951796e-07,4.300205363886103e-08,3.2586563655789824e-10
1668678581.3210979,64301,1668678581,320945771,,0.015732997415361688,3.1603238142653155e-07,0.0012860974110180967,-1.0636840841541642e-07,4.361441782057586e-08,3.2570934491160664e-10
1668678581.3294573,64302,1668678581,329185550,,0.016011998502128737,3.5150094576898604e-07,0.0012536873204201902,-1.0844475312754846e-07,4.421699786850107e-08,3.2553646583943774e-10
1668678581.3370695,64303,1668678581,336871092,,0.016305067118940364,3.893940567810219e-07,0.0012113383846591248,-1.1067562371097303e-07,4.487235157643425e-08,3.2537236793750424e-10
1668678581.3454664,64304,1668678581,345317466,,0.01662215036699158,4.3324114499521263e-07,0.0011754222343132482,-1.131657500584441e-07,4.561600825553087e-08,3.252347800797306e-10
1668678581.3527966,64305,1668678581,352551210,,0.01694762581324308,4.776776837295579e-07,0.0011429368939757146,-1.1576841297129522e-07,4.6398367573485984e-08,3.2510743402935915e-10
1668678581.361588,64306,1668678581,361341317,,0.017265332913709526,5.172037029539659e-07,0.0011107638531152326,-1.1832065321216783e-07,4.7164299377035895e-08,3.2496893370703717e-10
1668678581.3693867,64307,1668678581,369232894,,0.017605388769762254,5.621425145134323e-07,0.0010621995389129791,-1.2113469591277007e-07,4.801955796342704e-08,3.2486768136719135e-10
1668678581.377308,64308,1668678581,377069321,,0.017904190689398986,5.90504040641882e-07,0.001028875749246629,-1.2354003874276778e-07,4.873717453614604e-08,3.2470264324513387e-10
1668678581.3852403,64309,1668678581,385009734,,0.018179693433256993,6.090642917321202e-07,0.0010032780095666446,-1.257120972375297e-07,4.9376485115773354e-08,3.244974983163118e-10
1668678581.3942907,64310,1668678581,393943343,,0.018455387640140312,6.266231655833941e-07,0.000981642770156355,-1.279000765757926e-07,5.002185146348384e-08,3.2429181909265914e-10
1668678581.4010832,64311,1668678581,400889383,,0.018726105240608866,6.412775756058529e-07,0.0009597806752707734,-1.3004574890652172e-07,5.0653587134962506e-08,3.240768313428344e-10
1668678581.4085467,64312,1668678581,408392452,,0.01899469073228766,6.54228753801188e-07,0.0009398246601590108,-1.321791188619323e-07,5.128186944590527e-08,3.238583290432473e-10
1668678581.4169705,64313,1668678581,416793416,,0.019275995503390035,6.708209020989706e-07,0.0008788371254008681,-1.3447050123323876e-07,5.196439640555144e-08,3.236686960117474e-10
1668678581.4250412,64314,1668678581,424740102,,0.01956065699847259,6.876285410605508e-07,0.0007918805714964475,-1.3681516355154143e-07,5.2665771905764484e-08,3.2349175074775083e-10
1668678581.432273,64315,1668678581,432125605,,0.019843755300090013,7.029657377472161e-07,0.0006948331292463848,-1.3915565601858512e-07,5.336658485109204e-08,3.2331832003351657e-10
1668678581.4404619,64316,1668678581,440335502,,0.02012037764017618,7.150337504714187e-07,0.0006040831201341211,-1.4143166343741397e-07,5.404643894121701e-08,3.2313739878331305e-10
1668678581.4485643,64317,1668678581,448423165,,0.02043342143823284,7.411006416287273e-07,0.0005336592022743985,-1.4416537932190822e-07,5.48821697042394e-08,3.230572684365107e-10
1668678581.4578645,64318,1668678581,457357385,,0.020754387528298245,7.690275437879872e-07,0.0004563722788422401,-1.47018693778876e-07,5.575944494714061e-08,3.2301520486166524e-10
1668678581.4662375,64319,1668678581,464345872,,0.021074368981544665,7.950830609590002e-07,0.00037831136190289306,-1.4988240446065903e-07,5.664135385621393e-08,3.22990814649593e-10
1668678581.472118,64320,1668678581,471981254,,0.021393255354467414,8.192197254248292e-07,0.0003100522109236728,-1.5275414332280323e-07,5.7527130895170496e-08,3.2298521496221255e-10
1668678581.4804738,64321,1668678581,480339600,,0.02170159711958906,8.374781979269876e-07,0.000246574857904687,-1.5550976281000837e-07,5.83747749845296e-08,3.2297133717440474e-10
1668678581.489186,64322,1668678581,488908909,,0.022004866958119318,8.524103358358796e-07,0.00018993543722925352,-1.5821621859456354e-07,5.9206956056195165e-08,3.229643774638191e-10
1668678581.4965463,64323,1668678581,496379344,,0.02229936163557416,8.624666656041747e-07,0.00014263579738876993,-1.6082115134559492e-07,6.000596283989128e-08,3.229520539882458e-10
1668678581.5044913,64324,1668678581,504326894,,0.022598521223977135,8.738404963463043e-07,0.00010127869524371422,-1.635028466987062e-07,6.083216242216451e-08,3.2297842178508063e-10
1668678581.5121891,64325,1668678581,512063514,,0.02289510386846336,8.832277428054334e-07,6.42856533826243e-05,-1.6616328822274427e-07,6.165242245545488e-08,3.2302124863825554e-10
1668678581.5207224,64326,1668678581,520475251,,0.023181748184902668,8.873727199519418e-07,3.008876944586581e-05,-1.6869828135818036e-07,6.243148901313982e-08,3.230541875676174e-10
1668678581.5283048,64327,1668678581,528209891,,0.023427472004174242,8.723179384135176e-07,-8.15742935543803e-06,-1.70665993483852e-07,6.301975579499786e-08,3.229570708085383e-10
1668678581.5365832,64328,1668678581,536388067,,0.02368430523019618,8.630603500157703e-07,-3.9662409885029124e-05,-1.727932633344663e-07,6.366316231565944e-08,3.2292057222660375e-10
1668678581.5444317,64329,1668678581,544279556,,0.02394306714072829,8.550240137617e-07,-6.663488858561717e-05,-1.749514564744004e-07,6.431823443449596e-08,3.2291276597096186e-10
1668678581.5530548,64330,1668678581,552772101,,0.024194250349876403,8.436609147089457e-07,-9.13447312781506e-05,-1.7700238369070627e-07,6.493822213998485e-08,3.2289552281961065e-10
1668678581.5611305,64331,1668678581,560906716,,0.024448542804320166,8.339601120929835e-07,-9.811894111714077e-05,-1.7910063011003854e-07,6.557545528633468e-08,3.2291378598836573e-10
1668678581.5687463,64332,1668678581,568554832,,0.02470071426718069,8.234741697898787e-07,-9.58095819546577e-05,-1.8116916309306955e-07,6.620389570138451e-08,3.229464126675019e-10
1668678581.5766473,64333,1668678581,576453206,,0.024951974051407366,8.128645495956636e-07,-8.534936935503317e-05,-1.832252098787489e-07,6.682939284266293e-08,3.2299940500024604e-10
1668678581.5850952,64334,1668678581,584759144,,0.025199130017966975,8.006582644480059e-07,-7.125034642926082e-05,-1.8521968260331147e-07,6.743534973973567e-08,3.2305819130939994e-10
1668678581.5921211,64335,1668678581,591951606,,0.025440804463867112,7.863038839436737e-07,-5.583785001766595e-05,-1.8712979985377074e-07,6.801405848049467e-08,3.231153122840169e-10
1668678581.6005714,64336,1668678581,600415043,,0.025675442353473032,7.691831750195207e-07,-4.153289044199914e-05,-1.8892942667671307e-07,6.855666701075912e-08,3.2316152531741693e-10
1668678581.6085167,64337,1668678581,608359016,,0.025884037078729192,7.394337212927132e-07,-1.1991668344630408e-05,-1.9031871938856486e-07,6.896164602234779e-08,3.230937808962331e-10
1668678581.6168532,64338,1668678581,616604268,,0.026082947573507674,7.063897195432853e-07,2.353340433297598e-05,-1.9154833974445885e-07,6.931373462823118e-08,3.229911407776065e-10
1668678581.6246817,64339,1668678581,624442256,,0.026275365560709876,6.720070604724939e-07,6.0612806088364815e-05,-1.926664884871628e-07,6.962921504194246e-08,3.2286816276094754e-10
1668678581.6322336,64340,1668678581,632055170,,0.02647996052039401,6.463587861871051e-07,8.561855051050825e-05,-1.9397059207432567e-07,7.000876291684242e-08,3.2283109518971287e-10
1668678581.6405127,64341,1668678581,640335000,,0.026680176640113577,6.200618406985512e-07,0.00010847974979591194,-1.951963342653948e-07,7.036298276398133e-08,3.2278752587489024e-10
1668678581.6488078,64342,1668678581,648537295,,0.026884543777575903,5.977564845214651e-07,0.00012456152999585143,-1.964813680445962e-07,7.073846972657609e-08,3.227886707923844e-10
1668678581.6567276,64343,1668678581,656535731,,0.02708881171922888,5.769134832125372e-07,0.00013596130806605997,-1.9775697156768817e-07,7.111200155151317e-08,3.2281050055260607e-10
1668678581.6641505,64344,1668678581,664015096,,0.027290889803863683,5.564317094366274e-07,0.00013636244522835687,-1.9898848530080148e-07,7.147186215539399e-08,3.228403516741807e-10
1668678581.6725287,64345,1668678581,672343295,,0.027488603318674625,5.349469474190474e-07,0.0001364629658656698,-2.0013906140107108e-07,7.180558112170055e-08,3.228634928853502e-10
1668678581.6809583,64346,1668678581,680552856,,0.027683477906500324,5.134454117383238e-07,0.00013109389382253287,-2.012331849322673e-07,7.212143752425692e-08,3.228890557704922e-10
1668678581.6888666,64347,1668678581,688651750,,0.02787513232181831,4.921895282749142e-07,9.309817211507306e-05,-2.022636895475556e-07,7.241700372283451e-08,3.2291383456062306e-10
1668678581.6965446,64348,1668678581,696352150,,0.028063491384442064,4.712280821914672e-07,2.180107739786476e-05,-2.032285159519814e-07,7.269157766692791e-08,3.229364692325376e-10
1668678581.7048032,64349,1668678581,704594626,,0.02824863474149161,4.5034912110239267e-07,-6.301360034026136e-05,-2.04128267289219e-07,7.294535728707627e-08,3.229566683526919e-10
1668678581.7127964,64350,1668678581,712441410,,0.02843071717461895,4.2906321769030875e-07,-0.00013249175428960226,-2.0496490405516165e-07,7.317899963939483e-08,3.2297474417131156e-10
1668678581.7206955,64351,1668678581,720519736,,0.028609876587985958,4.0763613565775965e-07,-0.0001962190176984761,-2.0574016998230063e-07,7.33930886344077e-08,3.229909395496833e-10
1668678581.728695,64352,1668678581,728482674,,0.02878639117730129,3.8610954511633193e-07,-0.0002500137687718869,-2.0645833647932928e-07,7.358906402407835e-08,3.230066492054817e-10
1668678581.7366493,64353,1668678581,736443482,,0.02896044771777373,3.6462552506695554e-07,-0.00029595637357002105,-2.0712217672647906e-07,7.37678595172462e-08,3.230227682560205e-10
1668678581.7445571,64354,1668678581,744284142,,0.029132233819069105,3.432411197281248e-07,-0.00033282632532602224,-2.0773455816961404e-07,7.393044136865673e-08,3.2304023345197663e-10
1668678581.7526948,64355,1668678581,752470651,,0.029301924821421688,3.2220124459916085e-07,-0.0003661266408539621,-2.0829820420500402e-07,7.407772779682766e-08,3.230600231773906e-10
1668678581.760588,64356,1668678581,760446987,,0.029469707455054773,3.0152692113323397e-07,-0.00039350760569435803,-2.0881611266900316e-07,7.421073055656653e-08,3.230833239831199e-10
1668678581.7684386,64357,1668678581,768288286,,0.029635746165957436,2.8168117115029285e-07,-0.00042758104079351815,-2.092909460324954e-07,7.433034869390193e-08,3.231112183366136e-10
1668678581.776998,64358,1668678581,776741368,,0.02980019676016397,2.621140522120418e-07,-0.0004489399221471256,-2.097252758461463e-07,7.443745117150478e-08,3.231448095220024e-10
1668678581.7844815,64359,1668678581,784334008,,0.0299632065350579,2.430580289731194e-07,-0.00046285240273129453,-2.1012156921704087e-07,7.453287231601498e-08,3.2318527715125e-10
1668678581.792105,64360,1668678581,791998961,,0.030124914108114322,2.2502998900063997e-07,-0.0004835381682059381,-2.1048218325973693e-07,7.461740985671966e-08,3.2323369675291147e-10
1668678581.8004239,64361,1668678581,800302500,,0.030285448967216688,2.0774994463498034e-07,-0.000501635748219807,-2.1080935782435842e-07,7.469182251103497e-08,3.232912687556322e-10
1668678581.8088324,64362,1668678581,808545886,,0.030444933272976673,1.914121725976245e-07,-0.000521951384127711,-2.1110523676679894e-07,7.475683710890697e-08,3.233591450158002e-10
1668678581.81638,64363,1668678581,816218366,,0.03060348082439869,1.765911735870418e-07,-0.0005606436898826912,-2.113718449810371e-07,7.481314079002543e-08,3.234384773898036e-10
1668678581.8245857,64364,1668678581,824421873,,0.03076119764821245,1.6302670458975506e-07,-0.0006099209519740534,-2.1161110228126116e-07,7.486138574428099e-08,3.2353041773403035e-10
1668678581.8322475,64365,1668678581,832118730,,0.030918182605602376,1.5044606735673624e-07,-0.000661891398345717,-2.1182482619661698e-07,7.490219004410714e-08,3.2363612484376247e-10
1668678581.840894,64366,1668678581,840606416,,0.031074527713736415,1.3854617072687215e-07,-0.0007084500638329749,-2.1201473472600308e-07,7.493613856561845e-08,3.237567436364941e-10
1668678581.8494625,64367,1668678581,849051451,,0.031230318862760325,1.2791430089493085e-07,-0.0007645629652658142,-2.121824512231604e-07,7.496378469948155e-08,3.2389340515193155e-10
1668678581.8564234,64368,1668678581,856291651,,0.031385635472141654,1.1818476487201499e-07,-0.0008212054751874861,-2.1232950589878015e-07,7.498565070913552e-08,3.240472612464629e-10
1668678581.8655522,64369,1668678581,865420159,,0.03154055122522817,1.0921276887895256e-07,-0.0008751705181903961,-2.1245734011855234e-07,7.500222926775692e-08,3.2421942908200663e-10
1668678581.8731434,64370,1668678581,872812141,,0.03169513442594098,1.0123174698462437e-07,-0.0009321108517714667,-2.125673097927612e-07,7.501398448283084e-08,3.244110258204813e-10
1668678581.881425,64371,1668678581,881264817,,0.03184944796940179,9.380608424587487e-08,-0.000982713742531886,-2.126606887817642e-07,7.502135308378594e-08,3.2462314780712376e-10
1668678581.8893273,64372,1668678581,889110984,,0.03200355004125784,8.715530793104061e-08,-0.0010321346754947722,-2.1273867225045937e-07,7.502474551877338e-08,3.2485688444827687e-10
1668678581.8971868,64373,1668678581,897019912,,0.032157493967228286,8.081332625231881e-08,-0.0010710497564478485,-2.1280237990170146e-07,7.50245470373511e-08,3.251133320891775e-10
1668678581.9051156,64374,1668678581,904845364,,0.03230796727615042,7.181848823736432e-08,-0.0010828052428809287,-2.127863324886286e-07,7.49985971642414e-08,3.2535040633829837e-10
1668678581.912265,64375,1668678581,912060555,,0.032456846489843365,6.213608479122369e-08,-0.0010798816070589125,-2.1272746081194352e-07,7.49593742177361e-08,3.255908875843261e-10
1668678581.9205804,64376,1668678581,920456042,,0.03260610549784023,5.370915657626054e-08,-0.001075058892149722,-2.1266510694193785e-07,7.492018923218463e-08,3.258606509626283e-10
1668678581.9287002,64377,1668678581,928457663,,0.032688386515053146,1.7761395330058776e-09,-0.001042778334896878,-2.112473157873311e-07,7.442336978744253e-08,3.2524526821786637e-10
1668678581.9368048,64378,1668678581,936583493,,0.032756007494012224,-5.510169889035928e-08,-0.001015936980226982,-2.095240565018453e-07,7.382373908926612e-08,3.244275334490787e-10
1668678581.9446497,64379,1668678581,944470513,,0.03282005415333283,-1.0944462730354211e-07,-0.000991803331203529,-2.0771922129033229e-07,7.31969549390768e-08,3.2355489121282943e-10
1668678581.9521415,64380,1668678581,952032156,,0.032907960946201936,-1.427752616189971e-07,-0.0009876891012615156,-2.0638762386360763e-07,7.273081111002812e-08,3.2301662039602164e-10
1668678581.960493,64381,1668678581,960322746,,0.033001864213635955,-1.6919612871369232e-07,-0.0009819517575962585,-2.0516766916270877e-07,7.230312410984666e-08,3.225681735607999e-10
1668678581.9689693,64382,1668678581,968724148,,0.033110014609641,-1.8329150131789783e-07,-0.0009853304462511057,-2.0422768806904181e-07,7.197094104840693e-08,3.2233504754231035e-10
1668678581.9767425,64383,1668678581,976576819,,0.03322368612916871,-1.913540284703583e-07,-0.0010038029629500442,-2.0339046507319557e-07,7.167440766960888e-08,3.221957284305077e-10
1668678581.9842148,64384,1668678581,984027649,,0.03331776380246145,-2.112720756721861e-07,-0.0010162648075344393,-2.0214171593470505e-07,7.12394731315711e-08,3.2177158854063137e-10
1668678581.9925618,64385,1668678581,992415794,,0.033417884565210186,-2.2516517859783999e-07,-0.0010257375103071512,-2.0100797057794008e-07,7.084420094332668e-08,3.214474034174408e-10
1668678582.0015447,64386,1668678582,1246750,,0.033511071600057805,-2.420748834889471e-07,-0.0010310728175545467,-1.99721981121578e-07,7.039817729562366e-08,3.210232912831401e-10
1668678582.0090036,64387,1668678582,8825791,,0.03351396306000571,-3.2054214908404515e-07,-0.0009541820499493575,-1.9656032409647072e-07,6.931787322329679e-08,3.191650901901433e-10
1668678582.018004,64388,1668678582,17704060,,0.033474335999776894,-4.228885406428643e-07,-0.000812678385800777,-1.9252005818075173e-07,6.793992961664011e-08,3.165977063845915e-10
1668678582.025234,64389,1668678582,25046338,,0.03342254640900504,-5.248082840897158e-07,-0.0006443294538568167,-1.8823636337145363e-07,6.647895975939525e-08,3.137981749445906e-10
