Time,header.seq,header.stamp.secs,header.stamp.nsecs,header.frame_id,wrench.force.x,wrench.force.y,wrench.force.z,wrench.torque.x,wrench.torque.y,wrench.torque.z
1668678579.4167128,64063,1668678579,416365517,,-0.02571722750232323,-7.973727817e-314,2.1223409131388404,5e-324,-5e-324,0.0
1668678579.424497,64064,1668678579,424318010,,-0.0136064143616519,-4.218722437e-314,2.112076833871093,5e-324,-5e-324,0.0
1668678579.4322243,64065,1668678579,431986264,,-0.0136064143616519,-4.218722437e-314,2.112076833871093,5e-324,-5e-324,0.0
1668678579.441335,64066,1668678579,440985357,,-0.007198851888845424,-2.2320324207e-314,2.101507914512538,5e-324,-5e-324,0.0
1668678579.4491396,64067,1668678579,448963104,,-0.027723348405037963,-1.1809188213e-314,2.110018415472666,5e-324,-5e-324,0.0
1668678579.4564767,64068,1668678579,456270506,,-0.03857702905390433,-6.24797942e-315,2.114519062496037,5e-324,-5e-324,0.0
1668678579.4646115,64069,1668678579,464391504,,-0.03979515329795942,-3.30566726e-315,2.1074262248814613,5e-324,-5e-324,0.0
1668678579.4725266,64070,1668678579,472280556,,-0.03979515329795942,-3.30566726e-315,2.1074262248814613,5e-324,-5e-324,0.0
1668678579.4806347,64071,1668678579,480410338,,-0.04040119057673565,-1.74895519e-315,2.1036823174921864,5e-324,-5e-324,0.0
1668678579.4886544,64072,1668678579,488441420,,-0.02137537336174638,-9.2533338e-316,2.12567777449603,5e-324,-5e-324,0.0
1668678579.4967062,64073,1668678579,496451588,,-0.011309235689137307,-4.89573354e-316,2.118005455977661,5e-324,-5e-324,0.0
1668678579.5049193,64074,1668678579,504621372,,-0.005983465631592018,-2.590224e-316,2.1139813488949115,5e-324,-5e-324,0.0
1668678579.51226,64075,1668678579,512069392,,-0.005983465631592018,-2.590224e-316,2.1139813488949115,5e-324,-5e-324,0.0
1668678579.5205457,64076,1668678579,520354167,,-0.008116856016090733,-1.37043005e-316,2.10753473152174,5e-324,-5e-324,0.0
1668678579.5291677,64077,1668678579,528889124,,-0.025690684473885787,-7.250641e-317,2.1040318123025243,5e-324,-5e-324,0.0
1668678579.5369391,64078,1668678579,536685866,,-0.035011883616824335,-3.8361534e-317,2.1021712791625085,5e-324,-5e-324,0.0
1668678579.544228,64079,1668678579,544030996,,-0.035011883616824335,-3.8361534e-317,2.1021712791625085,5e-324,-5e-324,0.0
1668678579.5525386,64080,1668678579,552259494,,-0.01852401064731445,-2.0296236e-317,2.106070693298201,5e-324,-5e-324,0.0
1668678579.5604792,64081,1668678579,560266614,,-0.009800642953609322,-1.073829e-317,2.1080888144860124,5e-324,-5e-324,0.0
1668678579.5690386,64082,1668678579,568703318,,-0.031150663700341297,-5.68139e-318,2.1090916617130624,5e-324,-5e-324,0.0
1668678579.576929,64083,1668678579,576463265,,-0.03647694598498819,-3.005895e-318,2.1468253670900213,5e-324,-5e-324,0.0
1668678579.584255,64084,1668678579,584027496,,-0.03647694598498819,-3.005895e-318,2.1468253670900213,5e-324,-5e-324,0.0
1668678579.5928805,64085,1668678579,592627397,,-0.039376146960806345,-1.590353e-318,2.166762739291185,5e-324,-5e-324,0.0
1668678579.6011078,64086,1668678579,600890121,,-0.0355384771390618,-8.4142e-319,2.1538177728863395,5e-324,-5e-324,0.0
1668678579.6086323,64087,1668678579,608412102,,-0.018802619593907836,-4.4518e-319,2.138355258579739,5e-324,-5e-324,0.0
1668678579.6175864,64088,1668678579,617360091,,-0.009948048764436734,-2.35536e-319,2.1301721309224533,5e-324,-5e-324,0.0
1668678579.6253984,64089,1668678579,625111191,,-0.00526329183682874,-1.2462e-319,2.1162548924396463,5e-324,-5e-324,0.0
1668678579.6333034,64090,1668678579,632840768,,-0.00526329183682874,-1.2462e-319,2.1162548924396463,5e-324,-5e-324,0.0
1668678579.6411588,64091,1668678579,640933265,,-0.0027846909093028126,-6.5933e-320,2.1088814716813418,5e-324,-5e-324,0.0
1668678579.6486464,64092,1668678579,648404277,,-0.03847607892993819,-3.4886e-320,2.114119173735897,5e-324,-5e-324,0.0
1668678579.656629,64093,1668678579,656473128,,-0.03185439324238815,-1.846e-320,2.1126943256067205,5e-324,-5e-324,0.0
1668678579.6650395,64094,1668678579,664684635,,-0.02835731077441698,-9.77e-321,2.111935633928193,5e-324,-5e-324,0.0
1668678579.6723578,64095,1668678579,672106327,,-0.02835731077441698,-9.77e-321,2.111935633928193,5e-324,-5e-324,0.0
1668678579.680597,64096,1668678579,680361102,,-0.020910753316816293,-5.17e-321,2.121003101297699,5e-324,-5e-324,0.0
1668678579.6885796,64097,1668678579,688359614,,-0.01106341553408844,-2.73e-321,2.1161837877725462,5e-324,-5e-324,0.0
1668678579.6970317,64098,1668678579,696658911,,-0.005853407642730729,-1.45e-321,2.1136050239185673,5e-324,-5e-324,0.0
1668678579.7047226,64099,1668678579,704451910,,-0.003096908086513585,-7.66e-322,2.1169774074369827,5e-324,-5e-324,0.0
1668678579.712474,64100,1668678579,712265287,,-0.003096908086513585,-7.66e-322,2.1169774074369827,5e-324,-5e-324,0.0
1668678579.7206154,64101,1668678579,720351001,,-0.0016385053428192337,-4.05e-322,2.118742338332842,5e-324,-5e-324,0.0
1668678579.7287252,64102,1668678579,728485765,,-0.0008668968156137745,-2.1e-322,2.1290961546791696,5e-324,-5e-324,0.0
1668678579.7367961,64103,1668678579,736561788,,-0.00045865586719921487,-1.14e-322,2.120259690835352,5e-324,-5e-324,0.0
1668678579.7453713,64104,1668678579,745086230,,-0.00024266464096689807,-6e-323,2.1155466448451827,5e-324,-5e-324,0.0
1668678579.7525728,64105,1668678579,752200143,,-0.00024266464096689807,-6e-323,2.1155466448451827,5e-324,-5e-324,0.0
1668678579.7613497,64106,1668678579,760967451,,-0.00012838847638684334,-3e-323,2.117412315817595,5e-324,-5e-324,0.0
1668678579.7686212,64107,1668678579,768397233,,-0.025063155961473023,-1.5e-323,2.1235419623171183,5e-324,-5e-324,0.0
1668678579.7765522,64108,1668678579,776286266,,-0.038312303264854554,-1e-323,2.1267664798594055,5e-324,-5e-324,0.0
1668678579.785461,64109,1668678579,785253347,,-0.03518312981751075,-5e-324,2.128463484104307,5e-324,-5e-324,0.0
1668678579.7926078,64110,1668678579,792258758,,-0.03518312981751075,-5e-324,2.128463484104307,5e-324,-5e-324,0.0
1668678579.8005018,64111,1668678579,800263528,,-0.033553375175054426,-5e-324,2.129351851604324,5e-324,-5e-324,0.0
1668678579.808527,64112,1668678579,808282546,,-0.037848675549731634,-5e-324,2.134029680599397,5e-324,-5e-324,0.0
1668678579.8165672,64113,1668678579,816361085,,-0.020024894305688636,-5e-324,2.1371217260553257,5e-324,-5e-324,0.0
1668678579.8251045,64114,1668678579,824793159,,-0.010594727190046796,-5e-324,2.1387582185838534,5e-324,-5e-324,0.0
1668678579.832478,64115,1668678579,832248783,,-0.010594727190046796,-5e-324,2.1387582185838534,5e-324,-5e-324,0.0
1668678579.8405707,64116,1668678579,840341973,,-0.005605435040904541,-5e-324,2.1297194637322363,5e-324,-5e-324,0.0
1668678579.8486297,64117,1668678579,848370123,,-0.0029657112858289376,-5e-324,2.1254558792266787,5e-324,-5e-324,0.0
1668678579.8570797,64118,1668678579,856853051,,-0.0015690920270612614,-5e-324,2.1232080977162995,5e-324,-5e-324,0.0
1668678579.8645985,64119,1668678579,864372729,,-0.0008301717706479503,-5e-324,2.1359055100328392,5e-324,-5e-324,0.0
1668678579.8723733,64120,1668678579,872144157,,-0.0008301717706479503,-5e-324,2.1359055100328392,5e-324,-5e-324,0.0
1668678579.880767,64121,1668678579,880502319,,-0.00043922546090016256,-5e-324,2.142606811379782,5e-324,-5e-324,0.0
1668678579.8891752,64122,1668678579,888870345,,-0.00023238444418844387,-5e-324,2.1317057770701444,5e-324,-5e-324,0.0
1668678579.8971272,64123,1668678579,896518355,,-0.00012294945240673774,-5e-324,2.1356739144328545,5e-324,-5e-324,0.0
1668678579.9051726,64124,1668678579,904810467,,-6.504982680707504e-05,-5e-324,2.1377540431778224,5e-324,-5e-324,0.0
1668678579.9122043,64125,1668678579,912004814,,-6.504982680707504e-05,-5e-324,2.1377540431778224,5e-324,-5e-324,0.0
1668678579.9210691,64126,1668678579,920678663,,-3.441641979528304e-05,-5e-324,2.1298346458864073,5e-324,-5e-324,0.0
1668678579.9286652,64127,1668678579,928468151,,-0.006182544108656608,-5e-324,2.138850683840694,5e-324,-5e-324,0.0
1668678579.9364502,64128,1668678579,936260937,,-0.00949983769852624,-5e-324,2.143599187852362,5e-324,-5e-324,0.0
1668678579.9443858,64129,1668678579,944156362,,-0.005026153308435469,-5e-324,2.1367609659349327,5e-324,-5e-324,0.0
1668678579.9525127,64130,1668678579,952229075,,-0.005026153308435469,-5e-324,2.1367609659349327,5e-324,-5e-324,0.0
1668678579.9605317,64131,1668678579,960296998,,-0.0026592261764446646,-5e-324,2.1331480180382556,5e-324,-5e-324,0.0
1668678579.968665,64132,1668678579,968428013,,-0.0014069375571215332,-5e-324,2.132031648213027,5e-324,-5e-324,0.0
1668678579.976579,64133,1668678579,976335164,,-0.007102447171909691,-5e-324,2.121157613454446,5e-324,-5e-324,0.0
1668678579.98498,64134,1668678579,984641332,,-0.010153122623773473,-5e-324,2.115390673783278,5e-324,-5e-324,0.0
1668678579.9922607,64135,1668678579,992053439,,-0.010153122623773473,-5e-324,2.115390673783278,5e-324,-5e-324,0.0
1668678580.000699,64136,1668678580,441052,,-0.01541976815748812,-5e-324,2.121901963452808,5e-324,-5e-324,0.0
1668678580.0085747,64137,1668678580,8327683,,-0.00815825714076043,-5e-324,2.1166767661188524,5e-324,-5e-324,0.0
1668678580.0169525,64138,1668678580,16622796,,-0.004316352807318129,-5e-324,2.1139240240285524,5e-324,-5e-324,0.0
1668678580.0244534,64139,1668678580,24194680,,-0.002283686483006162,-5e-324,2.1313354566065024,5e-324,-5e-324,0.0
1668678580.0323493,64140,1668678580,32130853,,-0.002283686483006162,-5e-324,2.1313354566065024,5e-324,-5e-324,0.0
1668678580.0410674,64141,1668678580,40766243,,-0.001208247839199553,-5e-324,2.140530331308606,5e-324,-5e-324,0.0
1668678580.049196,64142,1668678580,48877213,,-0.0006392571186079265,-5e-324,2.145337966450418,5e-324,-5e-324,0.0
1668678580.056501,64143,1668678580,56295790,,-0.0003382167552326295,-5e-324,2.1520813981326254,5e-324,-5e-324,0.0
1668678580.0643148,64144,1668678580,64052170,,-0.0003382167552326295,-5e-324,2.1520813981326254,5e-324,-5e-324,0.0
1668678580.0727913,64145,1668678580,72600917,,-0.0001789429795779047,-5e-324,2.155648204291042,5e-324,-5e-324,0.0
1668678580.0807347,64146,1668678580,80472145,,-9.467475943997595e-05,-5e-324,2.147929217354979,5e-324,-5e-324,0.0
1668678580.0885332,64147,1668678580,88297630,,-5.009031422277756e-05,-5e-324,2.1532057334300987,5e-324,-5e-324,0.0
1668678580.0964432,64148,1668678580,96277975,,-2.6501673664429324e-05,-5e-324,2.1560108448123265,5e-324,-5e-324,0.0
1668678580.1044815,64149,1668678580,104277766,,-1.4021447417803028e-05,-5e-324,2.1436363548119557,5e-324,-5e-324,0.0
1668678580.1125305,64150,1668678580,112187380,,-1.4021447417803028e-05,-5e-324,2.1436363548119557,5e-324,-5e-324,0.0
1668678580.120606,64151,1668678580,120397767,,-7.4184366685525226e-06,-5e-324,2.137068169832677,5e-324,-5e-324,0.0
1668678580.1283987,64152,1668678580,128194316,,-3.924930213370769e-06,-5e-324,2.1478439168009826,5e-324,-5e-324,0.0
1668678580.136599,64153,1668678580,136337517,,-2.0765934748940212e-06,-5e-324,2.1488962046855944,5e-324,-5e-324,0.0
1668678580.1452239,64154,1668678580,144868503,,-1.0986795243600091e-06,-5e-324,2.1494892302103645,5e-324,-5e-324,0.0
1668678580.152505,64155,1668678580,152283749,,-1.0986795243600091e-06,-5e-324,2.1494892302103645,5e-324,-5e-324,0.0
1668678580.160427,64156,1668678580,160235060,,-5.812869547370316e-07,-5e-324,2.1494459996895667,5e-324,-5e-324,0.0
1668678580.1688266,64157,1668678580,168582843,,-3.0754602798689493e-07,-5e-324,2.135516197360074,5e-324,-5e-324,0.0
1668678580.1769776,64158,1668678580,176713262,,-1.6271577842875394e-07,-5e-324,2.1281580306516084,5e-324,-5e-324,0.0
1668678580.1847312,64159,1668678580,184513627,,-8.608930742166358e-08,-5e-324,2.1429104557160645,5e-324,-5e-324,0.0
1668678580.1926382,64160,1668678580,192333249,,-8.608930742166358e-08,-5e-324,2.1429104557160645,5e-324,-5e-324,0.0
1668678580.202244,64161,1668678580,201620410,,-4.554794208594104e-08,-5e-324,2.150704860980434,5e-324,-5e-324,0.0
1668678580.2089012,64162,1668678580,208543462,,-2.4098405369935428e-08,-5e-324,2.159299833878791,5e-324,-5e-324,0.0
1668678580.2167685,64163,1668678580,216528714,,-1.274993149587286e-08,-5e-324,2.1592563709881194,5e-324,-5e-324,0.0
1668678580.2246351,64164,1668678580,224409511,,-6.745705811400181e-09,-5e-324,2.1592637131600827,5e-324,-5e-324,0.0
1668678580.2322762,64165,1668678580,232030958,,-6.745705811400181e-09,-5e-324,2.1592637131600827,5e-324,-5e-324,0.0
1668678580.241057,64166,1668678580,240785448,,-0.018742342953977212,-5e-324,2.160428046484383,5e-324,-5e-324,0.0
1668678580.2487764,64167,1668678580,248520697,,-0.009916157731892495,-5e-324,2.1607074150395915,5e-324,-5e-324,0.0
1668678580.2566025,64168,1668678580,256342309,,-0.0052464189992268385,-5e-324,2.1608699396506483,5e-324,-5e-324,0.0
1668678580.2645626,64169,1668678580,264283272,,-0.007400033616380772,-5e-324,2.170025906332528,5e-324,-5e-324,0.0
1668678580.2725708,64170,1668678580,272256259,,-0.007400033616380772,-5e-324,2.170025906332528,5e-324,-5e-324,0.0
1668678580.2805114,64171,1668678580,280286453,,-0.008430326410997505,-5e-324,2.174913461539189,5e-324,-5e-324,0.0
1668678580.2886584,64172,1668678580,288446736,,-0.022505786572670224,-5e-324,2.171929033969765,5e-324,-5e-324,0.0
1668678580.2968082,64173,1668678580,296601089,,-0.011907312233209788,-5e-324,2.1667436477345285,5e-324,-5e-324,0.0
1668678580.3049698,64174,1668678580,304607793,,-0.006299894658706227,-5e-324,2.1640151189816788,5e-324,-5e-324,0.0
1668678580.3127532,64175,1668678580,312551627,,-0.006299894658706227,-5e-324,2.1640151189816788,5e-324,-5e-324,0.0
1668678580.3205433,64176,1668678580,320243647,,-0.003333134458345903,-5e-324,2.1624272396654245,5e-324,-5e-324,0.0
1668678580.328664,64177,1668678580,328422653,,-0.0017634874738833156,-5e-324,2.193931224325742,5e-324,-5e-324,0.0
1668678580.337843,64178,1668678580,337414039,,-0.0009330220875897897,-5e-324,2.210573148790764,5e-324,-5e-324,0.0
1668678580.3454714,64179,1668678580,345260184,,-0.0004936412811673929,-5e-324,2.2007613476794052,5e-324,-5e-324,0.0
1668678580.3526545,64180,1668678580,352320151,,-0.0004936412811673929,-5e-324,2.2007613476794052,5e-324,-5e-324,0.0
1668678580.3605814,64181,1668678580,360328125,,-0.0002611746471105211,-5e-324,2.1955614025426984,5e-324,-5e-324,0.0
1668678580.3689926,64182,1668678580,368706020,,-0.00013818170986833374,-5e-324,2.2068713708000174,5e-324,-5e-324,0.0
1668678580.3767774,64183,1668678580,376531564,,-7.31088761998261e-05,-5e-324,2.1799335423764603,5e-324,-5e-324,0.0
1668678580.3845568,64184,1668678580,384367929,,-3.868028398472119e-05,-5e-324,2.1656894904730715,5e-324,-5e-324,0.0
1668678580.3922007,64185,1668678580,391997246,,-3.868028398472119e-05,-5e-324,2.1656894904730715,5e-324,-5e-324,0.0
1668678580.4008865,64186,1668678580,400553537,,-2.046487987380987e-05,-5e-324,2.144181124499686,5e-324,-5e-324,0.0
1668678580.408589,64187,1668678580,408353211,,-1.0827513790097815e-05,-5e-324,2.13768837994189,5e-324,-5e-324,0.0
1668678580.4166734,64188,1668678580,416405227,,-5.728597265053632e-06,-5e-324,2.13424064703555,5e-324,-5e-324,0.0
1668678580.424662,64189,1668678580,424405039,,-0.013878144352233791,-5e-324,2.151342524597597,5e-324,-5e-324,0.0
1668678580.4326363,64190,1668678580,432338140,,-0.013878144352233791,-5e-324,2.151342524597597,5e-324,-5e-324,0.0
1668678580.4405868,64191,1668678580,440344965,,-0.021258395139591012,-5e-324,2.160387907478423,5e-324,-5e-324,0.0
1668678580.4487267,64192,1668678580,448453116,,-0.01124734510774429,-5e-324,2.1935894761938544,5e-324,-5e-324,0.0
1668678580.456549,64193,1668678580,456348943,,-0.005950720698436184,-5e-324,2.191655003642971,5e-324,-5e-324,0.0
1668678580.4649763,64194,1668678580,464611020,,-0.0031483942647420634,-5e-324,2.1906391375340357,5e-324,-5e-324,0.0
1668678580.47231,64195,1668678580,472095804,,-0.0031483942647420634,-5e-324,2.1906391375340357,5e-324,-5e-324,0.0
1668678580.480844,64196,1668678580,480582830,,-0.001665745537152439,-5e-324,2.2041304496100427,5e-324,-5e-324,0.0
1668678580.4886906,64197,1668678580,488429530,,-0.0008813089979283739,-5e-324,2.1972874947794736,5e-324,-5e-324,0.0
1668678580.4972525,64198,1668678580,496939728,,-0.00046628103303057814,-5e-324,2.1936705567382644,5e-324,-5e-324,0.0
1668678580.5048113,64199,1668678580,504513488,,-0.0002466989469926338,-5e-324,2.1729386627255494,5e-324,-5e-324,0.0
1668678580.512292,64200,1668678580,512054674,,-0.0002466989469926338,-5e-324,2.1729386627255494,5e-324,-5e-324,0.0
1668678580.5205028,64201,1668678580,520271534,,-0.0001305229381768209,-5e-324,2.161954288386645,5e-324,-5e-324,0.0
1668678580.5290983,64202,1668678580,528734725,,-0.029558001731839506,-5e-324,2.154521972911418,5e-324,-5e-324,0.0
1668678580.5364742,64203,1668678580,536252931,,-0.048264781002291396,-5e-324,2.1559941576386876,5e-324,-5e-324,0.0
1668678580.544477,64204,1668678580,544295802,,-0.05814070242196507,-5e-324,2.156780241676091,5e-324,-5e-324,0.0
1668678580.5523586,64205,1668678580,552027662,,-0.05814070242196507,-5e-324,2.156780241676091,5e-324,-5e-324,0.0
1668678580.5616696,64206,1668678580,561266006,,-0.24584052178485685,-5e-324,2.225374799157745,5e-324,-5e-324,0.0
1668678580.5694823,64207,1668678580,569237745,,-0.3877034659268829,-5e-324,2.2954749221584856,5e-324,-5e-324,0.0
1668678580.576589,64208,1668678580,576373298,,-0.462719216985131,-5e-324,2.332569893534806,5e-324,-5e-324,0.0
1668678580.5844731,64209,1668678580,584286590,,-0.5316533059882292,-5e-324,2.3806010742772927,5e-324,-5e-324,0.0
1668678580.5924616,64210,1668678580,592132461,,-0.5316533059882292,-5e-324,2.3806010742772927,5e-324,-5e-324,0.0
1668678580.6007738,64211,1668678580,600500683,,-0.5681343269410823,-5e-324,2.4060116842533086,5e-324,-5e-324,0.0
1668678580.6083887,64212,1668678580,608206399,,-0.5148743121690051,-5e-324,2.429475698525109,5e-324,-5e-324,0.0
1668678580.6164322,64213,1668678580,616255936,,-0.5025065617599819,-5e-324,2.4324037939836307,5e-324,-5e-324,0.0
1668678580.6254272,64214,1668678580,625052428,,-0.49598517567568856,-5e-324,2.4339390719387266,5e-324,-5e-324,0.0
1668678580.6322563,64215,1668678580,632008626,,-0.49598517567568856,-5e-324,2.4339390719387266,5e-324,-5e-324,0.0
1668678580.6420739,64216,1668678580,641740812,,-0.36601160413189854,-5e-324,2.318553116511932,5e-324,-5e-324,0.0
1668678580.648682,64217,1668678580,648503651,,-0.19364861731466285,-5e-324,2.234877224008212,5e-324,-5e-324,0.0
1668678580.6571054,64218,1668678580,656637697,,-0.10245518602291924,-5e-324,2.190597407100878,5e-324,-5e-324,0.0
1668678580.6644635,64219,1668678580,664238868,,-0.05420676526666922,-5e-324,2.181267240939744,5e-324,-5e-324,0.0
1668678580.6723447,64220,1668678580,672134188,,-0.05420676526666922,-5e-324,2.181267240939744,5e-324,-5e-324,0.0
1668678580.6806507,64221,1668678580,680428982,,-0.02867959656057295,-5e-324,2.1763554455581473,5e-324,-5e-324,0.0
1668678580.689775,64222,1668678580,689409396,,-0.05313814771042504,-5e-324,2.1596711542860723,5e-324,-5e-324,0.0
1668678580.6974466,64223,1668678580,697170797,,-0.0735744963058649,-5e-324,2.1270654793401547,5e-324,-5e-324,0.0
1668678580.7050552,64224,1668678580,704854100,,-0.08430972954726126,-5e-324,2.109837992878264,5e-324,-5e-324,0.0
1668678580.7130933,64225,1668678580,712852518,,-0.08430972954726126,-5e-324,2.109837992878264,5e-324,-5e-324,0.0
1668678580.7215612,64226,1668678580,721186627,,-0.053050027763722196,-5e-324,2.1337532961401333,5e-324,-5e-324,0.0
1668678580.7285957,64227,1668678580,728339462,,-0.02806759241777265,-5e-324,2.1373096820210558,5e-324,-5e-324,0.0
1668678580.7364373,64228,1668678580,736253426,,-0.014849940279747259,-5e-324,2.139212178176869,5e-324,-5e-324,0.0
1668678580.7446754,64229,1668678580,744178319,,-0.014849940279747259,-5e-324,2.139212178176869,5e-324,-5e-324,0.0
1668678580.7529852,64230,1668678580,752668876,,-0.02844745727909571,-5e-324,2.1355278380240885,5e-324,-5e-324,0.0
1668678580.760539,64231,1668678580,760332224,,-0.03572893337931212,-5e-324,2.133543337158057,5e-324,-5e-324,0.0
1668678580.7686288,64232,1668678580,768383568,,-0.024520701389014354,-5e-324,2.170107308977797,5e-324,-5e-324,0.0
1668678580.7768981,64233,1668678580,776437207,,-0.012973358948087328,-5e-324,2.179448989098312,5e-324,-5e-324,0.0
1668678580.7851064,64234,1668678580,784765535,,-0.006863916318124655,-5e-324,2.184379097104761,5e-324,-5e-324,0.0
1668678580.7928061,64235,1668678580,792563377,,-0.006863916318124655,-5e-324,2.184379097104761,5e-324,-5e-324,0.0
1668678580.8009021,64236,1668678580,800558543,,-0.005412603942049096,-5e-324,2.1728431932666483,5e-324,-5e-324,0.0
1668678580.8086374,64237,1668678580,808404662,,-0.00286368863068064,-5e-324,2.172120325691549,5e-324,-5e-324,0.0
1668678580.8171163,64238,1668678580,816623741,,-0.0015151141042817453,-5e-324,2.1717627581567065,5e-324,-5e-324,0.0
1668678580.8246589,64239,1668678580,824334575,,-0.01686672198521204,-5e-324,2.1385659840669784,5e-324,-5e-324,0.0
1668678580.8322322,64240,1668678580,832015620,,-0.01686672198521204,-5e-324,2.1385659840669784,5e-324,-5e-324,0.0
1668678580.8405907,64241,1668678580,840362513,,-0.025090286406969427,-5e-324,2.1209655170642567,5e-324,-5e-324,0.0
1668678580.8488622,64242,1668678580,848575412,,-0.04785639282679671,-5e-324,2.164119823565761,5e-324,-5e-324,0.0
1668678580.8568347,64243,1668678580,856551061,,-0.025319755428401376,-5e-324,2.1670162330544045,5e-324,-5e-324,0.0
1668678580.8645842,64244,1668678580,864331406,,-0.013495069321099167,-5e-324,2.1685034003420447,5e-324,-5e-324,0.0
1668678580.8724177,64245,1668678580,872152128,,-0.013495069321099167,-5e-324,2.1685034003420447,5e-324,-5e-324,0.0
1668678580.8809814,64246,1668678580,880657405,,-0.007139941698828302,-5e-324,2.1557665036781506,5e-324,-5e-324,0.0
1668678580.8885262,64247,1668678580,888314468,,-0.03965054430289738,-5e-324,2.149999635437501,5e-324,-5e-324,0.0
1668678580.8966515,64248,1668678580,896421933,,-0.05683133392977401,-5e-324,2.1469543261507718,5e-324,-5e-324,0.0
1668678580.9044628,64249,1668678580,904271057,,-0.07425262271999973,-5e-324,2.145546592891531,5e-324,-5e-324,0.0
1668678580.9128697,64250,1668678580,912549603,,-0.07425262271999973,-5e-324,2.145546592891531,5e-324,-5e-324,0.0
1668678580.920703,64251,1668678580,920449144,,-0.08351083485498442,-5e-324,2.1447856738433964,5e-324,-5e-324,0.0
1668678580.9286437,64252,1668678580,928385278,,-0.07998995197134365,-5e-324,2.129539200953852,5e-324,-5e-324,0.0
1668678580.9373565,64253,1668678580,937044564,,-0.05754017184155795,-5e-324,2.1210008447381066,5e-324,-5e-324,0.0
1668678580.945573,64254,1668678580,945196702,,-0.04565591219405251,-5e-324,2.116479877712295,5e-324,-5e-324,0.0
1668678580.9525743,64255,1668678580,952346956,,-0.04565591219405251,-5e-324,2.116479877712295,5e-324,-5e-324,0.0
1668678580.9605515,64256,1668678580,960362882,,-0.05523161099908343,-5e-324,2.119255907116622,5e-324,-5e-324,0.0
1668678580.9685502,64257,1668678580,968377347,,-0.029221819694491204,-5e-324,2.1204019832848355,5e-324,-5e-324,0.0
1668678580.9770918,64258,1668678580,976692924,,-0.01546061631755635,-5e-324,2.1210212139313995,5e-324,-5e-324,0.0
1668678580.984481,64259,1668678580,984283462,,-0.008179868995761098,-5e-324,2.1024955324312176,5e-324,-5e-324,0.0
1668678580.9922268,64260,1668678580,991983604,,-0.008179868995761098,-5e-324,2.1024955324312176,5e-324,-5e-324,0.0
1668678581.0003436,64261,1668678581,174982,,-0.004327787160194483,-5e-324,2.0926936990526492,5e-324,-5e-324,0.0
1668678581.0089526,64262,1668678581,8673239,,-0.10074583714986364,-5e-324,2.140557651016781,5e-324,-5e-324,0.0
1668678581.0164466,64263,1668678581,16220972,,-0.14780541748048026,-5e-324,2.1699355806556797,5e-324,-5e-324,0.0
1668678581.0243802,64264,1668678581,24137064,,-0.14780541748048026,-5e-324,2.1699355806556797,5e-324,-5e-324,0.0
1668678581.03271,64265,1668678581,32415024,,-0.17257976759831606,-5e-324,2.1855207432284467,5e-324,-5e-324,0.0
1668678581.040964,64266,1668678581,40665179,,-0.1362250555477638,-5e-324,2.1606408944992523,5e-324,-5e-324,0.0
1668678581.0486417,64267,1668678581,48421589,,-0.1026497758057055,-5e-324,2.1624840731215436,5e-324,-5e-324,0.0
1668678581.0567386,64268,1668678581,56502589,,-0.08480847278979342,-5e-324,2.163502242912327,5e-324,-5e-324,0.0
1668678581.0645342,64269,1668678581,64300040,,-0.1581924059738138,-5e-324,2.163939593509421,5e-324,-5e-324,0.0
1668678581.073112,64270,1668678581,72809170,,-0.1581924059738138,-5e-324,2.163939593509421,5e-324,-5e-324,0.0
1668678581.0808325,64271,1668678581,80478752,,-0.19705320731616346,-5e-324,2.1641618597068444,5e-324,-5e-324,0.0
1668678581.0887613,64272,1668678581,88496374,,-0.2181179693433159,-5e-324,2.1872326841991714,5e-324,-5e-324,0.0
1668678581.0969598,64273,1668678581,96667612,,-0.24984342616088956,-5e-324,2.190520003536813,5e-324,-5e-324,0.0
1668678581.1056817,64274,1668678581,105369471,,-0.2666802185759931,-5e-324,2.192240604686026,5e-324,-5e-324,0.0
1668678581.112605,64275,1668678581,112372936,,-0.2666802185759931,-5e-324,2.192240604686026,5e-324,-5e-324,0.0
1668678581.1214528,64276,1668678581,121178834,,-0.2246481451459307,-5e-324,2.2260810354309237,5e-324,-5e-324,0.0
1668678581.1293182,64277,1668678581,129022554,,-0.24271924828855987,-5e-324,2.281681501225327,5e-324,-5e-324,0.0
1668678581.137906,64278,1668678581,137510777,,-0.25226057617348874,-5e-324,2.3111083179917404,5e-324,-5e-324,0.0
1668678581.144642,64279,1668678581,144360418,,-0.29511972985663326,-5e-324,2.312338000050625,5e-324,-5e-324,0.0
1668678581.152885,64280,1668678581,152501051,,-0.29511972985663326,-5e-324,2.312338000050625,5e-324,-5e-324,0.0
1668678581.1606333,64281,1668678581,160410241,,-0.3177900092151136,-5e-324,2.31299570717953,5e-324,-5e-324,0.0
1668678581.1689754,64282,1668678581,168636770,,-0.34815362076809164,-5e-324,2.3323687702490017,5e-324,-5e-324,0.0
1668678581.1766343,64283,1668678581,176387836,,-0.345585224252399,-5e-324,2.3278039558875587,5e-324,-5e-324,0.0
1668678581.1842198,64284,1668678581,183995569,,-0.345585224252399,-5e-324,2.3278039558875587,5e-324,-5e-324,0.0
1668678581.1928017,64285,1668678581,192539799,,-0.3442406315125349,-5e-324,2.3253848262818217,5e-324,-5e-324,0.0
1668678581.2011633,64286,1668678581,200891610,,-0.4211711719441859,-5e-324,2.351779718238497,5e-324,-5e-324,0.0
1668678581.208453,64287,1668678581,208211190,,-0.47658272724873774,-5e-324,2.3799083654945834,5e-324,-5e-324,0.0
1668678581.2167287,64288,1668678581,216492835,,-0.5058727863196082,-5e-324,2.394802791927569,5e-324,-5e-324,0.0
1668678581.224759,64289,1668678581,224408628,,-0.49217437152935195,-5e-324,2.3842370883754667,5e-324,-5e-324,0.0
1668678581.2344587,64290,1668678581,232378095,,-0.49217437152935195,-5e-324,2.3842370883754667,5e-324,-5e-324,0.0
1668678581.2407324,64291,1668678581,240465724,,-0.4850091366444922,-5e-324,2.3786094220601974,5e-324,-5e-324,0.0
1668678581.2491667,64292,1668678581,248899717,,-0.42502149280725005,-5e-324,2.3756238649538126,5e-324,-5e-324,0.0
1668678581.256676,64293,1668678581,256428369,,-0.3878564884459851,-5e-324,2.369365812315345,5e-324,-5e-324,0.0
1668678581.2645984,64294,1668678581,264323818,,-0.3878564884459851,-5e-324,2.369365812315345,5e-324,-5e-324,0.0
1668678581.272591,64295,1668678581,272364851,,-0.36817096636307656,-5e-324,2.3660623272487804,5e-324,-5e-324,0.0
1668678581.2818968,64296,1668678581,281492159,,-0.33361279032573876,-5e-324,2.340150462694873,5e-324,-5e-324,0.0
1668678581.2894077,64297,1668678581,289105514,,-0.2878223340379844,-5e-324,2.3313247171905433,5e-324,-5e-324,0.0
1668678581.2979167,64298,1668678581,297375592,,-0.2635740299498195,-5e-324,2.326667895684154,5e-324,-5e-324,0.0
1668678581.3046987,64299,1668678581,304455554,,-0.26732432807949746,-5e-324,2.3146639649589043,5e-324,-5e-324,0.0
1668678581.3123102,64300,1668678581,312106642,,-0.26732432807949746,-5e-324,2.3146639649589043,5e-324,-5e-324,0.0
1668678581.321155,64301,1668678581,320945771,,-0.26931255194312437,-5e-324,2.308313779518034,5e-324,-5e-324,0.0
1668678581.329508,64302,1668678581,329185550,,-0.24753437094846376,-5e-324,2.2957803282640326,5e-324,-5e-324,0.0
1668678581.3371298,64303,1668678581,336871092,,-0.2116700159053761,-5e-324,2.302625934737473,5e-324,-5e-324,0.0
1668678581.3455966,64304,1668678581,345317466,,-0.19264052984364374,-5e-324,2.3062656033923625,5e-324,-5e-324,0.0
1668678581.3528457,64305,1668678581,352551210,,-0.19264052984364374,-5e-324,2.3062656033923625,5e-324,-5e-324,0.0
1668678581.3616664,64306,1668678581,361341317,,-0.15543523854805077,-5e-324,2.285337469672233,5e-324,-5e-324,0.0
1668678581.3694754,64307,1668678581,369232894,,-0.19514980454480246,-5e-324,2.3022106616390294,5e-324,-5e-324,0.0
1668678581.3773549,64308,1668678581,377069321,,-0.2162158477844518,-5e-324,2.3111138508949267,5e-324,-5e-324,0.0
1668678581.3853607,64309,1668678581,385009734,,-0.20999685795259443,-5e-324,2.316012732962264,5e-324,-5e-324,0.0
1668678581.3943474,64310,1668678581,393943343,,-0.20999685795259443,-5e-324,2.316012732962264,5e-324,-5e-324,0.0
1668678581.4012558,64311,1668678581,400889383,,-0.2067219885224118,-5e-324,2.3186027003300036,5e-324,-5e-324,0.0
1668678581.4086356,64312,1668678581,408392452,,-0.18488663573786465,-5e-324,2.267658301867715,5e-324,-5e-324,0.0
1668678581.4170446,64313,1668678581,416793416,,-0.1732613188851338,-5e-324,2.2313394240663986,5e-324,-5e-324,0.0
1668678581.425115,64314,1668678581,424740102,,-0.16720847614933607,-5e-324,2.2120893875221705,5e-324,-5e-324,0.0
1668678581.4323647,64315,1668678581,432125605,,-0.16720847614933607,-5e-324,2.2120893875221705,5e-324,-5e-324,0.0
1668678581.440555,64316,1668678581,440335502,,-0.11399623321323162,-5e-324,2.2300245552976943,5e-324,-5e-324,0.0
1668678581.4486496,64317,1668678581,448423165,,-0.09249488418834566,-5e-324,2.2158057921375995,5e-324,-5e-324,0.0
1668678581.4583657,64318,1668678581,457357385,,-0.08100776022605324,-5e-324,2.2083300249834092,5e-324,-5e-324,0.0
1668678581.4662871,64319,1668678581,464345872,,-0.06942036023638573,-5e-324,2.2138055176820615,5e-324,-5e-324,0.0
1668678581.4722202,64320,1668678581,471981254,,-0.06942036023638573,-5e-324,2.2138055176820615,5e-324,-5e-324,0.0
1668678581.4805756,64321,1668678581,480339600,,-0.06331284896672466,-5e-324,2.2166916307651015,5e-324,-5e-324,0.0
1668678581.4892442,64322,1668678581,488908909,,-0.06203986345697625,-5e-324,2.223240860217919,5e-324,-5e-324,0.0
1668678581.49664,64323,1668678581,496379344,,-0.04455805544159257,-5e-324,2.2263493822266094,5e-324,-5e-324,0.0
1668678581.50454,64324,1668678581,504326894,,-0.03538185320069932,-5e-324,2.2279696079462123,5e-324,-5e-324,0.0
1668678581.51233,64325,1668678581,512063514,,-0.03538185320069932,-5e-324,2.2279696079462123,5e-324,-5e-324,0.0
1668678581.5207853,64326,1668678581,520475251,,-0.07483690443173197,-5e-324,2.219603894338124,5e-324,-5e-324,0.0
1668678581.5283895,64327,1668678581,528209891,,-0.05313628852745081,-5e-324,2.2242332821628152,5e-324,-5e-324,0.0
1668678581.5366337,64328,1668678581,536388067,,-0.04163102729309805,-5e-324,2.2266896876419984,5e-324,-5e-324,0.0
1668678581.544554,64329,1668678581,544279556,,-0.04163102729309805,-5e-324,2.2266896876419984,5e-324,-5e-324,0.0
1668678581.5530837,64330,1668678581,552772101,,-0.028847722276353883,-5e-324,2.2464444794962257,5e-324,-5e-324,0.0
1668678581.5612388,64331,1668678581,560906716,,-0.022116450876644426,-5e-324,2.256888409288938,5e-324,-5e-324,0.0
1668678581.5687928,64332,1668678581,568554832,,-0.013908565618632551,-5e-324,2.267069269499589,5e-324,-5e-324,0.0
1668678581.5766938,64333,1668678581,576453206,,-0.00960857131681938,-5e-324,2.2724406183291856,5e-324,-5e-324,0.0
1668678581.5851645,64334,1668678581,584759144,,-0.007273183461163664,-5e-324,2.2752993082347133,5e-324,-5e-324,0.0
1668678581.5921767,64335,1668678581,591951606,,-0.007273183461163664,-5e-324,2.2752993082347133,5e-324,-5e-324,0.0
1668678581.6006234,64336,1668678581,600415043,,-0.03159469964126875,-5e-324,2.2956556432281214,5e-324,-5e-324,0.0
1668678581.608544,64337,1668678581,608359016,,-0.037969215961331654,-5e-324,2.3060238162820466,5e-324,-5e-324,0.0
1668678581.616915,64338,1668678581,616604268,,-0.04126437112884951,-5e-324,2.3115334742196634,5e-324,-5e-324,0.0
1668678581.624775,64339,1668678581,624442256,,-0.021832063036398112,-5e-324,2.300252545695665,5e-324,-5e-324,0.0
1668678581.6322694,64340,1668678581,632055170,,-0.021832063036398112,-5e-324,2.300252545695665,5e-324,-5e-324,0.0
1668678581.6405528,64341,1668678581,640335000,,-0.011550860061260552,-5e-324,2.294303352416091,5e-324,-5e-324,0.0
1668678581.6489046,64342,1668678581,648537295,,-0.006111303724819051,-5e-324,2.2903460641265263,5e-324,-5e-324,0.0
1668678581.6567736,64343,1668678581,656535731,,-0.0032333551803857105,-5e-324,2.278058261229513,5e-324,-5e-324,0.0
1668678581.6642246,64344,1668678581,664015096,,-0.0032333551803857105,-5e-324,2.278058261229513,5e-324,-5e-324,0.0
1668678581.6725907,64345,1668678581,672343295,,-0.0017106964721895998,-5e-324,2.2715673133873526,5e-324,-5e-324,0.0
1668678581.6812303,64346,1668678581,680552856,,-0.0009050915401174203,-5e-324,2.230574974414862,5e-324,-5e-324,0.0
1668678581.6890032,64347,1668678581,688651750,,-0.0004788638483269938,-5e-324,2.1854230094159575,5e-324,-5e-324,0.0
1668678581.696653,64348,1668678581,696352150,,-0.00025335623533149907,-5e-324,2.1615370261885998,5e-324,-5e-324,0.0
1668678581.7048497,64349,1668678581,704594626,,-0.0001340451617001541,-5e-324,2.1721761973878078,5e-324,-5e-324,0.0
1668678581.7128599,64350,1668678581,712441410,,-0.0001340451617001541,-5e-324,2.1721761973878078,5e-324,-5e-324,0.0
1668678581.7207675,64351,1668678581,720519736,,-7.09203203612117e-05,-5e-324,2.177814368127178,5e-324,-5e-324,0.0
1668678581.728731,64352,1668678581,728482674,,-3.7522367658355526e-05,-5e-324,2.181700332220494,5e-324,-5e-324,0.0
1668678581.7366896,64353,1668678581,736443482,,-1.98522520416989e-05,-5e-324,2.1877742749752835,5e-324,-5e-324,0.0
1668678581.7446291,64354,1668678581,744284142,,-1.98522520416989e-05,-5e-324,2.1877742749752835,5e-324,-5e-324,0.0
1668678581.7527468,64355,1668678581,752470651,,-1.0503385999400726e-05,-5e-324,2.190982030295164,5e-324,-5e-324,0.0
1668678581.760665,64356,1668678581,760446987,,-5.557108443952953e-06,-5e-324,2.1789413167946203,5e-324,-5e-324,0.0
1668678581.7685158,64357,1668678581,768288286,,-2.940142755832753e-06,-5e-324,2.1904156408776574,5e-324,-5e-324,0.0
1668678581.7770612,64358,1668678581,776741368,,-1.5555642852502522e-06,-5e-324,2.1965075550295534,5e-324,-5e-324,0.0
1668678581.7845526,64359,1668678581,784334008,,-8.230145426597697e-07,-5e-324,2.185525081836296,5e-324,-5e-324,0.0
1668678581.7921793,64360,1668678581,791998961,,-8.230145426597697e-07,-5e-324,2.185525081836296,5e-324,-5e-324,0.0
1668678581.800472,64361,1668678581,800302500,,-4.354387304029035e-07,-5e-324,2.1797279655912307,5e-324,-5e-324,0.0
1668678581.808911,64362,1668678581,808545886,,-2.3038096911645345e-07,-5e-324,2.1534623295226045,5e-324,-5e-324,0.0
1668678581.8164291,64363,1668678581,816218366,,-1.2188945820673002e-07,-5e-324,2.135026424686998,5e-324,-5e-324,0.0
1668678581.8246608,64364,1668678581,824421873,,-6.448900739895844e-08,-5e-324,2.125288807756974,5e-324,-5e-324,0.0
1668678581.8323357,64365,1668678581,832118730,,-6.448900739895844e-08,-5e-324,2.125288807756974,5e-324,-5e-324,0.0
1668678581.8409567,64366,1668678581,840606416,,-3.41197026920027e-08,-5e-324,2.1069999614048953,5e-324,-5e-324,0.0
1668678581.849526,64367,1668678581,849051451,,-1.8051977519031536e-08,-5e-324,2.0989105106008203,5e-324,-5e-324,0.0
1668678581.8564968,64368,1668678581,856291651,,-9.550900700667636e-09,-5e-324,2.094638155573527,5e-324,-5e-324,0.0
1668678581.8656645,64369,1668678581,865420159,,-5.053169609692011e-09,-5e-324,2.0834308381217,5e-324,-5e-324,0.0
1668678581.8732052,64370,1668678581,872812141,,-5.053169609692011e-09,-5e-324,2.0834308381217,5e-324,-5e-324,0.0
1668678581.881431,64371,1668678581,881264817,,-2.6735199019009765e-09,-5e-324,2.077487277192265,5e-324,-5e-324,0.0
1668678581.8895376,64372,1668678581,889110984,,-1.4145000500579393e-09,-5e-324,2.083194141398261,5e-324,-5e-324,0.0
1668678581.8972237,64373,1668678581,897019912,,-0.004201927190775105,-5e-324,2.1106610538285837,5e-324,-5e-324,0.0
1668678581.9051807,64374,1668678581,904845364,,-0.006454744459914808,-5e-324,2.1251799923088077,5e-324,-5e-324,0.0
1668678581.912303,64375,1668678581,912060555,,-0.006454744459914808,-5e-324,2.1251799923088077,5e-324,-5e-324,0.0
1668678581.9206808,64376,1668678581,920456042,,-0.09067549759624229,-5e-324,2.157329081184061,5e-324,-5e-324,0.0
1668678581.9287512,64377,1668678581,928457663,,-0.11633001701798572,-5e-324,2.1511465252022277,5e-324,-5e-324,0.0
1668678581.9368696,64378,1668678581,936583493,,-0.12982986239687289,-5e-324,2.1479076255533585,5e-324,-5e-324,0.0
1668678581.944757,64379,1668678581,944470513,,-0.10965132291734399,-5e-324,2.122820196323863,5e-324,-5e-324,0.0
1668678581.9522483,64380,1668678581,952032156,,-0.10965132291734399,-5e-324,2.122820196323863,5e-324,-5e-324,0.0
1668678581.9605482,64381,1668678581,960322746,,-0.09893415574547815,-5e-324,2.1095700317456436,5e-324,-5e-324,0.0
1668678581.969021,64382,1668678581,968724148,,-0.09787143129751803,-5e-324,2.0879384075439402,5e-324,-5e-324,0.0
1668678581.9768336,64383,1668678581,976576819,,-0.12779794590008714,-5e-324,2.091152350579741,5e-324,-5e-324,0.0
1668678581.9842603,64384,1668678581,984027649,,-0.12779794590008714,-5e-324,2.091152350579741,5e-324,-5e-324,0.0
1668678581.9926207,64385,1668678581,992415794,,-0.14359437346573173,-5e-324,2.0928594939728153,5e-324,-5e-324,0.0
1668678582.0019352,64386,1668678582,1246750,,-0.26447155540512873,-5e-324,2.192577756935307,5e-324,-5e-324,0.0
1668678582.009086,64387,1668678582,8825791,,-0.33495141322376465,-5e-324,2.2785894180373916,5e-324,-5e-324,0.0
1668678582.0180728,64388,1668678582,17704060,,-0.3721976122598295,-5e-324,2.324119523935866,5e-324,-5e-324,0.0
1668678582.0253332,64389,1668678582,25046338,,-0.40106841662356874,-5e-324,2.362427205302736,5e-324,-5e-324,0.0
1668678582.033527,64390,1668678582,33022608,,-0.40106841662356874,-5e-324,2.362427205302736,5e-324,-5e-324,0.0
1668678582.040568,64391,1668678582,40327501,,-0.4162995254674522,-5e-324,2.3827086323367936,5e-324,-5e-324,0.0
1668678582.0483515,64392,1668678582,48157867,,-0.4387260952722981,-5e-324,2.3924889867111094,5e-324,-5e-324,0.0
1668678582.0565643,64393,1668678582,56281101,,-0.4744883389375104,-5e-324,2.407259088606417,5e-324,-5e-324,0.0
1668678582.0651784,64394,1668678582,64744596,,-0.4934764174998778,-5e-324,2.4150434015631603,5e-324,-5e-324,0.0
1668678582.0722415,64395,1668678582,72056053,,-0.4934764174998778,-5e-324,2.4150434015631603,5e-324,-5e-324,0.0
1668678582.0805197,64396,1668678582,80321299,,-0.49034459555088544,-5e-324,2.4471701082549506,5e-324,-5e-324,0.0
1668678582.0885694,64397,1668678582,88340282,,-0.46196687792134156,-5e-324,2.464305774420345,5e-324,-5e-324,0.0
1668678582.0968096,64398,1668678582,96521512,,-0.44697523194933364,-5e-324,2.473361193166892,5e-324,-5e-324,0.0
1668678582.1042967,64399,1668678582,104086254,,-0.44697523194933364,-5e-324,2.473361193166892,5e-324,-5e-324,0.0
1668678582.112666,64400,1668678582,112339350,,-0.4009199103244659,-5e-324,2.403143379165112,5e-324,-5e-324,0.0
1668678582.1203897,64401,1668678582,120217667,,-0.3765384270316402,-5e-324,2.365991766642905,5e-324,-5e-324,0.0
1668678582.1288893,64402,1668678582,128557379,,-0.30515630155185136,-5e-324,2.3355880121660926,5e-324,-5e-324,0.0
1668678582.136777,64403,1668678582,136523480,,-0.26655616362825335,-5e-324,2.3054855224478663,5e-324,-5e-324,0.0
1668678582.1446867,64404,1668678582,144470715,,-0.24631403933209262,-5e-324,2.2894923184778886,5e-324,-5e-324,0.0
1668678582.1527915,64405,1668678582,152515999,,-0.24631403933209262,-5e-324,2.2894923184778886,5e-324,-5e-324,0.0
1668678582.1609783,64406,1668678582,160633398,,-0.23020728680950947,-5e-324,2.2769115900592727,5e-324,-5e-324,0.0
1668678582.1686666,64407,1668678582,168356154,,-0.17676689455189196,-5e-324,2.2559858328147566,5e-324,-5e-324,0.0
1668678582.176626,64408,1668678582,176355439,,-0.14839821677460024,-5e-324,2.2449486699538945,5e-324,-5e-324,0.0
1668678582.1842704,64409,1668678582,184067037,,-0.14839821677460024,-5e-324,2.2449486699538945,5e-324,-5e-324,0.0
1668678582.192962,64410,1668678582,192611908,,-0.13958290680579227,-5e-324,2.2892309029470788,5e-324,-5e-324,0.0
1668678582.2006772,64411,1668678582,200511097,,-0.1348929292597956,-5e-324,2.312668838432219,5e-324,-5e-324,0.0
1668678582.2086606,64412,1668678582,208481272,,-0.15694366025870216,-5e-324,2.3816268821226543,5e-324,-5e-324,0.0
1668678582.216444,64413,1668678582,216193298,,-0.1981786676964366,-5e-324,2.4804163183385506,5e-324,-5e-324,0.0
1668678582.224627,64414,1668678582,224325474,,-0.1981786676964366,-5e-324,2.4804163183385506,5e-324,-5e-324,0.0
1668678582.2324886,64415,1668678582,232304708,,-0.21998181733623035,-5e-324,2.532685583308611,5e-324,-5e-324,0.0
1668678582.240726,64416,1668678582,240473662,,-0.31497400440630857,-5e-324,2.6506345279594123,5e-324,-5e-324,0.0
1668678582.2485957,64417,1668678582,248336176,,-0.3688480310242407,-5e-324,2.750784743494555,5e-324,-5e-324,0.0
1668678582.2572722,64418,1668678582,256960111,,-0.3972963566031118,-5e-324,2.803795132021926,5e-324,-5e-324,0.0
1668678582.264554,64419,1668678582,264361243,,-0.4293996359881232,-5e-324,2.746995256565472,5e-324,-5e-324,0.0
1668678582.2723014,64420,1668678582,272046510,,-0.4293996359881232,-5e-324,2.746995256565472,5e-324,-5e-324,0.0
1668678582.280627,64421,1668678582,280402268,,-0.4464011749772374,-5e-324,2.716937705947374,5e-324,-5e-324,0.0
1668678582.2889705,64422,1668678582,288714583,,-0.4030787339996135,-5e-324,2.6755738259129305,5e-324,-5e-324,0.0
1668678582.2965174,64423,1668678582,296243092,,-0.3784221384589378,-5e-324,2.6585535892575836,5e-324,-5e-324,0.0
1668678582.3046324,64424,1668678582,304391675,,-0.3654624387707387,-5e-324,2.6495166500745393,5e-324,-5e-324,0.0
1668678582.3128302,64425,1668678582,312645919,,-0.3654624387707387,-5e-324,2.6495166500745393,5e-324,-5e-324,0.0
1668678582.3211353,64426,1668678582,320711800,,-0.3777489009649468,-5e-324,2.6684164442520695,5e-324,-5e-324,0.0
1668678582.3294618,64427,1668678582,329078655,,-0.3914548677228187,-5e-324,2.6876144859041053,5e-324,-5e-324,0.0
1668678582.3366764,64428,1668678582,336433494,,-0.39859719818877426,-5e-324,2.6978106064121326,5e-324,-5e-324,0.0
1668678582.3444793,64429,1668678582,344262601,,-0.45996838805562584,-5e-324,2.764217715019769,5e-324,-5e-324,0.0
1668678582.3526263,64430,1668678582,352354867,,-0.45996838805562584,-5e-324,2.764217715019769,5e-324,-5e-324,0.0
1668678582.3605218,64431,1668678582,360236239,,-0.4924633483490004,-5e-324,2.799346102869488,5e-324,-5e-324,0.0
1668678582.3685007,64432,1668678582,368258523,,-0.5632211366681739,-5e-324,2.828160190350395,5e-324,-5e-324,0.0
1668678582.3765962,64433,1668678582,376365644,,-0.598784258855485,-5e-324,2.8624093165817337,5e-324,-5e-324,0.0
1668678582.386656,64434,1668678582,384732393,,-0.6176486833217322,-5e-324,2.880507587266128,5e-324,-5e-324,0.0
1668678582.392252,64435,1668678582,392055270,,-0.6176486833217322,-5e-324,2.880507587266128,5e-324,-5e-324,0.0
1668678582.4005036,64436,1668678582,400287282,,-0.7185786751710339,-5e-324,2.9231365942631835,5e-324,-5e-324,0.0
1668678582.4086719,64437,1668678582,408455429,,-0.7172318955831885,-5e-324,2.9177848900900267,5e-324,-5e-324,0.0
1668678582.4167435,64438,1668678582,416480926,,-0.7164318704816258,-5e-324,2.9149916588224483,5e-324,-5e-324,0.0
1668678582.4246006,64439,1668678582,424379178,,-0.6616485209231686,-5e-324,2.8578702176908317,5e-324,-5e-324,0.0
1668678582.4321542,64440,1668678582,431921882,,-0.6616485209231686,-5e-324,2.8578702176908317,5e-324,-5e-324,0.0
1668678582.440547,64441,1668678582,440352312,,-0.6325615579737602,-5e-324,2.8276898797701397,5e-324,-5e-324,0.0
1668678582.449734,64442,1668678582,449138942,,-0.5195935982058116,-5e-324,2.7149676987599083,5e-324,-5e-324,0.0
1668678582.45644,64443,1668678582,456197627,,-0.41310902903672486,-5e-324,2.6177680367441987,5e-324,-5e-324,0.0
1668678582.4647074,64444,1668678582,464477712,,-0.3567868586099213,-5e-324,2.5663563966316802,5e-324,-5e-324,0.0
1668678582.472515,64445,1668678582,472334901,,-0.3567868586099213,-5e-324,2.5663563966316802,5e-324,-5e-324,0.0
1668678582.4809816,64446,1668678582,480650615,,-0.21898451009108877,-5e-324,2.5261521885892675,5e-324,-5e-324,0.0
1668678582.4884908,64447,1668678582,488304043,,-0.1407982543765419,-5e-324,2.495993781992622,5e-324,-5e-324,0.0
1668678582.4964552,64448,1668678582,496255735,,-0.09945085314726754,-5e-324,2.4800465823441957,5e-324,-5e-324,0.0
1668678582.504429,64449,1668678582,504238503,,-0.08062287903346514,-5e-324,2.4294743405731376,5e-324,-5e-324,0.0
1668678582.5125318,64450,1668678582,512229028,,-0.08062287903346514,-5e-324,2.4294743405731376,5e-324,-5e-324,0.0
1668678582.5209565,64451,1668678582,520582770,,-0.07071393304941251,-5e-324,2.402708554027114,5e-324,-5e-324,0.0
1668678582.528588,64452,1668678582,528387094,,-0.08996277576755454,-5e-324,2.368831120348594,5e-324,-5e-324,0.0
1668678582.5365627,64453,1668678582,536353646,,-0.12968086453913352,-5e-324,2.3650876395178546,5e-324,-5e-324,0.0
1668678582.5459802,64454,1668678582,545413841,,-0.15066178410219822,-5e-324,2.363118854800206,5e-324,-5e-324,0.0
1668678582.5523736,64455,1668678582,552150516,,-0.15066178410219822,-5e-324,2.363118854800206,5e-324,-5e-324,0.0
1668678582.560546,64456,1668678582,560362696,,-0.1603048500334875,-5e-324,2.42344628037668,5e-324,-5e-324,0.0
1668678582.5684931,64457,1668678582,568276584,,-0.16081054202951484,-5e-324,2.4693738680428483,5e-324,-5e-324,0.0
1668678582.577013,64458,1668678582,576459968,,-0.16109699263290578,-5e-324,2.4936692640307587,5e-324,-5e-324,0.0
1668678582.5847661,64459,1668678582,584478955,,-0.18061617504829575,-5e-324,2.5400751283846423,5e-324,-5e-324,0.0
1668678582.5923562,64460,1668678582,592097976,,-0.18061617504829575,-5e-324,2.5400751283846423,5e-324,-5e-324,0.0
1668678582.6008198,64461,1668678582,600525795,,-0.1910770766442653,-5e-324,2.5645534590345247,5e-324,-5e-324,0.0
1668678582.609191,64462,1668678582,608821065,,-0.22190705468893918,-5e-324,2.545158866601954,5e-324,-5e-324,0.0
1668678582.6167445,64463,1668678582,616549942,,-0.2056395297284841,-5e-324,2.5293360547323704,5e-324,-5e-324,0.0
1668678582.624283,64464,1668678582,624000543,,-0.2056395297284841,-5e-324,2.5293360547323704,5e-324,-5e-324,0.0
1668678582.6326635,64465,1668678582,632407776,,-0.1971023802824021,-5e-324,2.5209336192128298,5e-324,-5e-324,0.0
1668678582.6409528,64466,1668678582,640684332,,-0.10428249536416699,-5e-324,2.5678723065970726,5e-324,-5e-324,0.0
1668678582.6484947,64467,1668678582,648265063,,-0.10496852598769324,-5e-324,2.582933923804456,5e-324,-5e-324,0.0
1668678582.6565847,64468,1668678582,656349922,,-0.10530855699613473,-5e-324,2.590904850101798,5e-324,-5e-324,0.0
1668678582.6646137,64469,1668678582,664370681,,-0.08485813891685137,-5e-324,2.5418451646771167,5e-324,-5e-324,0.0
1668678582.6724699,64470,1668678582,672182222,,-0.08485813891685137,-5e-324,2.5418451646771167,5e-324,-5e-324,0.0
1668678582.6804852,64471,1668678582,680282809,,-0.0739825871715717,-5e-324,2.5159222206996787,5e-324,-5e-324,0.0
1668678582.6886744,64472,1668678582,688419536,,-0.05388423774513987,-5e-324,2.4817295735981153,5e-324,-5e-324,0.0
1668678582.6963878,64473,1668678582,696201255,,-0.05154079862430117,-5e-324,2.43510019275035,5e-324,-5e-324,0.0
1668678582.7048743,64474,1668678582,704605039,,-0.05021529510542525,-5e-324,2.4104762138714912,5e-324,-5e-324,0.0
1668678582.7124362,64475,1668678582,712179056,,-0.05021529510542525,-5e-324,2.4104762138714912,5e-324,-5e-324,0.0
1668678582.7205567,64476,1668678582,720338827,,-0.07718998689953838,-5e-324,2.4626014871715602,5e-324,-5e-324,0.0
1668678582.7285128,64477,1668678582,728300591,,-0.15189704175255989,-5e-324,2.5179720367491907,5e-324,-5e-324,0.0
1668678582.737113,64478,1668678582,736715012,,-0.19140962341078954,-5e-324,2.547272777643776,5e-324,-5e-324,0.0
1668678582.7444923,64479,1668678582,744225495,,-0.27018038687788526,-5e-324,2.586113921657835,5e-324,-5e-324,0.0
1668678582.752128,64480,1668678582,751900269,,-0.27018038687788526,-5e-324,2.586113921657835,5e-324,-5e-324,0.0
1668678582.7605515,64481,1668678582,760267171,,-0.31188315007628614,-5e-324,2.606654198955582,5e-324,-5e-324,0.0
1668678582.7697089,64482,1668678582,768719921,,-0.3176547839127015,-5e-324,2.6019768673448294,5e-324,-5e-324,0.0
1668678582.7771685,64483,1668678582,776750327,,-0.32349016949140885,-5e-324,2.5804000994576506,5e-324,-5e-324,0.0
1668678582.7846546,64484,1668678582,784418325,,-0.3266237886255937,-5e-324,2.568976682944413,5e-324,-5e-324,0.0
1668678582.792089,64485,1668678582,791889517,,-0.3266237886255937,-5e-324,2.568976682944413,5e-324,-5e-324,0.0
1668678582.8012536,64486,1668678582,800937056,,-0.3063440275488304,-5e-324,2.539567347342505,5e-324,-5e-324,0.0
1668678582.8087292,64487,1668678582,808438522,,-0.30856987370778094,-5e-324,2.5195619915279357,5e-324,-5e-324,0.0
1668678582.8165665,64488,1668678582,816425329,,-0.3097359217881872,-5e-324,2.508980091778623,5e-324,-5e-324,0.0
1668678582.8242512,64489,1668678582,824029621,,-0.3097359217881872,-5e-324,2.508980091778623,5e-324,-5e-324,0.0
1668678582.835016,64490,1668678582,834779282,,-0.29925866264029133,-5e-324,2.508183031603229,5e-324,-5e-324,0.0
1668678582.8405344,64491,1668678582,840293271,,-0.29374522048507223,-5e-324,2.507744410938682,5e-324,-5e-324,0.0
1668678582.848511,64492,1668678582,848302667,,-0.3439034973695291,-5e-324,2.5135806932465354,5e-324,-5e-324,0.0
1668678582.8567054,64493,1668678582,856506356,,-0.4095347985076423,-5e-324,2.507952364073736,5e-324,-5e-324,0.0
1668678582.8645732,64494,1668678582,864247853,,-0.4095347985076423,-5e-324,2.507952364073736,5e-324,-5e-324,0.0
1668678582.87257,64495,1668678582,872343310,,-0.44423341449983766,-5e-324,2.5049858583725126,5e-324,-5e-324,0.0
1668678582.8805974,64496,1668678582,880385609,,-0.455224798920871,-5e-324,2.491090280870985,5e-324,-5e-324,0.0
1668678582.8886158,64497,1668678582,888379861,,-0.4853341463430228,-5e-324,2.4843696827781523,5e-324,-5e-324,0.0
1668678582.8971627,64498,1668678582,896782567,,-0.5012611056355396,-5e-324,2.4808223198476487,5e-324,-5e-324,0.0
1668678582.9046824,64499,1668678582,904456331,,-0.5617163989595044,-5e-324,2.489261096779746,5e-324,-5e-324,0.0
1668678582.9125578,64500,1668678582,912166751,,-0.5617163989595044,-5e-324,2.489261096779746,5e-324,-5e-324,0.0
1668678582.9210365,64501,1668678582,920591680,,-0.593700632776553,-5e-324,2.4937271864146973,5e-324,-5e-324,0.0
1668678582.9291205,64502,1668678582,928671783,,-0.6004411168160795,-5e-324,2.5008201867779594,5e-324,-5e-324,0.0
1668678582.9369485,64503,1668678582,936702886,,-0.6199854325341504,-5e-324,2.5102830735872748,5e-324,-5e-324,0.0
1668678582.9441445,64504,1668678582,943931215,,-0.6199854325341504,-5e-324,2.5102830735872748,5e-324,-5e-324,0.0
1668678582.952587,64505,1668678582,952343817,,-0.6303914619536035,-5e-324,2.5152655389432557,5e-324,-5e-324,0.0
1668678582.9619613,64506,1668678582,961486246,,-0.5428932237101214,-5e-324,2.518023369129287,5e-324,-5e-324,0.0
1668678582.9687214,64507,1668678582,968487866,,-0.4596096523247599,-5e-324,2.519049487071123,5e-324,-5e-324,0.0
1668678582.9767165,64508,1668678582,976409348,,-0.41562506931456666,-5e-324,2.5195647721113126,5e-324,-5e-324,0.0
1668678582.9845695,64509,1668678582,984378448,,-0.3906371568401483,-5e-324,2.5206258044220737,5e-324,-5e-324,0.0
1668678582.9930346,64510,1668678582,992714770,,-0.3906371568401483,-5e-324,2.5206258044220737,5e-324,-5e-324,0.0
1668678583.0006032,64511,1668678583,421728,,-0.37756054202162503,-5e-324,2.52111176762413,5e-324,-5e-324,0.0
1668678583.0086482,64512,1668678583,8445515,,-0.3157836589782312,-5e-324,2.5269986040474413,5e-324,-5e-324,0.0
1668678583.0166254,64513,1668678583,16413681,,-0.233127132640617,-5e-324,2.5581994226821454,5e-324,-5e-324,0.0
1668678583.0251324,64514,1668678583,24773280,,-0.233127132640617,-5e-324,2.5581994226821454,5e-324,-5e-324,0.0
1668678583.0328615,64515,1668678583,32617054,,-0.18928576933625169,-5e-324,2.5747454397913483,5e-324,-5e-324,0.0
1668678583.040464,64516,1668678583,40221234,,-0.10014689997669614,-5e-324,2.587666974197483,5e-324,-5e-324,0.0
1668678583.048839,64517,1668678583,48568060,,-0.06855970476605985,-5e-324,2.589256573244506,5e-324,-5e-324,0.0
1668678583.0574615,64518,1668678583,57109498,,-0.05201470856305733,-5e-324,2.590029702902221,5e-324,-5e-324,0.0
1668678583.0644028,64519,1668678583,64134993,,-0.05201470856305733,-5e-324,2.590029702902221,5e-324,-5e-324,0.0
1668678583.0726457,64520,1668678583,72394395,,-0.027519828004227375,-5e-324,2.58604965470004,5e-324,-5e-324,0.0
1668678583.0809076,64521,1668678583,80645413,,-0.014560130284381665,-5e-324,2.5839292169678085,5e-324,-5e-324,0.0
1668678583.0893476,64522,1668678583,88903496,,-0.007703441818953329,-5e-324,2.6054313475994446,5e-324,-5e-324,0.0
1668678583.096729,64523,1668678583,96523409,,-0.004075720113689844,-5e-324,2.6307722163416365,5e-324,-5e-324,0.0
1668678583.1042755,64524,1668678583,104087493,,-0.004075720113689844,-5e-324,2.6307722163416365,5e-324,-5e-324,0.0
1668678583.1126127,64525,1668678583,112421765,,-0.0021563730648637477,-5e-324,2.644192243494257,5e-324,-5e-324,0.0
1668678583.1211417,64526,1668678583,120868543,,-0.0011408891349656907,-5e-324,2.6458337640139726,5e-324,-5e-324,0.0
1668678583.1285112,64527,1668678583,128303781,,-0.0006036191230041201,-5e-324,2.627257712127931,5e-324,-5e-324,0.0
1668678583.136514,64528,1668678583,136285021,,-0.00031936148262751244,-5e-324,2.617403807757916,5e-324,-5e-324,0.0
1668678583.1445625,64529,1668678583,144362293,,-0.0001689670732736987,-5e-324,2.616946947336862,5e-324,-5e-324,0.0
1668678583.152604,64530,1668678583,152241487,,-0.0001689670732736987,-5e-324,2.616946947336862,5e-324,-5e-324,0.0
1668678583.160546,64531,1668678583,160310391,,-8.939672879706234e-05,-5e-324,2.616671876397633,5e-324,-5e-324,0.0
1668678583.1687448,64532,1668678583,168511244,,-4.7297825338254884e-05,-5e-324,2.648759916477932,5e-324,-5e-324,0.0
1668678583.1764667,64533,1668678583,176223087,,-2.502422976579405e-05,-5e-324,2.6850564820715865,5e-324,-5e-324,0.0
1668678583.1848648,64534,1668678583,184523373,,-1.323976463807454e-05,-5e-324,2.7042594766077688,5e-324,-5e-324,0.0
1668678583.1924257,64535,1668678583,192243416,,-1.323976463807454e-05,-5e-324,2.7042594766077688,5e-324,-5e-324,0.0
1668678583.2007215,64536,1668678583,200479522,,-7.0048656566931436e-06,-5e-324,2.7626258100703827,5e-324,-5e-324,0.0
1668678583.2087662,64537,1668678583,208511220,,-0.04150903866823973,-5e-324,2.808080760104521,5e-324,-5e-324,0.0
1668678583.217076,64538,1668678583,216808271,,-0.06342786208019101,-5e-324,2.8321314851196737,5e-324,-5e-324,0.0
1668678583.2243915,64539,1668678583,224127296,,-0.06342786208019101,-5e-324,2.8321314851196737,5e-324,-5e-324,0.0
1668678583.2324288,64540,1668678583,232242481,,-0.21708839766339205,-5e-324,2.864853176158187,5e-324,-5e-324,0.0
1668678583.2405972,64541,1668678583,240439758,,-0.298506982832881,-5e-324,2.8821324028470516,5e-324,-5e-324,0.0
1668678583.2488153,64542,1668678583,248566331,,-0.4784732962155165,-5e-324,2.911764481010052,5e-324,-5e-324,0.0
1668678583.2564826,64543,1668678583,256266816,,-0.5967576532948771,-5e-324,2.9371238844326313,5e-324,-5e-324,0.0
1668678583.2646217,64544,1668678583,264365611,,-0.5967576532948771,-5e-324,2.9371238844326313,5e-324,-5e-324,0.0
1668678583.2725074,64545,1668678583,272255544,,-0.6594760616367563,-5e-324,2.950443998743852,5e-324,-5e-324,0.0
1668678583.280999,64546,1668678583,280684962,,-0.7512187124887627,-5e-324,3.024243222411669,5e-324,-5e-324,0.0
1668678583.2886455,64547,1668678583,288366451,,-0.8249934971363526,-5e-324,3.063806965318014,5e-324,-5e-324,0.0
1668678583.2965217,64548,1668678583,296284766,,-0.8640173528684787,-5e-324,3.0847159972077063,5e-324,-5e-324,0.0
1668678583.3046474,64549,1668678583,304421831,,-0.876190201866625,-5e-324,3.1097612974179607,5e-324,-5e-324,0.0
1668678583.3125114,64550,1668678583,312252528,,-0.876190201866625,-5e-324,3.1097612974179607,5e-324,-5e-324,0.0
1668678583.3206105,64551,1668678583,320376294,,-0.8828116111600128,-5e-324,3.122886336943796,5e-324,-5e-324,0.0
1668678583.3285983,64552,1668678583,328371496,,-0.8123329943261104,-5e-324,3.091496932706311,5e-324,-5e-324,0.0
1668678583.3367689,64553,1668678583,336538298,,-0.7098074619915453,-5e-324,3.0177601358515114,5e-324,-5e-324,0.0
1668678583.3453908,64554,1668678583,345052062,,-0.6554647786519316,-5e-324,2.9788193488872343,5e-324,-5e-324,0.0
1668678583.3529165,64555,1668678583,352645411,,-0.6554647786519316,-5e-324,2.9788193488872343,5e-324,-5e-324,0.0
1668678583.3606439,64556,1668678583,360447164,,-0.5523413602071353,-5e-324,2.8487147552173617,5e-324,-5e-324,0.0
1668678583.368814,64557,1668678583,368625805,,-0.4572462270269064,-5e-324,2.7698930947764167,5e-324,-5e-324,0.0
1668678583.3779137,64558,1668678583,377304436,,-0.40694922397545663,-5e-324,2.72817010057448,5e-324,-5e-324,0.0
1668678583.3845654,64559,1668678583,384373659,,-0.31799554593994883,-5e-324,2.6712319392984654,5e-324,-5e-324,0.0
1668678583.3922527,64560,1668678583,392030196,,-0.31799554593994883,-5e-324,2.6712319392984654,5e-324,-5e-324,0.0
1668678583.400443,64561,1668678583,400207638,,-0.2709460872356034,-5e-324,2.6410802179424175,5e-324,-5e-324,0.0
1668678583.4098473,64562,1668678583,409578919,,-0.26543734951059955,-5e-324,2.577715185076432,5e-324,-5e-324,0.0
1668678583.4168596,64563,1668678583,416609370,,-0.2189152224730589,-5e-324,2.5099779297596028,5e-324,-5e-324,0.0
1668678583.4244165,64564,1668678583,424158529,,-0.19432399846812357,-5e-324,2.4741324735154944,5e-324,-5e-324,0.0
1668678583.4321463,64565,1668678583,431952819,,-0.19432399846812357,-5e-324,2.4741324735154944,5e-324,-5e-324,0.0
1668678583.4409773,64566,1668678583,440625577,,-0.12543899944208156,-5e-324,2.430079612234173,5e-324,-5e-324,0.0
1668678583.448776,64567,1668678583,448501671,,-0.06636699089611418,-5e-324,2.3639096056227977,5e-324,-5e-324,0.0
1668678583.4568732,64568,1668678583,456571864,,-0.035113302084640835,-5e-324,2.3289119070583166,5e-324,-5e-324,0.0
1668678583.4651966,64569,1668678583,464963531,,-0.018577668907984676,-5e-324,2.248858320638086,5e-324,-5e-324,0.0
1668678583.473195,64570,1668678583,472851904,,-0.018577668907984676,-5e-324,2.248858320638086,5e-324,-5e-324,0.0
1668678583.4806526,64571,1668678583,480397332,,-0.009829032348560184,-5e-324,2.201412297345205,5e-324,-5e-324,0.0
1668678583.488464,64572,1668678583,488255980,,-0.0052003228923688935,-5e-324,2.1763312099766017,5e-324,-5e-324,0.0
1668678583.4964335,64573,1668678583,496255936,,-0.002751375438179064,-5e-324,2.1344732785236955,5e-324,-5e-324,0.0
1668678583.5057304,64574,1668678583,505327965,,-0.0014556916865534591,-5e-324,2.112329665201584,5e-324,-5e-324,0.0
1668678583.5124323,64575,1668678583,512127970,,-0.0014556916865534591,-5e-324,2.112329665201584,5e-324,-5e-324,0.0
1668678583.5206785,64576,1668678583,520444526,,-0.0007701741670352673,-5e-324,2.034369062045173,5e-324,-5e-324,0.0
1668678583.528544,64577,1668678583,528320272,,-0.0004074820602794479,-5e-324,1.9604303126178761,5e-324,-5e-324,0.0
1668678583.5370288,64578,1668678583,536736586,,-0.0002155897153610715,-5e-324,1.9213237305994064,5e-324,-5e-324,0.0
1668678583.5445125,64579,1668678583,544270711,,-0.00011406373408830063,-5e-324,1.817222403490804,5e-324,-5e-324,0.0
1668678583.552572,64580,1668678583,552304604,,-0.00011406373408830063,-5e-324,1.817222403490804,5e-324,-5e-324,0.0
1668678583.5606923,64581,1668678583,560433312,,-6.034859043427187e-05,-5e-324,1.7621320828707496,5e-324,-5e-324,0.0
