Time,header.seq,header.stamp.secs,header.stamp.nsecs,header.frame_id,twist.linear.x,twist.linear.y,twist.linear.z,twist.angular.x,twist.angular.y,twist.angular.z
1668680699.975452,45776,1668680699,975340429,,-8.811965280502852e-06,8.405290836768363e-10,-1.6355204367347068e-12,1.8305031349938054e-06,-7.727015328111618e-07,-9.576934501989264e-09
1668680699.9838462,45777,1668680699,983677518,,-8.078658148629277e-06,8.178333274348128e-10,-1.5030259311432856e-12,1.8264415677872743e-06,-7.677218891400285e-07,-9.52544467420863e-09
1668680699.9916115,45778,1668680699,991464578,,-7.387356262367897e-06,7.953344501900333e-10,-1.3737474090201622e-12,1.822178447436443e-06,-7.626834968557557e-07,-9.473144190130588e-09
1668680699.9997995,45779,1668680699,999647676,,-6.736104302548403e-06,7.730593262377541e-10,-1.2479203125439114e-12,1.8177159192464862e-06,-7.575874670569682e-07,-9.420046178799704e-09
1668680700.0076582,45780,1668680700,7506224,,-6.123022444004691e-06,7.510323418947329e-10,-1.1256862265837076e-12,1.8130561370037679e-06,-7.52434909398618e-07,-9.366163764552732e-09
1668680700.0154154,45781,1668680700,15295245,,-5.546304098832203e-06,7.292757664170991e-10,-1.007309207663509e-12,1.8082012626465134e-06,-7.472269319633774e-07,-9.311510074423379e-09
1668680700.0239,45782,1668680700,23581498,,-5.004213693072429e-06,7.078097937563819e-10,-8.929265704225017e-13,1.803153465930059e-06,-7.419646411385028e-07,-9.256098221474391e-09
1668680700.031717,45783,1668680700,31602941,,-4.495084479450954e-06,6.866525004379827e-10,-7.826447210530872e-13,1.7979149240696938e-06,-7.366491414787624e-07,-9.19994131139594e-09
1668680700.0399823,45784,1668680700,39867069,,-4.017316386949631e-06,6.65820081986462e-10,-6.766307674902851e-13,1.7924878214197012e-06,-7.312815355894182e-07,-9.143052450056075e-09
1668680700.0478024,45785,1668680700,47646444,,-3.5693739086735838e-06,6.453269896326327e-10,-5.748580459728667e-13,1.7868743491212142e-06,-7.258629239934631e-07,-9.085444726904803e-09
1668680700.0555267,45786,1668680700,55340084,,-3.1497840294938e-06,6.251859204319761e-10,-4.774024298274536e-13,1.7810767047836306e-06,-7.20394405008693e-07,-9.027131221575869e-09
1668680700.0636528,45787,1668680700,63476992,,-2.7571341939138944e-06,6.054080556692441e-10,-3.8432141733207423e-13,1.7750970921447636e-06,-7.14877074628633e-07,-8.968124991881753e-09
1668680700.071738,45788,1668680700,71599200,,-2.390070315470344e-06,5.860029801028311e-10,-2.956558329414045e-13,1.768937720745031e-06,-7.093120263966242e-07,-8.908439093612646e-09
1668680700.0798986,45789,1668680700,79762159,,-2.047294827881782e-06,5.669788549886296e-10,-2.113321654683117e-13,1.7626008055838777e-06,-7.03700351285573e-07,-8.84808656069851e-09
1668680700.087938,45790,1668680700,87767790,,-1.7275647787958515e-06,5.483426602660395e-10,-1.3132594700215864e-13,1.7560885668148373e-06,-6.980431375821081e-07,-8.787080409855483e-09
1668680700.0955453,45791,1668680700,95403951,,-1.429689966418107e-06,5.300999527804071e-10,-5.558280442779475e-14,1.7494032294066877e-06,-6.923414707628947e-07,-8.725433635584992e-09
1668680700.1040978,45792,1668680700,103844639,,-1.1525311192811977e-06,5.122552468455937e-10,1.5883081216886696e-14,1.7425470228294707e-06,-6.86596433385317e-07,-8.663159212513258e-09
1668680700.111718,45793,1668680700,111607022,,-8.949981193782979e-07,4.948119543921878e-10,8.317555765802967e-14,1.7355221807256033e-06,-6.808091049655782e-07,-8.600270094874398e-09
1668680700.1195958,45794,1668680700,119465714,,-6.560482688051808e-07,4.777723852769062e-10,1.4633570087806386e-13,1.7283309405943283e-06,-6.74980561866758e-07,-8.53677920706812e-09
1668680700.1275733,45795,1668680700,127398138,,-4.346845997529468e-07,4.611380218755531e-10,2.0552451634851694e-13,1.7209755434718336e-06,-6.691118771856475e-07,-8.472699459625878e-09
1668680700.1353788,45796,1668680700,135207201,,-2.299542277265749e-07,4.4490947109009116e-10,2.6072906081731183e-13,1.7134582336336215e-06,-6.632041206489395e-07,-8.408043726355054e-09
1668680700.1438007,45797,1668680700,143602320,,-4.094674814821905e-08,4.290863659123242e-10,3.121422461478352e-13,1.7057812582440175e-06,-6.572583584880795e-07,-8.342824853046452e-09
1668680700.151912,45798,1668680700,151726375,,1.3320732426480388e-07,4.1366779542177917e-10,3.5985867007003257e-13,1.6979468670842397e-06,-6.512756533431746e-07,-8.277055655194943e-09
1668680700.159874,45799,1668680700,159710424,,2.9333807362112746e-07,3.9865201637931777e-10,4.0400884053343387e-13,1.6899573122292343e-06,-6.452570641517174e-07,-8.210748918362233e-09
1668680700.1677392,45800,1668680700,167570754,,4.402376586076797e-07,3.8403673575889084e-10,4.4467392332576257e-13,1.6818148477390785e-06,-6.39203646039505e-07,-8.143917396604265e-09
1668680700.1757715,45801,1668680700,175649803,,5.746617464328208e-07,3.698189877345247e-10,4.819305082958938e-13,1.673521729358311e-06,-6.331164502203665e-07,-8.07657380859704e-09
1668680700.1834755,45802,1668680700,183285207,,6.973309055708894e-07,3.5599532193182464e-10,5.15963660360109e-13,1.6650802142050736e-06,-6.269965238859761e-07,-8.008730838315154e-09
1668680700.1918104,45803,1668680700,191664617,,8.089319576851311e-07,3.425617852503041e-10,5.468253091989227e-13,1.6564925604901016e-06,-6.208449101156985e-07,-7.940401128938825e-09
1668680700.199781,45804,1668680700,199647119,,9.101192891579635e-07,3.2951404225650155e-10,5.746636798186918e-13,1.6477610271982543e-06,-6.146626477603529e-07,-7.871597297593538e-09
1668680700.207744,45805,1668680700,207546543,,1.001516123157022e-06,3.168472945297057e-10,5.996298135028702e-13,1.6388878738091029e-06,-6.084507713574203e-07,-7.802331908493488e-09
1668680700.2155595,45806,1668680700,215455168,,1.0837157524991795e-06,3.045562887842182e-10,6.217984203929996e-13,1.6298753599905353e-06,-6.022103110212089e-07,-7.732617492422386e-09
1668680700.223348,45807,1668680700,223247012,,1.157282734313398e-06,2.9263562564071e-10,6.41331185350485e-13,1.6207257453199058e-06,-5.959422923505652e-07,-7.66246653620611e-09
1668680700.2321298,45808,1668680700,231944879,,1.2227540467936052e-06,2.8107952372429614e-10,6.583429925520719e-13,1.6114412889910533e-06,-5.896477363353815e-07,-7.591891488479303e-09
1668680700.2406785,45809,1668680700,240489818,,1.2806402091683534e-06,2.6988195865602196e-10,6.730047081539348e-13,1.6020242495229326e-06,-5.833276592591427e-07,-7.520904746093673e-09
1668680700.2479672,45810,1668680700,247755146,,1.3314263651676826e-06,2.590366541730404e-10,6.853571487530961e-13,1.5924768844880947e-06,-5.769830726119272e-07,-7.449518664144534e-09
1668680700.255794,45811,1668680700,255537191,,1.3755733311656055e-06,2.485371835771289e-10,6.955197715871094e-13,1.582801450221963e-06,-5.706149829918636e-07,-7.377745543568759e-09
1668680700.263797,45812,1668680700,263575661,,1.4135186092098543e-06,2.3837700841861045e-10,7.036431446710068e-13,1.573000201543526e-06,-5.642243920168686e-07,-7.305597650258928e-09
1668680700.271674,45813,1668680700,271457280,,1.4456773662353774e-06,2.2854915829283666e-10,7.098515326045084e-13,1.563075391481803e-06,-5.578122962361712e-07,-7.233087188133185e-09
1668680700.2796342,45814,1668680700,279442407,,1.4724433798878898e-06,2.1904689448062131e-10,7.14220886811255e-13,1.5530292710027977e-06,-5.513796870472201e-07,-7.160226320962851e-09
1668680700.287785,45815,1668680700,287641539,,1.4941899517603015e-06,2.0986325292269625e-10,7.168783653717173e-13,1.542864088736958e-06,-5.449275506054385e-07,-7.087027155022654e-09
1668680700.2955124,45816,1668680700,295335556,,1.5112707889414398e-06,2.0099114395664683e-10,7.179399115618446e-13,1.5325820907033437e-06,-5.384568677392702e-07,-7.01350174380785e-09
1668680700.303829,45817,1668680700,303668539,,1.5240208544958029e-06,1.9242344413287063e-10,7.174836332657713e-13,1.5221855200560367e-06,-5.319686138683184e-07,-6.9396620867573226e-09
1668680700.311656,45818,1668680700,311509585,,1.5327571877344409e-06,1.8415299860800747e-10,7.156074397678971e-13,1.511676616807448e-06,-5.254637589221359e-07,-6.865520125244154e-09
1668680700.3197083,45819,1668680700,319519341,,1.5377796950922074e-06,1.761726781453544e-10,7.124204846504916e-13,1.5010576175719522e-06,-5.189432672563366e-07,-6.791087751098044e-09
1668680700.328351,45820,1668680700,328143154,,1.5393719121800496e-06,1.6847523996262104e-10,7.080421361643921e-13,1.4903307553052493e-06,-5.124080975765082e-07,-6.716376802135522e-09
1668680700.3358035,45821,1668680700,335678839,,1.5378017381001147e-06,1.6105363776068294e-10,7.025018079415928e-13,1.4794982590556915e-06,-5.058592028607801e-07,-6.6413990424219556e-09
1668680700.3433533,45822,1668680700,343224046,,1.53332214237428e-06,1.539006773378242e-10,6.959650413241306e-13,1.4685623536904563e-06,-4.992975302762857e-07,-6.5661661888616134e-09
1668680700.3525078,45823,1668680700,352359753,,1.52617184565729e-06,1.4700919254518933e-10,6.885000825775904e-13,1.4575252596628779e-06,-4.927240211135588e-07,-6.490689896022645e-09
1668680700.3607228,45824,1668680700,360458551,,1.5165759746652526e-06,1.403720976865316e-10,6.801539987805561e-13,1.4463891927649159e-06,-4.861396107130622e-07,-6.414981761958737e-09
1668680700.3686833,45825,1668680700,368407388,,1.504746692184582e-06,1.3398251787053396e-10,6.710090296434327e-13,1.4351563638619588e-06,-4.795452283817376e-07,-6.339053313402556e-09
1668680700.3763943,45826,1668680700,376189483,,1.4908838029162215e-06,1.2783347094888898e-10,6.611454560166829e-13,1.4238289786585354e-06,-4.7294179733236245e-07,-6.262916018911699e-09
1668680700.3840613,45827,1668680700,383890523,,1.4751753357366513e-06,1.219180676688078e-10,6.506416718351177e-13,1.4124092374619063e-06,-4.6633023460880337e-07,-6.186581281624866e-09
1668680700.3922768,45828,1668680700,391984889,,1.457798103290509e-06,1.1622955895347598e-10,6.395229201136431e-13,1.4008993349450939e-06,-4.5971145102128313e-07,-6.110060439057304e-09
1668680700.4004073,45829,1668680700,400208254,,1.4389182394450712e-06,1.1076124252945883e-10,6.279023454096774e-13,1.389301459889402e-06,-4.53086351066974e-07,-6.03336476234017e-09
1668680700.4077241,45830,1668680700,407564852,,1.418691715316849e-06,1.0550640441382459e-10,6.157822562615852e-13,1.3776177949766336e-06,-4.464558328826787e-07,-5.9565054561866496e-09
1668680700.4156752,45831,1668680700,415537706,,1.3972648345989955e-06,1.0045864834379477e-10,6.032271768283088e-13,1.3658505165483564e-06,-4.398207881703682e-07,-5.879493658336305e-09
1668680700.4234958,45832,1668680700,423359815,,1.3747747087846874e-06,9.561154184603867e-11,5.903416917125681e-13,1.3540017943695709e-06,-4.3318210213169866e-07,-5.802340438278594e-09
1668680700.431683,45833,1668680700,431552160,,1.3513497131522121e-06,9.095881076549081e-11,5.77178210058508e-13,1.34207379141962e-06,-4.265406534136184e-07,-5.725056791970351e-09
1668680700.4396865,45834,1668680700,439550078,,1.3271099236683834e-06,8.649427185302004e-11,5.637616099482887e-13,1.3300686636530087e-06,-4.198973140415536e-07,-5.6476536486035785e-09
1668680700.4478037,45835,1668680700,447647307,,1.3021675358645833e-06,8.22118802506208e-11,5.501358734743e-13,1.31798855979179e-06,-4.132529493632294e-07,-5.570141867544272e-09
1668680700.4554267,45836,1668680700,455304920,,1.2766272663234673e-06,7.810566368382027e-11,5.363590828249375e-13,1.3058356210999245e-06,-4.066084179894663e-07,-5.492532226822934e-09
1668680700.4636276,45837,1668680700,463445353,,1.2505867369218894e-06,7.416982616927176e-11,5.224543373238527e-13,1.293611981173039e-06,-3.9996457174201156e-07,-5.414835441028148e-09
1668680700.4715629,45838,1668680700,471440855,,1.2241368429186946e-06,7.039862442630709e-11,5.084467242588878e-13,1.2813197657255739e-06,-3.933222555925448e-07,-5.337062145369227e-09
1668680700.479577,45839,1668680700,479469660,,1.1973621051121345e-06,6.678658268174114e-11,4.943733859325688e-13,1.2689610923750882e-06,-3.866823076138213e-07,-5.259222903920175e-09
1668680700.4876573,45840,1668680700,487490444,,1.1703410067972606e-06,6.332819753139525e-11,4.803133107912861e-13,1.2565380704387652e-06,-3.800455589231259e-07,-5.181328203741491e-09
1668680700.495457,45841,1668680700,495295953,,1.1431463160172509e-06,6.001818655108511e-11,4.662402274262459e-13,1.244052800737384e-06,-3.734128336312364e-07,-5.1033884523242435e-09
1668680700.5037234,45842,1668680700,503593014,,1.1158453935118197e-06,5.685130638185261e-11,4.522534180272145e-13,1.2315073753811773e-06,-3.667849487970195e-07,-5.025413984701764e-09
1668680700.5117948,45843,1668680700,511597784,,1.088500487174991e-06,5.382256862837516e-11,4.3836574687480335e-13,1.2189038775822012e-06,-3.6016271437007697e-07,-4.9474150607395625e-09
1668680700.5204897,45844,1668680700,520318350,,1.0611690132323403e-06,5.0926918349355573e-11,4.2458582459961073e-13,1.2062443814475338e-06,-3.5354693315507435e-07,-4.869401852598391e-09
1668680700.5279922,45845,1668680700,527773755,,1.0339038247963343e-06,4.815965003442572e-11,4.1094570013054865e-13,1.193530951798328e-06,-3.469384007580635e-07,-4.7913844545553835e-09
1668680700.5354998,45846,1668680700,535370995,,1.0067534680019656e-06,4.5516051158190095e-11,3.9744762823688186e-13,1.1807656439708187e-06,-3.403379055436204e-07,-4.713372894348575e-09
1668680700.5443914,45847,1668680700,544180867,,9.797624267367706e-07,4.2991484886980454e-11,3.8411091458557934e-13,1.1679505036271186e-06,-3.3374622859266563e-07,-4.635377114265412e-09
1668680700.551969,45848,1668680700,551757740,,9.52971355731346e-07,4.0581685170244194e-11,3.709397339287758e-13,1.1550875665819326e-06,-3.271641436556391e-07,-4.5574069628992155e-09
1668680700.5597737,45849,1668680700,559565853,,9.264173029825824e-07,3.8282206957721096e-11,3.579859134793819e-13,1.1421788586030697e-06,-3.20592417117933e-07,-4.479472226081976e-09
1668680700.567799,45850,1668680700,567607076,,9.001339216957116e-07,3.6088960671431546e-11,3.4519111670044693e-13,1.1292263952477091e-06,-3.1403180795515353e-07,-4.4015825938223286e-09
1668680700.5756197,45851,1668680700,575502012,,8.741516720293274e-07,3.3997827897434223e-11,3.3265570522266133e-13,1.1162321816649693e-06,-3.0748306769700754e-07,-4.3237476761698466e-09
1668680700.5833888,45852,1668680700,583257403,,8.484980133838373e-07,3.2004937462984375e-11,3.2032147655774597e-13,1.1031982124514094e-06,-3.0094694039231344e-07,-4.2459770082413325e-09
1668680700.591802,45853,1668680700,591591970,,8.231975873055013e-07,3.010637191389942e-11,3.0824782255323456e-13,1.0901264714546773e-06,-2.944241625670932e-07,-4.168280030438789e-09
1668680700.5997436,45854,1668680700,599565763,,7.982723915138438e-07,2.829839023257301e-11,2.9639357104374513e-13,1.0770189316156358e-06,-2.879154631945336e-07,-4.090666101697012e-09
1668680700.6077054,45855,1668680700,607533036,,7.737419454101094e-07,2.657760536182974e-11,2.847892751322702e-13,1.0638775547999244e-06,-2.8142156366281614e-07,-4.013144498198009e-09
1668680700.61583,45856,1668680700,615563817,,7.496234474471552e-07,2.4940353637503022e-11,2.7341169219144573e-13,1.0507042916305425e-06,-2.749431777385288e-07,-3.935724412119719e-09
1668680700.6237411,45857,1668680700,623594718,,7.259319245498937e-07,2.33832918119198e-11,2.6233864657693553e-13,1.0375010813315308e-06,-2.6848101153863095e-07,-3.858414945691745e-09
1668680700.6317635,45858,1668680700,631621515,,7.026803740100913e-07,2.190312504817542e-11,2.5154930605151813e-13,1.0242698515802355e-06,-2.620357635024762e-07,-3.781225123520533e-09
1668680700.6397421,45859,1668680700,639621934,,6.798798982727812e-07,2.04967399334123e-11,2.4100050561393166e-13,1.011012518339236e-06,-2.5560812435812206e-07,-3.704163867305437e-09
1668680700.6477985,45860,1668680700,647574056,,6.575398327894472e-07,1.9161053095015557e-11,2.307106540539186e-13,9.97730985694178e-07,-2.491987770969911e-07,-3.6272400215023354e-09
1668680700.6554072,45861,1668680700,655296649,,6.356678671127929e-07,1.7893118303441423e-11,2.2075137978304878e-13,9.84427145736766e-07,-2.4280839695567794e-07,-3.550462342924396e-09
1668680700.6636467,45862,1668680700,663495909,,6.14270159838793e-07,1.669008813291708e-11,2.1102084245904718e-13,9.711028783846702e-07,-2.364376513754059e-07,-3.4738395050716845e-09
1668680700.671784,45863,1668680700,671626011,,5.933514475084061e-07,1.5549151310933446e-11,2.0155873559060005e-13,9.577600512624322e-07,-2.300871999958392e-07,-3.3973800825169597e-09
1668680700.6802993,45864,1668680700,679925762,,5.72915147421776e-07,1.4467721458353116e-11,1.9237755240714444e-13,9.444005195314303e-07,-2.2375769461854778e-07,-3.3210925693178397e-09
1668680700.6883981,45865,1668680700,688123699,,5.529634553104633e-07,1.3443227474088095e-11,1.8348871096268743e-13,9.310261257860432e-07,-2.1744977919229201e-07,-3.2449853599625845e-09
1668680700.6955023,45866,1668680700,695253064,,5.334974374817518e-07,1.2473194442871777e-11,1.7486499594069345e-13,9.176386998911262e-07,-2.1116408979364335e-07,-3.1690667707493135e-09
1668680700.703712,45867,1668680700,703570157,,5.145171179354367e-07,1.1555208567926815e-11,1.6652577431942832e-13,9.042400588598001e-07,-2.049012546052754e-07,-3.0933450200473846e-09
1668680700.7118979,45868,1668680700,711694035,,4.960215606534047e-07,1.0686994410812907e-11,1.5844771824435497e-13,8.908320067256511e-07,-1.986618939003548e-07,-3.0178282377360945e-09
1668680700.7196608,45869,1668680700,719454395,,4.78008947338676e-07,9.866266947690787e-12,1.5065376727122944e-13,8.774163343995749e-07,-1.9244662002165223e-07,-2.9425244590222906e-09
1668680700.7275531,45870,1668680700,727456829,,4.6047665071815416e-07,9.090978717849198e-12,1.431204563461126e-13,8.639948195647881e-07,-1.8625603737428117e-07,-2.867441637178265e-09
1668680700.7358947,45871,1668680700,735738868,,4.434213036510604e-07,8.358999689713533e-12,1.3588428483025286e-13,8.505692265399455e-07,-1.800907424034049e-07,-2.792587631778689e-09
1668680700.7434766,45872,1668680700,743363263,,4.2683886412879616e-07,7.668424998414907e-12,1.2887608917394917e-13,8.371413061672555e-07,-1.7395132358234217e-07,-2.71797020835672e-09
1668680700.7516305,45873,1668680700,751453807,,4.107246767447253e-07,7.017255803342302e-12,1.2214507657678045e-13,8.237127956879728e-07,-1.6783836140320024e-07,-2.643597033955593e-09
1668680700.7599065,45874,1668680700,759778615,,3.950735301908244e-07,6.403707937783162e-12,1.1564404053739763e-13,8.102854186353876e-07,-1.6175242836758032e-07,-2.5694756903688077e-09
1668680700.767765,45875,1668680700,767627249,,3.798797115541757e-07,5.826057857846964e-12,1.0939106094415393e-13,7.968608847196801e-07,-1.5569408897284804e-07,-2.4956136756979255e-09
1668680700.775799,45876,1668680700,775605679,,3.651370571868201e-07,5.282555667094662e-12,1.0339584332708935e-13,7.834408897148903e-07,-1.4966389970263904e-07,-2.422018380125099e-09
1668680700.7838197,45877,1668680700,783667464,,3.5083900049153836e-07,4.771564103157209e-12,9.760906107605152e-14,7.700271153588403e-07,-1.4366240902183795e-07,-2.3486971076110918e-09
1668680700.7915666,45878,1668680700,791460339,,3.369786166991915e-07,4.291549525601674e-12,9.203658041303217e-14,7.566212292519656e-07,-1.3769015737182719e-07,-2.275657067210754e-09
1668680700.7998421,45879,1668680700,799626730,,3.235486647824818e-07,3.840936750775531e-12,8.670767072343923e-14,7.432248847402796e-07,-1.3174767715831992e-07,-2.202905375584053e-09
1668680700.8078177,45880,1668680700,807692611,,3.1054162686867336e-07,3.418386129131932e-12,8.159785239882327e-14,7.298397208390799e-07,-1.2583549275399694e-07,-2.1304490592551104e-09
1668680700.8159082,45881,1668680700,815694907,,2.979497447798957e-07,3.0224461967505318e-12,7.67392761371047e-14,7.16467362115026e-07,-1.1995412048661365e-07,-2.0582950486268536e-09
1668680700.8234797,45882,1668680700,823339522,,2.857650543893602e-07,2.65183637466352e-12,7.209642838759672e-14,7.031094186105885e-07,-1.1410406864993457e-07,-1.9864501799636043e-09
1668680700.8322985,45883,1668680700,832095113,,5.893751418987871e-07,-3.715645204973028e-07,6.61595496851517e-14,6.897674865392895e-07,-1.0828583170122404e-07,-1.9149211971585178e-09
1668680700.839835,45884,1668680700,839719909,,1.8140140299170098e-06,-1.827732696492333e-06,3.704287759549215e-14,6.764431470227221e-07,-1.0249989102760738e-07,-1.8437147459578768e-09
1668680700.8475785,45885,1668680700,847476986,,4.515258012544167e-06,-5.023034181230315e-06,-1.3050985013833688e-13,6.631379612695027e-07,-9.674672018675351e-08,-1.7728373873974698e-09
1668680700.85566,45886,1668680700,855357155,,9.20184081269475e-06,-1.0556815303358024e-05,-7.727893887787956e-13,6.498534636842133e-07,-9.102678240241774e-08,-1.7022955874096022e-09
1668680700.8635807,45887,1668680700,863445442,,1.633833882299291e-05,-1.897639912620503e-05,-2.6085615936575725e-12,6.365911528551655e-07,-8.534052733574629e-08,-1.6320957095842473e-09
1668680700.8717635,45888,1668680700,871556468,,2.6347731354334573e-05,-3.078010083369218e-05,-6.913951809040437e-12,6.233524811986336e-07,-7.968838740503058e-08,-1.5622440368662184e-09
1668680700.879826,45889,1668680700,879628455,,3.961384068247921e-05,-4.642010149645708e-05,-1.569587467748603e-11,6.101388440254165e-07,-7.407077391701547e-08,-1.49274675120012e-09
1668680700.8877492,45890,1668680700,887565488,,5.648365654809012e-05,-6.630518574940888e-05,-3.185367599557108e-11,5.969515685576847e-07,-6.848807319425017e-08,-1.423609946967679e-09
1668680700.895443,45891,1668680700,895248380,,7.726954963185573e-05,-9.080334874016032e-05,-5.93200515477259e-11,5.837919033283735e-07,-6.294064283724898e-08,-1.3548396349044242e-09
1668680700.9038227,45892,1668680700,903690199,,0.00010225137839356951,-0.00012024427753868426,-1.0317653236494716e-10,5.706610083266444e-07,-5.7428808247879926e-08,-1.2864417355267117e-09
1668680700.9116771,45893,1668680700,911528497,,0.0001316784935316167,-0.00015492171203622282,-1.6974016217988788e-10,5.575599461065967e-07,-5.195285950269699e-08,-1.2184220828451164e-09
1668680700.9198391,45894,1668680700,919657919,,0.00016577164418884387,-0.00019509569019782633,-2.6661958480955244e-10,5.444896740537049e-07,-4.651304862240426e-08,-1.1507864228058919e-09
1668680700.927765,45895,1668680700,927658729,,0.0002047247899019109,-0.00024099468237624586,-4.027409785660533e-10,5.314510379320116e-07,-4.11095872924708e-08,-1.0835404134264953e-09
1668680700.9353387,45896,1668680700,935237177,,0.0002487068221634585,-0.000292817619240935,-5.88344194145055e-10,5.18444766770027e-07,-3.5742645048083454e-08,-1.0166896244161172e-09
1668680700.9436522,45897,1668680700,943500419,,0.0002978631993416004,-0.00035073581772433065,-8.349509396701896e-10,5.054714690918745e-07,-3.041234792794467e-08,-9.50239544710886e-10
1668680700.9518182,45898,1668680700,951670483,,0.00035231749857790357,-0.0004148948092392726,-1.1553074466815191e-09,4.925316305309293e-07,-2.511877760884285e-08,-8.841955776491689e-10
1668680700.9598253,45899,1668680700,959630831,,0.00041217288816394363,-0.0004854160742800911,-1.5633042148377806e-09,4.796256127374749e-07,-1.98619709870707e-08,-8.185630322437437e-10
1668680700.9678473,45900,1668680700,967684805,,0.00047751352377815,-0.0005623986873755696,-2.073875528713559e-09,4.667536535441067e-07,-1.4641920206968537e-08,-7.533471442153217e-10
1668680700.9762592,45901,1668680700,976018897,,0.0005484058718483774,-0.0006459208762278161,-2.70288218828272e-09,4.5391586834705774e-07,-9.458573096405947e-09,-6.885530509474769e-10
1668680700.9834197,45902,1668680700,983255639,,0.0006248999631920216,-0.0007360414987359326,-3.4669803892140653e-09,4.411122525656324e-07,-4.311833986226873e-09,-6.241858048223331e-10
1668680700.991641,45903,1668680700,991528613,,0.0007070305799745418,-0.0008328014414724588,-4.38347956088755e-09,4.2834268510754135e-07,7.984351237892012e-10,-5.602503719195212e-10
1668680701.0003433,45904,1668680701,78811,,0.000794818378918838,-0.0009362249430540851,-5.470192445389817e-09,4.156069327605179e-07,5.872413077019016e-09,-4.967516278962109e-10
1668680701.0076654,45905,1668680701,7538827,,0.0008882709535918798,-0.001046320845724951,-6.745280156566792e-09,4.029046553720275e-07,1.091031779595794e-08,-4.3369436427548314e-10
1668680701.015518,45906,1668680701,15314177,,0.0009873838384924193,-0.0011630837783482386,-8.227094401805087e-09,3.9023541176322995e-07,1.5912404272115925e-08,-3.7108327652010664e-10
1668680701.0237393,45907,1668680701,23618721,,0.0010921414575624673,-0.001286495273887238,-9.93401993219217e-09,3.775986662168502e-07,2.0878962352869485e-08,-3.089229679356653e-10
1668680701.0318868,45908,1668680701,31754387,,0.001202518019648418,-0.0014165248243402332,-1.1884318677395435e-08,3.649937954885478e-07,2.581031433945922e-08,-2.472179414306219e-10
1668680701.0397723,45909,1668680701,39567489,,0.0013184783633415306,-0.0015531308759851982,-1.4095978114030433e-08,3.5242009623770313e-07,3.070681244910292e-08,-1.8597260970781848e-10
1668680701.0477712,45910,1668680701,47621082,,0.0014399787535362054,-0.0016962617676809322,-1.6586565020654268e-08,3.3987679277411824e-07,3.556883615968959e-08,-1.2519129656551886e-10
1668680701.0554338,45911,1668680701,55308879,,0.0015669676319541252,-0.0018458566148673759,-1.9373086334108257e-08,3.2736304502892715e-07,4.0396789486920877e-08,-6.487821347864187e-11
1668680701.0641134,45912,1668680701,63876129,,0.001699386323795127,-0.0020018461418061123,-2.2471858405605544e-08,3.148779566968627e-07,4.519109819216521e-08,-5.037481716485548e-12
1668680701.0718465,45913,1668680701,71660332,,0.0018371697025920057,-0.0021641534645037794,-2.589838533992207e-08,3.0242058346255927e-07,4.9952206956877876e-08,5.432689020867798e-11
1668680701.0798328,45914,1668680701,79655358,,0.001980246815263211,-0.002332694826665128,-2.9667247610910462e-08,2.899899412417631e-07,5.468057657702461e-08,1.1321099439853821e-10
1668680701.0877504,45915,1668680701,87621790,,0.0021285414692793444,-0.0025073802909304577,-3.3792001066993595e-08,2.7758501433633535e-07,5.937668114236699e-08,1.7161103180868276e-10
1668680701.095865,45916,1668680701,95697247,,0.0022819727837817467,-0.0026881143875618126,-3.8285087346895944e-08,2.6520476357089093e-07,6.40410052707576e-08,2.2952330661074605e-10
1668680701.1038082,45917,1668680701,103609418,,0.0024404557064169564,-0.002874796722656034,-4.315775525171569e-08,2.5284813418716617e-07,6.867404138405494e-08,2.869442392028354e-10
1668680701.111716,45918,1668680701,111521208,,0.002603901497579125,-0.003067322547877995,-4.8419994002087755e-08,2.40514063588529e-07,7.327628706295473e-08,3.4387035233174323e-10
1668680701.1206422,45919,1668680701,120321819,,0.0027722181836827837,-0.0032655832936263223,-5.408047735696345e-08,2.2820148884330186e-07,7.784824247196909e-08,4.002982962464374e-10
1668680701.1284182,45920,1668680701,128222156,,0.0029453109810206493,-0.0034694670674645747,-6.01465193778031e-08,2.1590935389499731e-07,8.239040788046606e-08,4.5622482788137964e-10
1668680701.1356733,45921,1668680701,135401189,,0.003123082691696429,-0.0036788591195761537,-6.662404116876804e-08,2.0363661651125458e-07,8.690328128250699e-08,5.116468290711218e-10
1668680701.143776,45922,1668680701,143673793,,0.0033054340730596177,-0.003893642276924601,-7.351754802849685e-08,1.9138225487224465e-07,9.138735614243787e-08,5.665613048155826e-10
1668680701.151625,45923,1668680701,151499819,,0.0034922641820085833,-0.004113697347734382,-8.083011699505076e-08,1.7914527384591732e-07,9.584311922407264e-08,6.20965378943239e-10
1668680701.1596894,45924,1668680701,159580581,,0.0036834706954693014,-0.004338903497832872,-8.856339404757952e-08,1.66924710885363e-07,1.0027104858708756e-07,6.748563027847432e-10
1668680701.1677742,45925,1668680701,167637739,,0.0038789502083014273,-0.004569138600333355,-9.671760073139231e-08,1.547196415724604e-07,1.0467161167687384e-07,7.282314369583265e-10
1668680701.1754594,45926,1668680701,175322891,,0.004078598509828193,-0.004804279560071297,-1.0529154890966484e-07,1.4252918475676454e-07,1.0904526354029321e-07,7.810882999420565e-10
1668680701.183774,45927,1668680701,183660695,,0.004282310840133686,-0.005044202614145311,-1.1428266417000415e-07,1.3035250737391786e-07,1.1339244519856153e-07,8.334245116953243e-10
1668680701.1917348,45928,1668680701,191613137,,0.004489982127221899,-0.005288783609855622,-1.2368701600356658e-07,1.1818882879743463e-07,1.1771358212136975e-07,8.852378413637396e-10
1668680701.1996408,45929,1668680701,199507637,,0.0047015072060814355,-0.005537898261274513,-1.334993551310305e-07,1.0603742488262584e-07,1.220090828610602e-07,9.365261812582792e-10
1668680701.207783,45930,1668680701,207674322,,0.0049167810206543075,-0.00579142238562751,-1.43713156761034e-07,9.389763158651997e-08,1.2627933777305126e-07,9.872875676719683e-10
1668680701.215715,45931,1668680701,215602258,,0.005135698809660587,-0.006049232120612537,-1.543206693024924e-07,8.176884824146228e-08,1.3052471793255664e-07,1.037520156593752e-09
1668680701.2235525,45932,1668680701,223387225,,0.005358156277188504,-0.006311204123730847,-1.6531296760894885e-07,6.965054041740862e-08,1.3474557408274675e-07,1.087222256668241e-09
1668680701.231654,45933,1668680701,231488722,,0.005584049748916824,-0.0065772157546558985,-1.766800109686039e-07,5.754224248001908e-08,1.3894223579584723e-07,1.1363922892970724e-09
1668680701.2396977,45934,1668680701,239522790,,0.0058132763147966116,-0.00684714524161825,-1.8841070399362781e-07,4.544355977906592e-08,1.4311501068020767e-07,1.1850288337417192e-09
1668680701.2477748,45935,1668680701,247602112,,0.006045733958980433,-0.0071208718327385725,-2.0049296092703403e-07,3.335417048195492e-08,1.4726418375943327e-07,1.2331306045720858e-09
1668680701.2557507,45936,1668680701,255548973,,0.0062813216777499485,-0.007398275933196756,-2.1291377200440972e-07,2.127382711666708e-08,1.5139001691740882e-07,1.2806964377887198e-09
1668680701.2633507,45937,1668680701,263193879,,0.0065199395861576664,-0.0076792392290848934,-2.2565927185348644e-07,9.202357769259894e-09,1.5549274847104179e-07,1.327725337660346e-09
1668680701.2721136,45938,1668680701,271960104,,0.006761489014063229,-0.007963644798748407,-2.387148091140511e-07,-2.8603330014319132e-09,1.5957259283291272e-07,1.374216421212715e-09
1668680701.2796202,45939,1668680701,279418180,,0.007005872592213099,-0.008251377212382546,-2.5206501686527087e-07,-1.491426352282963e-08,1.6362974027416032e-07,1.4201689459841793e-09
1668680701.2877064,45940,1668680701,287545696,,0.007252994328979389,-0.008542322620614846,-2.656938835552867e-07,-2.6959374632826074e-08,1.676643567980092e-07,1.46558231869931e-09
1668680701.295372,45941,1668680701,295217613,,0.007502759678344853,-0.0088363688327658,-2.795848236483608e-07,-3.899552960581591e-08,1.7167658403584914e-07,1.510456079656386e-09
1668680701.3036253,45942,1668680701,303502559,,0.007755075599690525,-0.009133405385447393,-2.9372074804942525e-07,-5.102251426306742e-08,1.756665393229666e-07,1.5547898975232233e-09
1668680701.3117082,45943,1668680701,311596526,,0.008009850609915834,-0.009433323602126526,-3.0808413359630167e-07,-6.304003732840859e-08,1.7963431574814694e-07,1.5985835953580274e-09
1668680701.3196855,45944,1668680701,319561159,,0.008266994828393433,-0.009736016644247409,-3.226570913791245e-07,-7.504773101135167e-08,1.8357998233495309e-07,1.6418371037718593e-09
1668680701.3279097,45945,1668680701,327793012,,0.008526420015236076,-0.010041379554477406,-3.374214338083344e-07,-8.70451517344167e-08,1.8750358426745635e-07,1.6845505233786806e-09
1668680701.3353417,45946,1668680701,335230371,,0.00878803960332794,-0.010349309292611934,-3.5235873976732555e-07,-9.903178109488655e-08,1.914051431921868e-07,1.7267240692842023e-09
1668680701.3440366,45947,1668680701,343833008,,0.009051768724549459,-0.010659704764646174,-3.6745041788066376e-07,-1.1100702700575353e-07,1.9528465756003636e-07,1.7683580884331196e-09
1668680701.351724,45948,1668680701,351540306,,0.009317524230602394,-0.010972466845494752,-3.826777677201913e-07,-1.2297022490182657e-07,1.9914210299797758e-07,1.8094530734868997e-09
1668680701.3598502,45949,1668680701,359693617,,0.009585224708820566,-0.011287498395814687,-3.9802203867002556e-07,-1.3492063916968546e-07,2.0297743278318518e-07,1.8500096177209713e-09
1668680701.3675246,45950,1668680701,367390335,,0.00985479049333046,-0.0116047042733633,-4.1346448611194416e-07,-1.4685746467304485e-07,2.067905783139051e-07,1.890028467066429e-09
1668680701.3754864,45951,1668680701,375330827,,0.010126143671907237,-0.01192399133929959,-4.289864252819236e-07,-1.5877982839277273e-07,2.1058144961371697e-07,1.929510502762799e-09
1668680701.3839684,45952,1668680701,383854003,,0.010399208088852068,-0.01224526845981433,-4.4456928227460057e-07,-1.7068679116112595e-07,2.1434993592719465e-07,1.9684566962552275e-09
1668680701.3916872,45953,1668680701,391500895,,0.010673909344199673,-0.012568446503454055,-4.601946421666542e-07,-1.8257734951603413e-07,2.1809590625935116e-07,2.006868175113974e-09
1668680701.3995821,45954,1668680701,399427491,,0.010950174789546567,-0.012893438334483141,-4.7584429445922057e-07,-1.944504375821362e-07,2.218192100062106e-07,2.0447461640538123e-09
1668680701.4078324,45955,1668680701,407696690,,0.011227933520776083,-0.013220158802609554,-4.915002755231493e-07,-2.0630492909203143e-07,2.2551967757882072e-07,2.0820920369757356e-09
1668680701.416089,45956,1668680701,415768935,,0.011507116367938284,-0.013548524729380328,-5.071449081261552e-07,-2.1813963940132334e-07,2.2919712106277308e-07,2.118907251047464e-09
1668680701.4236686,45957,1668680701,423482217,,0.01178765588253049,-0.013878454891536707,-5.227608380591177e-07,-2.2995332755218175e-07,2.328513348558766e-07,2.1551933987451477e-09
1668680701.4319167,45958,1668680701,431696574,,0.012069486322407967,-0.014209870001600153,-5.383310678102278e-07,-2.4174469846427135e-07,2.3648209639798821e-07,2.190952176628347e-09
1668680701.4399319,45959,1668680701,439805238,,0.012352543634541913,-0.01454269268594654,-5.538389873429964e-07,-2.535124050429287e-07,2.400891668022896e-07,2.226185406156711e-09
1668680701.4478064,45960,1668680701,447637701,,0.012636765435828794,-0.014876847460609494,-5.69268402125132e-07,-2.6525505040115313e-07,2.436722915555734e-07,2.2608950024649577e-09
1668680701.4558573,45961,1668680701,455690286,,0.012922090992142572,-0.015212260705038349,-5.846035583268666e-07,-2.769711900236745e-07,2.4723120128672567e-07,2.2950829917101068e-09
1668680701.463411,45962,1668680701,463204030,,0.013208461195810206,-0.01554886063402594,-5.998291650841684e-07,-2.886593340207925e-07,2.50765612361736e-07,2.328751486785352e-09
1668680701.47159,45963,1668680701,471465984,,0.013495818541679153,-0.01588657726800294,-6.149304143342974e-07,-3.0031794933218017e-07,2.54275227647518e-07,2.3619027150756366e-09
1668680701.4798458,45964,1668680701,479690784,,0.013784107101935315,-0.0162253424018882,-6.298929979299962e-07,-3.1194546190360965e-07,2.5775973722119445e-07,2.3945390115187593e-09
1668680701.4878354,45965,1668680701,487693409,,0.014073272499819945,-0.016565089572669573,-6.447031222482305e-07,-3.2354025891769803e-07,2.6121881901021004e-07,2.4266627908497984e-09
1668680701.495468,45966,1668680701,495312703,,0.01436326188238431,-0.016905754025879342,-6.593475204282499e-07,-3.3510069099998777e-07,2.6465213953609425e-07,2.4582765441316656e-09
1668680701.503691,45967,1668680701,503570556,,0.014654023892411902,-0.017247272681117396,-6.738134621316384e-07,-3.466250743809e-07,2.680593545682352e-07,2.4893828803884688e-09
1668680701.5119228,45968,1668680701,511791106,,0.014945508639629573,-0.017589584096766052,-6.880887612951703e-07,-3.5811169305470644e-07,2.7144010981592585e-07,2.5199844849721487e-09
1668680701.5197496,45969,1668680701,519585601,,0.01523766767132051,-0.01793262843402904,-7.021617816053286e-07,-3.6955880088651344e-07,2.7479404154874456e-07,2.550084109154138e-09
1668680701.5277054,45970,1668680701,527538913,,0.015530453942444025,-0.018276347420420277,-7.160214400158718e-07,-3.809646237292212e-07,2.781207773603755e-07,2.5796846256365136e-09
1668680701.5353224,45971,1668680701,535207896,,0.015823821785361156,-0.018620684312817104,-7.296572082199309e-07,-3.9232736146515754e-07,2.81419936666691e-07,2.6087889487547145e-09
1668680701.544106,45972,1668680701,543953401,,0.0161177268792558,-0.018965583860185986,-7.430591124399367e-07,-4.036451901073704e-07,2.8469113144983984e-07,2.637400089988695e-09
1668680701.5516286,45973,1668680701,551501351,,0.016412126219336954,-0.01931099226608107,-7.562177315401694e-07,-4.14916263694054e-07,2.8793396681780353e-07,2.6655210885739855e-09
1668680701.5597005,45974,1668680701,559562801,,0.01670697808589971,-0.019656857151006714,-7.691241934371688e-07,-4.261387163212384e-07,2.911480416449433e-07,2.6931551086462058e-09
1668680701.5678625,45975,1668680701,567690830,,0.017002242013317424,-0.020003127514730688,-7.817701700517576e-07,-4.3731066403404455e-07,2.943329491187632e-07,2.7203053490354456e-09
1668680701.5758832,45976,1668680701,575690017,,0.017297878759032062,-0.02034975369862612,-7.941478710166163e-07,-4.4843020670045676e-07,2.97488277371024e-07,2.746975064082946e-09
1668680701.5835676,45977,1668680701,583465680,,0.01759385027260383,-0.02069668734811581,-8.062500358941993e-07,-4.5949542984066987e-07,3.0061360998005424e-07,2.7731676191522503e-09
1668680701.5914903,45978,1668680701,591387128,,0.017890119664877087,-0.02104388137528468,-8.180699253435181e-07,-4.7050440638967675e-07,3.037085265867939e-07,2.7988863379735385e-09
1668680701.5997562,45979,1668680701,599645632,,0.018670884461246977,-0.02155733762720865,0.0002039613181289707,-4.892967712527021e-07,3.094607328833635e-07,2.825344166956789e-09
1668680701.6081007,45980,1668680701,607864394,,0.019422802430443805,-0.0228721707139697,0.00043353851781313766,-5.120177555333017e-07,3.165517316175209e-07,2.8520929507003245e-09
1668680701.615649,45981,1668680701,615521636,,0.02014245947113426,-0.024539493005024834,0.0006659810502141691,-5.366247271473292e-07,3.2428313751539217e-07,2.8788891340281175e-09
1668680701.6234596,45982,1668680701,623327521,,0.020623422603269825,-0.0278843344675444,0.000579195497068547,-5.672360945807174e-07,3.340678747930804e-07,2.906523056955823e-09
1668680701.6320648,45983,1668680701,631885787,,0.02108694999853672,-0.03098162224727635,0.0004980267072963115,-5.97103981716759e-07,3.435958922050255e-07,2.933916658232061e-09
1668680701.639827,45984,1668680701,639679448,,0.021396097353088096,-0.03481031500281979,0.00017039061953378376,-6.294736982314481e-07,3.5398002045544143e-07,2.9617078303734168e-09
1668680701.6479714,45985,1668680701,647777246,,0.02162800321056855,-0.038851182978241784,-0.00026574973113133236,-6.626475285613845e-07,3.6464020430285876e-07,2.9896489173175667e-09
1668680701.6554549,45986,1668680701,655307842,,0.021822804075382812,-0.04241796975377362,-0.00047153779796747043,-6.92751895075281e-07,3.7425009098875084e-07,3.0169707357363684e-09
1668680701.6639285,45987,1668680701,663751131,,0.022022563215982765,-0.045693605448761596,-0.0006601529878527286,-7.215014004227768e-07,3.8339674199934677e-07,3.0439935780335325e-09
1668680701.6722186,45988,1668680701,671954890,,0.022206383312920693,-0.048614931739541775,-0.000729091063266506,-7.477959738473789e-07,3.9170326958230285e-07,3.0704458073294028e-09
1668680701.6796696,45989,1668680701,679503935,,0.0229014684581365,-0.04979817956459719,-0.0005100600742714363,-7.729266180340512e-07,3.9961154966040684e-07,3.0965876321453756e-09
1668680701.6876442,45990,1668680701,687503188,,0.023667256671572788,-0.04995057731012396,-4.680425264447958e-05,-7.921646446691567e-07,4.055012269160718e-07,3.1211999027003223e-09
1668680701.69578,45991,1668680701,695650597,,0.024447493446424117,-0.04958494242145382,0.0005177496653940276,-8.078447002957882e-07,4.101697271617459e-07,3.1447243142856962e-09
1668680701.703598,45992,1668680701,703474352,,0.025332050555850975,-0.04967227886380535,0.0007724531660140284,-8.294423782522907e-07,4.1686238026620095e-07,3.169675091840851e-09
1668680701.7117717,45993,1668680701,711575980,,0.026163505693681102,-0.04973292695887995,0.0010055129752412168,-8.496746026381602e-07,4.2308734721999836e-07,3.194171663278844e-09
1668680701.71992,45994,1668680701,719776682,,0.02706276798029361,-0.051286510518643205,0.0001704324087737184,-8.836287641322566e-07,4.340137599492377e-07,3.2227066570911234e-09
1668680701.7282035,45995,1668680701,727883915,,0.027967949242409283,-0.05349794154916292,-0.0011537632153610692,-9.237490426943569e-07,4.4706115511416664e-07,3.2534428484609634e-09
1668680701.7361007,45996,1668680701,735894574,,0.02874648456957671,-0.05640804962709324,-0.0030054638774628826,-9.673510344545893e-07,4.613143521666873e-07,3.285779245909559e-09
1668680701.7434106,45997,1668680701,743234558,,0.02944007125323963,-0.059533010474994805,-0.005040635032583614,-1.0114372342383791e-06,4.7574972285606074e-07,3.3188872206046938e-09
1668680701.7519345,45998,1668680701,751749652,,0.030090147057469405,-0.062374899669393156,-0.006904904140561444,-1.0525107416622633e-06,4.891709940327369e-07,3.3516105862885226e-09
1668680701.759774,45999,1668680701,759647298,,0.030677436943618654,-0.06570480232100714,-0.008746078796969392,-1.0969350910172227e-06,5.037572090849356e-07,3.3861955461844673e-09
1668680701.7678769,46000,1668680701,767739264,,0.030942747808035846,-0.06888026183794453,-0.009489592643255855,-1.1309158806646147e-06,5.147870546127423e-07,3.4176054625190133e-09
1668680701.775455,46001,1668680701,775328654,,0.031045856157183395,-0.07183444186984567,-0.009661329271880067,-1.1579367562049433e-06,5.23447676069929e-07,3.4467985826625025e-09
1668680701.7836866,46002,1668680701,783557812,,0.03115099086624615,-0.07449729459063502,-0.009800138063558832,-1.1820290473868542e-06,5.311156143529561e-07,3.475142923425878e-09
1668680701.7919235,46003,1668680701,791693509,,0.03131419371476634,-0.07721187015170403,-0.010268410195069844,-1.2082969597868856e-06,5.395374453997376e-07,3.5046935908944477e-09
1668680701.7998056,46004,1668680701,799671859,,0.03175426654993517,-0.07954506606286027,-0.011396653454557936,-1.2393426565924376e-06,5.496065363967077e-07,3.536718515273485e-09
1668680701.8075657,46005,1668680701,807451377,,0.03231732478837986,-0.08157027814760086,-0.012791917834284,-1.2711736079747387e-06,5.599599325718189e-07,3.569656542579125e-09
1668680701.815548,46006,1668680701,815344730,,0.03323364651051259,-0.08298072442151487,-0.014147344924267193,-1.3082042710388809e-06,5.721106952349952e-07,3.6056568147868617e-09
1668680701.8236728,46007,1668680701,823558821,,0.03408609857160928,-0.08420283528964241,-0.015367376012836892,-1.3412531478006542e-06,5.82919832441825e-07,3.640540674476611e-09
1668680701.8328917,46008,1668680701,832603566,,0.035083975862037854,-0.08504845516362662,-0.016511290592387044,-1.3752555459540464e-06,5.940750148860415e-07,3.6766346911409897e-09
1668680701.8398845,46009,1668680701,839762969,,0.03619120397475303,-0.08543075157027066,-0.01730248362455463,-1.4080553765497515e-06,6.04839680879701e-07,3.7129029434312955e-09
1668680701.8476543,46010,1668680701,847493719,,0.03728230800272387,-0.08556495569724726,-0.017935076365164913,-1.4376033032155108e-06,6.14512096774834e-07,3.748219484789317e-09
1668680701.8560154,46011,1668680701,855852880,,0.038325372660468815,-0.08553589708008949,-0.018449528195867156,-1.4636116161466676e-06,6.229918625704108e-07,3.782289537124228e-09
1668680701.8642082,46012,1668680701,863878088,,0.03942298919284153,-0.08565178005184937,-0.019416116078372618,-1.493250296756717e-06,6.327313418490361e-07,3.8190641621360655e-09
1668680701.8716803,46013,1668680701,871536689,,0.04043344898723312,-0.08567981553336781,-0.020267776863604894,-1.5186760330350478e-06,6.410493475039573e-07,3.854136967906818e-09
1668680701.8795848,46014,1668680701,879472819,,0.041512140597937806,-0.08601420248994984,-0.021329246430955913,-1.5501967963150402e-06,6.514716216023987e-07,3.893588632064571e-09
1668680701.887879,46015,1668680701,887646392,,0.04258140179554246,-0.0864487078235227,-0.022432051665257063,-1.5825715231537535e-06,6.622102726103196e-07,3.934502113001059e-09
1668680701.8960752,46016,1668680701,895911818,,0.043492455351906364,-0.08694248049256814,-0.02312054087457117,-1.6095772523775894e-06,6.711368062848819e-07,3.972941295393717e-09
1668680701.903537,46017,1668680701,903337713,,0.044288478175528355,-0.08740946833903729,-0.023559281830207168,-1.6316816356951383e-06,6.784071498113116e-07,4.008946105638067e-09
1668680701.9116154,46018,1668680701,911507155,,0.04501413497261601,-0.08776026652500644,-0.023916601559494967,-1.6494400037882304e-06,6.842074481978704e-07,4.042643497736975e-09
1668680701.9196541,46019,1668680701,919545630,,0.04535850884323515,-0.08788308734363931,-0.022936226101986413,-1.6491183333890375e-06,6.838331958300588e-07,4.064133904413403e-09
1668680701.927834,46020,1668680701,927722136,,0.04542423574070343,-0.08775037664215232,-0.02124287538452714,-1.6344546396155919e-06,6.785464216514658e-07,4.075077886245282e-09
1668680701.9357781,46021,1668680701,935639877,,0.04534819158243727,-0.08746153175886846,-0.01924716907423828,-1.6122698100609146e-06,6.706677106432107e-07,4.079712651039458e-09
1668680701.9434986,46022,1668680701,943381188,,0.04561964856051253,-0.08726126452783663,-0.018594557686922353,-1.6048514626902785e-06,6.678189299782859e-07,4.094600436488349e-09
1668680701.9517024,46023,1668680701,951534816,,0.04586228428416624,-0.08700048891214422,-0.01795673677964219,-1.5954497775063237e-06,6.642815229464943e-07,4.1075164658455066e-09
1668680701.9599724,46024,1668680701,959865061,,0.04652007322359093,-0.08648762119550037,-0.01807431908648131,-1.5992597768041492e-06,6.652552547790729e-07,4.130528863388605e-09
1668680701.9676216,46025,1668680701,967484499,,0.04735163029031058,-0.08583681313410813,-0.018538951972428358,-1.6081531004842782e-06,6.679710469878128e-07,4.15775269768659e-09
1668680701.9765983,46026,1668680701,976476396,,0.04835750799648874,-0.08493863482825727,-0.01904372028700495,-1.6209044083456605e-06,6.720148310367449e-07,4.1884740120679e-09
1668680701.9839332,46027,1668680701,983747214,,0.04940507101928411,-0.08392198332977663,-0.019530641915907428,-1.633830624253531e-06,6.761301154750536e-07,4.219773003244498e-09
1668680701.9925907,46028,1668680701,992439801,,0.05035759250867212,-0.08291852351862174,-0.019940562778606338,-1.6430198510364617e-06,6.789784974957531e-07,4.248237511772501e-09
1668680702.000422,46029,1668680702,230176,,0.0511221990468699,-0.08194556175208714,-0.019553623335507576,-1.6448716196783156e-06,6.793242207556692e-07,4.2704193653486655e-09
1668680702.0083225,46030,1668680702,8187801,,0.05132547344654012,-0.08064922787327634,-0.018099755320168838,-1.619916805109707e-06,6.704958181195583e-07,4.267969574978103e-09
1668680702.015936,46031,1668680702,15753138,,0.05124103113275437,-0.07921724397486807,-0.016164994320615376,-1.5819794867348407e-06,6.571975782543663e-07,4.252272922666833e-09
1668680702.0237536,46032,1668680702,23576620,,0.05066350820428157,-0.07782353825371965,-0.013538009368488214,-1.525422711456492e-06,6.37486212617857e-07,4.217147200891169e-09
1668680702.0321007,46033,1668680702,31937115,,0.05011968751697065,-0.0764871846162122,-0.011092202170587857,-1.4720151858278307e-06,6.187951737532046e-07,4.182836035870885e-09
1668680702.0398173,46034,1668680702,39662780,,0.049267646311903,-0.07538284806764693,-0.008056008651799803,-1.41044503765308e-06,5.972555311719273e-07,4.138248688168034e-09
1668680702.0476923,46035,1668680702,47531718,,0.04829429381053595,-0.07441166619923628,-0.004840299364175555,-1.347195626042342e-06,5.75079598769037e-07,4.089545826979624e-09
1668680702.055429,46036,1668680702,55279627,,0.047306301469203525,-0.07358759435329665,-0.0015903557040143125,-1.286529477217144e-06,5.537264527637545e-07,4.041086659745119e-09
1668680702.0639408,46037,1668680702,63800567,,0.04639296718849034,-0.07278617308553309,0.0014056944494174539,-1.2302592720088781e-06,5.338207022843877e-07,3.994961514375284e-09
1668680702.0715547,46038,1668680702,71430931,,0.04550538598728521,-0.07206851210154337,0.004309641061781359,-1.1770618742584218e-06,5.14914617633002e-07,3.950022017806809e-09
1668680702.0797906,46039,1668680702,79649456,,0.04470545727313363,-0.07153134497093191,0.007052628657979479,-1.1299362551929438e-06,4.980394563225757e-07,3.90972944297463e-09
1668680702.087854,46040,1668680702,87734532,,0.0439844177724687,-0.07103336921302218,0.00949526967012852,-1.0868555356876187e-06,4.825075582224475e-07,3.872181353337112e-09
1668680702.095402,46041,1668680702,95208821,,0.04333205597009817,-0.07055712730310673,0.011689276084627038,-1.047118043004413e-06,4.6808305286427827e-07,3.8368171556557584e-09
1668680702.103678,46042,1668680702,103562350,,0.04273793848041315,-0.07008460354786446,0.013686696927175168,-1.0100598787846212e-06,4.545421900927285e-07,3.803065834473429e-09
1668680702.111554,46043,1668680702,111423615,,0.042462682229064456,-0.0694923892108479,0.015294414386955536,-9.830162299231948e-07,4.444012712285367e-07,3.779568116812904e-09
1668680702.1197429,46044,1668680702,119550460,,0.042540832788212,-0.06868593163951119,0.016601774949088953,-9.658873633566377e-07,4.37635495762834e-07,3.766714731789911e-09
1668680702.127853,46045,1668680702,127637637,,0.042793121558250206,-0.06779243385283872,0.017697628089570847,-9.537719568316174e-07,4.3257430779736206e-07,3.759166977701511e-09
1668680702.1366262,46046,1668680702,136489650,,0.04295986243513092,-0.06693628474566429,0.018663878196131564,-9.392606241225834e-07,4.2668328764693467e-07,3.748234805867057e-09
1668680702.1439545,46047,1668680702,143804315,,0.043083571799485604,-0.06611978242130018,0.01951246992698752,-9.237990137387492e-07,4.204559794938542e-07,3.735572823293509e-09
1668680702.152548,46048,1668680702,152237713,,0.04320748750969293,-0.06534539241544869,0.020255358558216786,-9.088283145099576e-07,4.143856610441289e-07,3.722925037696889e-09
1668680702.1605678,46049,1668680702,160395649,,0.04320683336628507,-0.06462513642495503,0.02093197850349274,-8.904141617179688e-07,4.0712467381555373e-07,3.7053798501718305e-09
1668680702.1681013,46050,1668680702,167856351,,0.043294458400849584,-0.06405661829838823,0.021554582428020545,-8.763523722675644e-07,4.013419820463309e-07,3.692687697287589e-09
1668680702.1757686,46051,1668680702,175518755,,0.04342694074975229,-0.06357609823216187,0.022106867445703206,-8.645826517735596e-07,3.9633541073559077e-07,3.6824110843935998e-09
1668680702.1836307,46052,1668680702,183528412,,0.043560054012364534,-0.06311789155545193,0.022571801264180222,-8.530594528994044e-07,3.91406039304586e-07,3.671998122234399e-09
1668680702.1916053,46053,1668680702,191445860,,0.043451035957792906,-0.06265656537654592,0.022956141502756343,-8.337991374732061e-07,3.838180130542792e-07,3.6509275463947333e-09
1668680702.199746,46054,1668680702,199629969,,0.04348223505091574,-0.06229497286266226,0.023325721179041834,-8.200180355520106e-07,3.7809481476442676e-07,3.6364842387337504e-09
1668680702.2076406,46055,1668680702,207493939,,0.04358659045751841,-0.06199041621182584,0.023652322094920786,-8.091057273573688e-07,3.733465444737995e-07,3.6254071411612188e-09
1668680702.2158678,46056,1668680702,215532344,,0.043912454599100474,-0.061616402024055175,0.023934848055210706,-8.046173861749268e-07,3.707943615385411e-07,3.622699598637702e-09
1668680702.2239065,46057,1668680702,223772749,,0.04422494050451919,-0.06126219146472975,0.024147754470453232,-7.998393420718692e-07,3.6814256259404786e-07,3.619386138020708e-09
1668680702.2317302,46058,1668680702,231594614,,0.04463965808805224,-0.06088359881463081,0.024311354503544835,-7.980687890796721e-07,3.6652126961895723e-07,3.62007185339408e-09
1668680702.2403302,46059,1668680702,240139334,,0.04495235918645019,-0.06053401337682615,0.024287439642548956,-7.932456827175688e-07,3.638559739301602e-07,3.6163293609670077e-09
1668680702.2484515,46060,1668680702,248286202,,0.04522261245559839,-0.06020460056552069,0.024055817169409036,-7.87205003041809e-07,3.6077332573073925e-07,3.610642493323546e-09
1668680702.2554183,46061,1668680702,255210267,,0.04546748962230525,-0.059895207608185085,0.0237096313639382,-7.804970406116067e-07,3.5746112543892303e-07,3.6037532125110516e-09
1668680702.2636406,46062,1668680702,263541440,,0.04570453734356738,-0.05960577158029703,0.023343998010236282,-7.736865478172143e-07,3.5411258500635777e-07,3.5964598243953816e-09
1668680702.271674,46063,1668680702,271516123,,0.04606071215179449,-0.05954132320459675,0.022835878139001165,-7.726290410553678e-07,3.5273497905321735e-07,3.5974263151716812e-09
1668680702.279907,46064,1668680702,279710599,,0.0463185973017242,-0.05931293930314689,0.022263661842476606,-7.669140219887646e-07,3.497647150523149e-07,3.5913644697016522e-09
1668680702.2878647,46065,1668680702,287678187,,0.04652443624114468,-0.05901240268805431,0.021661527569669266,-7.588603316946744e-07,3.4599295854623527e-07,3.5815576199249577e-09
1668680702.2954507,46066,1668680702,295274864,,0.046624786233931424,-0.05882118113809264,0.021054634753416526,-7.483379868668608e-07,3.4137335127334793e-07,3.5676963466846345e-09
1668680702.3037243,46067,1668680702,303556556,,0.0467285975394074,-0.05864446114065203,0.020454159882646764,-7.380550320395998e-07,3.3683229465363874e-07,3.5538459119965893e-09
1668680702.3122966,46068,1668680702,311963087,,0.04678267163598734,-0.058527805616147836,0.01985559435405757,-7.266878707752524e-07,3.3191641510168894e-07,3.537955317600705e-09
1668680702.3202732,46069,1668680702,320140797,,0.047028015110100574,-0.05868824452161538,0.019284562468351366,-7.238478476610018e-07,3.299198929782813e-07,3.535131173904027e-09
1668680702.3284974,46070,1668680702,328225748,,0.04717656775871737,-0.05893066409263556,0.01865945901153546,-7.185124836554769e-07,3.270713478721078e-07,3.5282342464304506e-09
1668680702.3354807,46071,1668680702,335327206,,0.04727807730291627,-0.0592042674022412,0.01801429465528409,-7.118560708170183e-07,3.2377142970526143e-07,3.519036215204885e-09
1668680702.343991,46072,1668680702,343849468,,0.047383702488695695,-0.059456582215780665,0.0173846013070762,-7.05091177903485e-07,3.2043488840181704e-07,3.5094470524077437e-09
1668680702.351781,46073,1668680702,351622473,,0.04764428332093093,-0.059637803548375945,0.0166598584339669,-7.026860683654159e-07,3.185936533823316e-07,3.506801807273696e-09
1668680702.359638,46074,1668680702,359511429,,0.04816843905908894,-0.05968001042675895,0.0158870706688679,-7.076104387458487e-07,3.1926966707267017e-07,3.5162451700321284e-09
1668680702.3677924,46075,1668680702,367668482,,0.04880673284977878,-0.059653138160134254,0.015105683626399776,-7.156402421570158e-07,3.2102113699424006e-07,3.5310733642601733e-09
1668680702.375446,46076,1668680702,375337475,,0.04957025924121506,-0.05941578254608894,0.014358660485721835,-7.259787869716428e-07,3.2357779230856275e-07,3.5501039746810292e-09
1668680702.3838174,46077,1668680702,383619406,,0.05028312699531141,-0.059198601317213176,0.013642341709787377,-7.348053093818524e-07,3.2563206173803934e-07,3.566938189258906e-09
1668680702.3916914,46078,1668680702,391568403,,0.05103574318210747,-0.05888781086339144,0.012956926307191198,-7.441481012010129e-07,3.278782925290359e-07,3.5850095669864857e-09
1668680702.3997638,46079,1668680702,399604585,,0.0516433524820721,-0.05855533935282887,0.012339277225070567,-7.483754372724846e-07,3.2838666190536207e-07,3.594543829255059e-09
1668680702.4078743,46080,1668680702,407658232,,0.05275482173756633,-0.058480894276306754,0.01181270005212133,-7.721115670456533e-07,3.355941323008281e-07,3.638612022793808e-09
1668680702.4157417,46081,1668680702,415582880,,0.054071665602075936,-0.05853745718026847,0.011339239136203412,-8.043707282614316e-07,3.4575198551000524e-07,3.6987344576022707e-09
1668680702.423582,46082,1668680702,423363033,,0.05521075621622992,-0.058686870246908905,0.01087097684221584,-8.315144717043529e-07,3.541934985883989e-07,3.750920518630352e-09
1668680702.4320986,46083,1668680702,431934093,,0.05626068230582329,-0.05882906900892831,0.010418277664576068,-8.555892775990656e-07,3.616164612717243e-07,3.798634989893301e-09
1668680702.4400318,46084,1668680702,439843204,,0.057261172745278324,-0.05921483492558294,0.010133607678024126,-8.802478784657782e-07,3.692707201893852e-07,3.8484254671899976e-09
1668680702.4477735,46085,1668680702,447574685,,0.05819806805771448,-0.05970676982060183,0.009932183808983634,-9.036577258735631e-07,3.7652939715053166e-07,3.896961919824804e-09
1668680702.455862,46086,1668680702,455587440,,0.05898925136260181,-0.06044590998399135,0.009842183446612028,-9.240060098199407e-07,3.8277072543849155e-07,3.940812967617724e-09
1668680702.4635973,46087,1668680702,463425825,,0.0596767454002065,-0.06127839712953239,0.00980110442542359,-9.412995787709327e-07,3.8799476637010194e-07,3.979840124124223e-09
1668680702.4719272,46088,1668680702,471737223,,0.06030379136712189,-0.062045872496508066,0.009743974844189877,-9.555913206565772e-07,3.922172390606084e-07,4.0139883084044925e-09
1668680702.4796872,46089,1668680702,479490556,,0.06102497251152834,-0.06303105993452894,0.009801010964566731,-9.755033632083843e-07,3.983902344857626e-07,4.05970733419192e-09
1668680702.487613,46090,1668680702,487474888,,0.06169971284913625,-0.06408804840339359,0.009880852885244403,-9.942277386764797e-07,4.04186843228245e-07,4.104103279445326e-09
1668680702.4956985,46091,1668680702,495550670,,0.06232214932777693,-0.06513755829279391,0.009960080133383188,-1.0107173025600876e-06,4.092476048331642e-07,4.145068982497335e-09
1668680702.5035803,46092,1668680702,503436842,,0.0633577401668149,-0.06597531327769596,0.010013336707364652,-1.041467418236514e-06,4.1922271109022177e-07,4.215242974114908e-09
1668680702.511659,46093,1668680702,511553032,,0.0642999206955448,-0.0667395003594993,0.01004267772709834,-1.0678023270926712e-06,4.277282126576021e-07,4.278064222318356e-09
1668680702.5196857,46094,1668680702,519568513,,0.06527451957585266,-0.06732026433730073,0.009917833537961981,-1.093644619773763e-06,4.3610433055714035e-07,4.3412408390341994e-09
1668680702.5277624,46095,1668680702,527599576,,0.06622111833374045,-0.06778492714161415,0.009713258168050498,-1.1171756141290564e-06,4.4372817512797896e-07,4.4010489280710274e-09
1668680702.535434,46096,1668680702,535293973,,0.06703063800456491,-0.0681552902312002,0.00945372392540847,-1.134009774263504e-06,4.4909558836753877e-07,4.448299978365711e-09
1668680702.5436614,46097,1668680702,543506319,,0.06775886173786644,-0.06848542792550592,0.009196085317711988,-1.1469290291760094e-06,4.5315303580676855e-07,4.488401372793049e-09
1668680702.5517206,46098,1668680702,551574450,,0.06838700586579272,-0.06875306113067184,0.008912515351303886,-1.1548565818651811e-06,4.5552784959509637e-07,4.518845991841047e-09
1668680702.5596206,46099,1668680702,559474796,,0.0691897180955906,-0.0690535776445279,0.008550310960363598,-1.170443761899613e-06,4.6054881046439164e-07,4.56630215583953e-09
1668680702.5675714,46100,1668680702,567470417,,0.07007820137687178,-0.06936880413276035,0.008122096407251048,-1.1897856684820601e-06,4.668869974461601e-07,4.622877247673074e-09
1668680702.5755138,46101,1668680702,575421696,,0.07096443023557927,-0.0696732368146801,0.007670317986880236,-1.2088518007684216e-06,4.7316637361710656e-07,4.680071108431605e-09
1668680702.5833595,46102,1668680702,583240682,,0.07146473890090639,-0.07004161746623086,0.007259353863484678,-1.211582591482312e-06,4.7388617611552816e-07,4.702586847704637e-09
1668680702.5915904,46103,1668680702,591444349,,0.07190153939759265,-0.07036714050962369,0.0068665994858547,-1.2109139741209654e-06,4.7345926677301586e-07,4.718064799957844e-09
1668680702.5998178,46104,1668680702,599723293,,0.07233713154368347,-0.07106633892179068,0.0065827393611194,-1.2138797818248828e-06,4.7429128402802154e-07,4.7420593285441015e-09
1668680702.6080837,46105,1668680702,607907972,,0.07274388668164693,-0.07191341888877274,0.006357720566578517,-1.216874877813163e-06,4.7515173085986226e-07,4.766659872368351e-09
