Time,header.seq,header.stamp.secs,header.stamp.nsecs,header.frame_id,pose.position.x,pose.position.y,pose.position.z,pose.orientation.x,pose.orientation.y,pose.orientation.z,pose.orientation.w
1668680699.9754362,45776,1668680699,975340429,,-0.09879829540695907,-0.616009798473082,0.07819229671452456,0.995561212271503,0.09352316496706815,-0.00434766370254234,0.009611870544667382
1668680699.9838269,45777,1668680699,983677518,,-0.09879836296945277,-0.6160097984664484,0.07819229671451215,0.9955612123587707,0.09352316493121865,-0.004347659951719783,0.009611863551207245
1668680699.991603,45778,1668680699,991464578,,-0.09879842483351042,-0.6160097984599958,0.07819229671450072,0.9955612124457717,0.09352316489569602,-0.004347656222399583,0.009611856572449774
1668680699.9997818,45779,1668680699,999647676,,-0.09879848132735285,-0.616009798453722,0.07819229671448999,0.9955612125324971,0.09352316486050213,-0.004347652514888305,0.00961184960917127
1668680700.0076468,45780,1668680700,7506224,,-0.09879853276385965,-0.6160097984476254,0.07819229671448055,0.9955612126189378,0.09352316482563909,-0.0043476488294873815,0.00961184266214028
1668680700.0154028,45781,1668680700,15295245,,-0.09879857944116587,-0.6160097984417042,0.07819229671447202,0.9955612127050855,0.09352316479110848,-0.004347645166493228,0.00961183573211736
1668680700.023886,45782,1668680700,23581498,,-0.09879862164323706,-0.6160097984359558,0.07819229671446434,0.9955612127909308,0.09352316475691205,-0.004347641526196705,0.009611828819854316
1668680700.0317082,45783,1668680700,31602941,,-0.09879865964042962,-0.6160097984303778,0.07819229671445785,0.9955612128764656,0.09352316472305186,-0.004347637908883812,0.009611821926095188
1668680700.0399776,45784,1668680700,39867069,,-0.09879869369003311,-0.616009798424968,0.07819229671445184,0.9955612129616812,0.09352316468952929,-0.0043476343148350595,0.009611815051575268
1668680700.0477867,45785,1668680700,47646444,,-0.09879872403679422,-0.6160097984197233,0.07819229671444676,0.9955612130465693,0.09352316465634607,-0.0043476307443258465,0.009611808197022016
1668680700.0555134,45786,1668680700,55340084,,-0.09879875091342606,-0.6160097984146413,0.0781922967144426,0.9955612131311218,0.09352316462350353,-0.0043476271976264766,0.009611801363154322
1668680700.0636456,45787,1668680700,63476992,,-0.09879877454109895,-0.6160097984097189,0.07819229671443934,0.9955612132153302,0.09352316459100346,-0.004347623675001934,0.009611794550682864
1668680700.0717237,45788,1668680700,71599200,,-0.09879879512991699,-0.6160097984049531,0.07819229671443656,0.9955612132991867,0.09352316455884728,-0.00434762017671199,0.009611787760309496
1668680700.079889,45789,1668680700,79762159,,-0.09879881287937758,-0.6160097984003413,0.07819229671443448,0.9955612133826832,0.09352316452703632,-0.004347616703011399,0.00961178099272831
1668680700.0879207,45790,1668680700,87767790,,-0.098798827978816,-0.6160097983958799,0.078192296714433,0.995561213465812,0.09352316449557181,-0.0043476132541495445,0.009611774248624558
1668680700.0955331,45791,1668680700,95403951,,-0.09879884060783499,-0.6160097983915661,0.0781922967144324,0.9955612135485653,0.09352316446445512,-0.004347609830370879,0.009611767528675319
1668680700.1040788,45792,1668680700,103844639,,-0.09879885093671943,-0.6160097983873968,0.07819229671443224,0.9955612136309355,0.09352316443368755,-0.0043476064319145045,0.009611760833548961
1668680700.1117074,45793,1668680700,111607022,,-0.09879885912683643,-0.6160097983833683,0.07819229671443279,0.9955612137129152,0.09352316440327005,-0.004347603059014441,0.009611754163905464
1668680700.119582,45794,1668680700,119465714,,-0.09879886533102186,-0.616009798379478,0.07819229671443355,0.9955612137944968,0.09352316437320413,-0.004347599711899559,0.009611747520396226
1668680700.1275523,45795,1668680700,127398138,,-0.09879886969395336,-0.6160097983757226,0.07819229671443521,0.9955612138756733,0.09352316434349049,-0.004347596390793911,0.009611740903664625
1668680700.1353686,45796,1668680700,135207201,,-0.0987988723525087,-0.6160097983720981,0.07819229671443698,0.9955612139564373,0.09352316431413021,-0.00434759309591586,0.009611734314344395
1668680700.1437893,45797,1668680700,143602320,,-0.09879887343611247,-0.6160097983686023,0.0781922967144392,0.9955612140367817,0.09352316428512422,-0.004347589827479178,0.009611727753061877
1668680700.1519022,45798,1668680700,151726375,,-0.09879887306707012,-0.6160097983652312,0.07819229671444172,0.9955612141166996,0.09352316425647349,-0.004347586585692409,0.009611721220434421
1668680700.1598642,45799,1668680700,159710424,,-0.09879887136088861,-0.616009798361982,0.07819229671444473,0.9955612141961845,0.09352316422817883,-0.004347583370758933,0.009611714717070742
1668680700.1677299,45800,1668680700,167570754,,-0.09879886842658567,-0.6160097983588512,0.07819229671444825,0.9955612142752291,0.09352316420024108,-0.004347580182877216,0.009611708243571077
1668680700.1757607,45801,1668680700,175649803,,-0.09879886436698797,-0.6160097983558357,0.07819229671445181,0.9955612143538272,0.09352316417266092,-0.004347577022240471,0.00961170180052682
1668680700.1834705,45802,1668680700,183285207,,-0.09879885927901741,-0.6160097983529323,0.07819229671445593,0.995561214431972,0.09352316414543894,-0.004347573889037309,0.009611695388521312
1668680700.1918004,45803,1668680700,191664617,,-0.09879885325396594,-0.6160097983501382,0.07819229671446022,0.9955612145096572,0.09352316411857622,-0.004347570783450794,0.009611689008128716
1668680700.1997712,45804,1668680700,199647119,,-0.09879884637776101,-0.6160097983474501,0.07819229671446463,0.9955612145868767,0.09352316409207287,-0.0043475677056595136,0.009611682659915003
1668680700.2077134,45805,1668680700,207546543,,-0.09879883873121934,-0.6160097983448644,0.07819229671446945,0.995561214663624,0.09352316406592964,-0.004347564655836667,0.009611676344437175
1668680700.215551,45806,1668680700,215455168,,-0.09879883039029191,-0.6160097983423788,0.07819229671447431,0.9955612147398931,0.09352316404014697,-0.004347561634150685,0.009611670062243977
1668680700.2233388,45807,1668680700,223247012,,-0.09879882142629792,-0.61600979833999,0.07819229671447936,0.9955612148156782,0.0935231640147255,-0.004347558640765097,0.009611663813875392
1668680700.2321198,45808,1668680700,231944879,,-0.09879881190615082,-0.6160097983376952,0.07819229671448436,0.9955612148909734,0.09352316398966536,-0.004347555675838404,0.00961165759986262
1668680700.240664,45809,1668680700,240489818,,-0.09879880189257369,-0.6160097983354913,0.07819229671448978,0.9955612149657727,0.09352316396496697,-0.0043475527395244185,0.009611651420728624
1668680700.247948,45810,1668680700,247755146,,-0.09879879144430748,-0.6160097983333757,0.07819229671449532,0.9955612150400707,0.09352316394063048,-0.004347549831971816,0.009611645276987482
1668680700.255783,45811,1668680700,255537191,,-0.09879878061630869,-0.6160097983313457,0.07819229671450081,0.9955612151138619,0.09352316391665648,-0.004347546953324476,0.009611639169144637
1668680700.2637908,45812,1668680700,263575661,,-0.09879876945994089,-0.6160097983293976,0.07819229671450634,0.9955612151871407,0.09352316389304478,-0.004347544103721447,0.00961163309769703
1668680700.2716594,45813,1668680700,271457280,,-0.09879875802315699,-0.61600979832753,0.07819229671451206,0.9955612152599018,0.09352316386979584,-0.004347541283297085,0.009611627063133009
1668680700.2796345,45814,1668680700,279442407,,-0.09879874635067398,-0.6160097983257398,0.07819229671451774,0.9955612153321401,0.09352316384690962,-0.004347538492180831,0.009611621065932321
1668680700.2877753,45815,1668680700,287641539,,-0.09879873448414069,-0.6160097983240241,0.07819229671452342,0.9955612154038507,0.09352316382438612,-0.004347535730497301,0.009611615106565918
1668680700.2954898,45816,1668680700,295335556,,-0.09879872246229777,-0.6160097983223807,0.07819229671452921,0.9955612154750282,0.09352316380222538,-0.0043475329983664445,0.009611609185496571
1668680700.3038194,45817,1668680700,303668539,,-0.0987987103211312,-0.6160097983208069,0.07819229671453501,0.995561215545668,0.09352316378042717,-0.004347530295903462,0.009611603303178095
1668680700.3116407,45818,1668680700,311509585,,-0.09879869809401912,-0.6160097983193007,0.07819229671454075,0.9955612156157652,0.09352316375899178,-0.004347527623218764,0.00961159746005593
1668680700.3196876,45819,1668680700,319519341,,-0.09879868581187155,-0.6160097983178592,0.07819229671454637,0.9955612156853151,0.093523163737919,-0.004347524980418149,0.009611591656566897
1668680700.3283474,45820,1668680700,328143154,,-0.0987986735032652,-0.6160097983164808,0.0781922967145522,0.9955612157543132,0.09352316371720826,-0.004347522367602815,0.00961158589313953
1668680700.3357725,45821,1668680700,335678839,,-0.09879866119457055,-0.6160097983151628,0.07819229671455769,0.9955612158227553,0.09352316369685972,-0.004347519784869018,0.009611580170193262
1668680700.3433409,45822,1668680700,343224046,,-0.09879864891007498,-0.6160097983139028,0.07819229671456317,0.9955612158906365,0.09352316367687298,-0.00434751723230877,0.009611574488139553
1668680700.3524978,45823,1668680700,352359753,,-0.09879863667209898,-0.6160097983126989,0.07819229671456872,0.995561215957953,0.09352316365724789,-0.004347514710009496,0.009611568847381435
1668680700.3606915,45824,1668680700,360458551,,-0.09879862450110764,-0.6160097983115496,0.07819229671457419,0.9955612160247005,0.09352316363798391,-0.004347512218053674,0.009611563248312895
1668680700.3686113,45825,1668680700,368407388,,-0.098798612415817,-0.6160097983104522,0.07819229671457956,0.995561216090875,0.09352316361908071,-0.004347509756519583,0.009611557691319736
1668680700.3763826,45826,1668680700,376189483,,-0.09879860043329498,-0.6160097983094049,0.07819229671458482,0.9955612161564728,0.0935231636005378,-0.004347507325480852,0.00961155217677947
1668680700.384051,45827,1668680700,383890523,,-0.09879858856905839,-0.6160097983084061,0.07819229671459016,0.9955612162214896,0.09352316358235473,-0.00434750492500675,0.009611546705061234
1668680700.3922355,45828,1668680700,391984889,,-0.09879857683716466,-0.6160097983074536,0.07819229671459522,0.9955612162859221,0.09352316356453096,-0.004347502555161637,0.009611541276525129
1668680700.4003956,45829,1668680700,400208254,,-0.09879856525029933,-0.6160097983065453,0.07819229671460043,0.9955612163497665,0.09352316354706591,-0.004347500216006074,0.009611535891523604
1668680700.4077055,45830,1668680700,407564852,,-0.09879855381985954,-0.6160097983056804,0.07819229671460552,0.9955612164130193,0.09352316352995904,-0.004347497907595903,0.00961153055040047
1668680700.4156659,45831,1668680700,415537706,,-0.09879854255603318,-0.6160097983048565,0.07819229671461032,0.9955612164756772,0.09352316351320969,-0.004347495629982458,0.009611525253490957
1668680700.423485,45832,1668680700,423359815,,-0.09879853146787507,-0.6160097983040722,0.07819229671461501,0.995561216537737,0.09352316349681702,-0.004347493383213028,0.009611520001122443
1668680700.4316711,45833,1668680700,431552160,,-0.09879852056337748,-0.6160097983033259,0.07819229671461969,0.995561216599195,0.09352316348078049,-0.004347491167330318,0.009611514793613546
1668680700.4396741,45834,1668680700,439550078,,-0.09879850984953883,-0.6160097983026162,0.07819229671462427,0.9955612166600487,0.0935231634650993,-0.004347488982372866,0.009611509631274983
1668680700.447793,45835,1668680700,447647307,,-0.09879849933242901,-0.6160097983019412,0.07819229671462868,0.9955612167202949,0.0935231634497724,-0.004347486828374895,0.009611504514408977
1668680700.4554179,45836,1668680700,455304920,,-0.09879848901724973,-0.6160097983013,0.07819229671463306,0.9955612167799305,0.09352316343479927,-0.004347484705366519,0.009611499443309678
1668680700.4636254,45837,1668680700,463445353,,-0.09879847890839367,-0.6160097983006907,0.07819229671463737,0.9955612168389529,0.09352316342017877,-0.004347482613373476,0.009611494418263025
1668680700.4715512,45838,1668680700,471440855,,-0.0987984690094993,-0.6160097983001126,0.07819229671464158,0.9955612168973594,0.09352316340591013,-0.004347480552417466,0.009611489439546594
1668680700.4795675,45839,1668680700,479469660,,-0.09879845932350348,-0.6160097982995638,0.07819229671464549,0.9955612169551475,0.09352316339199229,-0.004347478522515924,0.009611484507429949
1668680700.487637,45840,1668680700,487490444,,-0.09879844985269114,-0.6160097982990435,0.07819229671464951,0.9955612170123147,0.09352316337842423,-0.004347476523682208,0.009611479622174783
1668680700.495448,45841,1668680700,495295953,,-0.09879844059874184,-0.61600979829855,0.07819229671465315,0.9955612170688585,0.09352316336520497,-0.004347474555925686,0.009611474784034329
1668680700.5037148,45842,1668680700,503593014,,-0.09879843156277496,-0.6160097982980827,0.07819229671465672,0.9955612171247765,0.09352316335233347,-0.0043474726192514425,0.009611469993254131
1668680700.5117471,45843,1668680700,511597784,,-0.09879842274539138,-0.6160097982976397,0.07819229671466023,0.9955612171800667,0.09352316333980845,-0.004347470713660867,0.009611465250071359
1668680700.5204809,45844,1668680700,520318350,,-0.09879841414671353,-0.6160097982972208,0.07819229671466359,0.9955612172347271,0.09352316332762872,-0.004347468839151163,0.009611460554715616
1668680700.5279791,45845,1668680700,527773755,,-0.09879840576642211,-0.6160097982968245,0.0781922967146669,0.9955612172887555,0.0935231633157935,-0.004347466995715611,0.00961145590740829
1668680700.5354834,45846,1668680700,535370995,,-0.09879839760379298,-0.6160097982964494,0.07819229671467011,0.99556121734215,0.09352316330430142,-0.004347465183343592,0.009611451308362816
1668680700.54436,45847,1668680700,544180867,,-0.09879838965772934,-0.6160097982960957,0.07819229671467326,0.995561217394909,0.09352316329315086,-0.004347463402020504,0.009611446757785138
1668680700.5519428,45848,1668680700,551757740,,-0.09879838192679409,-0.6160097982957612,0.07819229671467616,0.9955612174470304,0.09352316328234106,-0.004347461651728013,0.009611442255872812
1668680700.5597665,45849,1668680700,559565853,,-0.09879837440923948,-0.6160097982954459,0.07819229671467924,0.995561217498513,0.09352316327187032,-0.004347459932443868,0.009611437802816106
1668680700.5677702,45850,1668680700,567607076,,-0.09879836710303455,-0.6160097982951483,0.07819229671468188,0.995561217549355,0.09352316326173736,-0.004347458244142021,0.00961143339879688
1668680700.575611,45851,1668680700,575502012,,-0.09879836000589219,-0.6160097982948682,0.07819229671468468,0.9955612175995553,0.09352316325194109,-0.004347456586792815,0.009611429043990191
1668680700.5833795,45852,1668680700,583257403,,-0.0987983531152935,-0.6160097982946041,0.07819229671468719,0.9955612176491123,0.0935231632424797,-0.0043474549603626155,0.009611424738562642
1668680700.5917978,45853,1668680700,591591970,,-0.09879834642851112,-0.6160097982943554,0.0781922967146898,0.9955612176980247,0.09352316323335183,-0.004347453364814272,0.009611420482673529
1668680700.5997303,45854,1668680700,599565763,,-0.09879833994263115,-0.6160097982941224,0.07819229671469223,0.9955612177462917,0.09352316322455614,-0.004347451800106995,0.009611416276474456
1668680700.607696,45855,1668680700,607533036,,-0.09879833365457383,-0.6160097982939028,0.07819229671469469,0.9955612177939118,0.09352316321609108,-0.0043474502661962275,0.009611412120109342
1668680700.6158028,45856,1668680700,615563817,,-0.09879832756111236,-0.6160097982936967,0.07819229671469677,0.9955612178408845,0.09352316320795506,-0.004347448763033922,0.009611408013714717
1668680700.6237311,45857,1668680700,623594718,,-0.09879832165889087,-0.6160097982935033,0.07819229671469885,0.9955612178872084,0.09352316320014674,-0.004347447290568567,0.009611403957419929
1668680700.631737,45858,1668680700,631621515,,-0.09879831594444162,-0.6160097982933223,0.07819229671470103,0.9955612179328833,0.09352316319266404,-0.004347445848744915,0.009611399951346496
1668680700.6397283,45859,1668680700,639621934,,-0.09879831041420062,-0.6160097982931526,0.07819229671470307,0.995561217977908,0.09352316318550562,-0.004347444437504282,0.009611395995608242
1668680700.6477675,45860,1668680700,647574056,,-0.09879830506452168,-0.616009798292994,0.07819229671470475,0.9955612180222823,0.09352316317866982,-0.004347443056784863,0.009611392090312617
1668680700.6553981,45861,1668680700,655296649,,-0.09879829989169078,-0.6160097982928457,0.07819229671470675,0.9955612180660054,0.09352316317215512,-0.004347441706520849,0.00961138823555879
1668680700.6636367,45862,1668680700,663495909,,-0.09879829489193884,-0.6160097982927072,0.07819229671470852,0.9955612181090769,0.09352316316595956,-0.0043474403866436825,0.0096113844314394
1668680700.67177,45863,1668680700,671626011,,-0.09879829006145235,-0.6160097982925783,0.07819229671471017,0.9955612181514967,0.09352316316008157,-0.004347439097080929,0.009611380678039004
1668680700.6802294,45864,1668680700,679925762,,-0.09879828539638594,-0.6160097982924583,0.0781922967147117,0.9955612181932643,0.09352316315451907,-0.004347437837757169,0.009611376975436072
1668680700.6883926,45865,1668680700,688123699,,-0.09879828089287156,-0.6160097982923467,0.07819229671471326,0.9955612182343794,0.0935231631492707,-0.00434743660859363,0.009611373323701133
1668680700.6954849,45866,1668680700,695253064,,-0.09879827654702805,-0.616009798292243,0.07819229671471466,0.9955612182748423,0.0935231631443343,-0.004347435409508274,0.00961136972289797
1668680700.7037063,45867,1668680700,703570157,,-0.09879827235496982,-0.616009798292147,0.07819229671471607,0.9955612183146528,0.09352316313970815,-0.00434743424041593,0.009611366173083445
1668680700.711885,45868,1668680700,711694035,,-0.09879826831281507,-0.6160097982920578,0.07819229671471732,0.995561218353811,0.09352316313539025,-0.004347433101228085,0.00961136267430697
1668680700.7196467,45869,1668680700,719454395,,-0.09879826441669304,-0.6160097982919758,0.07819229671471858,0.995561218392317,0.09352316313137897,-0.00434743199185342,0.00961135922661163
1668680700.7275453,45870,1668680700,727456829,,-0.09879826066275076,-0.6160097982918998,0.07819229671471963,0.9955612184301712,0.09352316312767232,-0.004347430912197228,0.009611355830033218
1668680700.7358856,45871,1668680700,735738868,,-0.09879825704715883,-0.6160097982918302,0.07819229671472086,0.9955612184673738,0.09352316312426832,-0.004347429862161818,0.009611352484600932
1668680700.743468,45872,1668680700,743363263,,-0.09879825356611821,-0.6160097982917659,0.07819229671472183,0.9955612185039252,0.09352316312116474,-0.004347428841646553,0.00961134919033696
1668680700.7515497,45873,1668680700,751453807,,-0.098798250215864,-0.6160097982917072,0.07819229671472291,0.9955612185398258,0.09352316311835988,-0.0043474278505478735,0.009611345947256994
1668680700.759897,45874,1668680700,759778615,,-0.09879824699267115,-0.6160097982916537,0.07819229671472386,0.9955612185750767,0.09352316311585193,-0.004347426888759153,0.009611342755369947
1668680700.7677557,45875,1668680700,767627249,,-0.09879824389285817,-0.6160097982916047,0.07819229671472469,0.9955612186096778,0.09352316311363844,-0.004347425956170829,0.009611339614677998
1668680700.7757735,45876,1668680700,775605679,,-0.09879824091279114,-0.6160097982915602,0.07819229671472565,0.9955612186436303,0.09352316311171749,-0.004347425052670571,0.009611336525176938
1668680700.7838104,45877,1668680700,783667464,,-0.098798238048887,-0.61600979829152,0.07819229671472652,0.9955612186769348,0.09352316311008702,-0.004347424178143277,0.009611333486856137
1668680700.7915542,45878,1668680700,791460339,,-0.09879823529761646,-0.6160097982914835,0.07819229671472722,0.9955612187095925,0.09352316310874491,-0.004347423332470796,0.009611330499698
1668680700.7998261,45879,1668680700,799626730,,-0.09879823265550745,-0.6160097982914511,0.07819229671472794,0.9955612187416039,0.09352316310768916,-0.004347422515532501,0.00961132756367922
1668680700.8078003,45880,1668680700,807692611,,-0.0987982301191463,-0.6160097982914219,0.07819229671472847,0.9955612187729703,0.09352316310691755,-0.0043474217272047285,0.009611324678769455
1668680700.8158677,45881,1668680700,815694907,,-0.09879822768518069,-0.6160097982913961,0.07819229671472906,0.9955612188036927,0.09352316310642794,-0.004347420967361584,0.009611321844932583
1668680700.82347,45882,1668680700,823339522,,-0.09879822535032139,-0.6160097982913737,0.07819229671472969,0.9955612188337725,0.09352316310621815,-0.004347420235874148,0.009611319062125992
1668680700.832293,45883,1668680700,832095113,,-0.09879822184976066,-0.6160097997776209,0.07819229671473026,0.9955612188632106,0.09352316310628588,-0.004347419532611106,0.009611316330300846
1668680700.8398228,45884,1668680700,839719909,,-0.09879821223620405,-0.6160098085748098,0.07819229671473098,0.9955612188920084,0.09352316310662918,-0.004347418857438484,0.009611313649402308
1668680700.8475685,45885,1668680700,847476986,,-0.0987981869191164,-0.6160098359778777,0.0781922967147307,0.9955612189201676,0.09352316310724576,-0.004347418210219764,0.009611311019369066
1668680700.855646,45886,1668680700,855357155,,-0.09879813205072367,-0.6160098982972771,0.07819229671472787,0.9955612189476895,0.09352316310813309,-0.004347417590816276,0.009611308440134515
1668680700.8635712,45887,1668680700,863445442,,-0.09879802989001238,-0.6160100164301382,0.07819229671471725,0.9955612189745754,0.09352316310928922,-0.004347416999086632,0.009611305911625597
1668680700.8717406,45888,1668680700,871556468,,-0.09879785914574869,-0.6160102154561462,0.07819229671468546,0.9955612190008272,0.0935231631107116,-0.004347416434887227,0.009611303433763698
1668680700.879798,45889,1668680700,879628455,,-0.09879759529949565,-0.6160105242569726,0.0781922967146082,0.9955612190264466,0.093523163112398,-0.0043474158980723555,0.009611301006464719
1668680700.88774,45890,1668680700,887565488,,-0.09879721090957179,-0.6160109751581527,0.07819229671444242,0.9955612190514349,0.09352316311434625,-0.004347415388494066,0.009611298629639045
1668680700.895421,45891,1668680700,895248380,,-0.09879667589685871,-0.6160116035923445,0.07819229671411958,0.9955612190757943,0.09352316311655397,-0.004347414906002406,0.009611296303192353
1668680700.9038136,45892,1668680700,903690199,,-0.09879595781332685,-0.6160124477829365,0.07819229671353738,0.9955612190995266,0.09352316311901882,-0.004347414450445717,0.009611294027025409
1668680700.9116607,45893,1668680700,911528497,,-0.09879502209411573,-0.6160135484470278,0.07819229671254947,0.9955612191226335,0.09352316312173845,-0.004347414021670536,0.009611291801034514
1668680700.919823,45894,1668680700,919657919,,-0.09879383229397247,-0.6160149485168328,0.07819229671095694,0.9955612191451171,0.09352316312471048,-0.004347413619522027,0.009611289625112138
1668680700.9277554,45895,1668680700,927658729,,-0.09879235030881638,-0.6160166928786026,0.07819229670849728,0.9955612191669794,0.09352316312793242,-0.004347413243844096,0.009611287499147289
1668680700.9353294,45896,1668680700,935237177,,-0.09879053658316998,-0.6160188281281946,0.07819229670483385,0.995561219188222,0.09352316313140194,-0.0043474128944793735,0.009611285423025464
1668680700.9436393,45897,1668680700,943500419,,-0.09878835030416433,-0.6160214023424624,0.07819229669954601,0.9955612192088477,0.09352316313511677,-0.004347412571269871,0.009611283396629977
1668680700.951807,45898,1668680700,951670483,,-0.09878574958279634,-0.616024464865655,0.07819229669211936,0.995561219228858,0.09352316313907413,-0.004347412274056741,0.009611281419841642
1668680700.959808,45899,1668680700,959630831,,-0.09878269162308945,-0.616028066110074,0.07819229668193549,0.9955612192482551,0.09352316314327197,-0.004347412002680769,0.009611279492539267
1668680700.9678826,45900,1668680700,967684805,,-0.09877913287977945,-0.6160322573702453,0.078192296668264,0.9955612192670411,0.0935231631477075,-0.004347411756982586,0.009611277614600925
1668680700.9762414,45901,1668680700,976018897,,-0.09877502920512178,-0.6160370906499065,0.0781922966502547,0.9955612192852183,0.0935231631523783,-0.0043474115368028745,0.009611275785903787
1668680700.9834125,45902,1668680700,983255639,,-0.09877033598539092,-0.6160426185011424,0.07819229662692993,0.9955612193027887,0.09352316315728186,-0.004347411341982368,0.009611274006324427
1668680700.9916193,45903,1668680700,991528613,,-0.09876500826761753,-0.6160488938750196,0.07819229659717918,0.9955612193197545,0.09352316316241571,-0.004347411172362515,0.009611272275739864
1668680701.0003235,45904,1668680701,78811,,-0.09875900087708397,-0.6160559699831083,0.07819229655975478,0.9955612193361175,0.09352316316777746,-0.00434741102778521,0.009611270594027305
1668680701.0076494,45905,1668680701,7538827,,-0.0987522685260793,-0.6160639001693068,0.0781922965132672,0.9955612193518802,0.09352316317336433,-0.004347410908093428,0.009611268961065466
1668680701.0154953,45906,1668680701,15314177,,-0.09874476591438669,-0.6160727377913997,0.07819229645618417,0.9955612193670443,0.09352316317917397,-0.0043474108131309214,0.009611267376734069
1668680701.0237315,45907,1668680701,23618721,,-0.09873644782196288,-0.6160825361118236,0.07819229638682834,0.9955612193816124,0.09352316318520336,-0.004347410742742808,0.009611265840914561
1668680701.0318747,45908,1668680701,31754387,,-0.09872726919423902,-0.6160933481971173,0.07819229630337873,0.9955612193955861,0.09352316319145018,-0.004347410696775696,0.009611264353490885
1668680701.0397477,45909,1668680701,39567489,,-0.09871718522046238,-0.6161052268255753,0.07819229620387122,0.9955612194089675,0.09352316319791211,-0.004347410675077854,0.009611262914349326
1668680701.0477617,45910,1668680701,47621082,,-0.09870615140547179,-0.6161182244026359,0.07819229608620133,0.9955612194217585,0.09352316320458604,-0.0043474106774989895,0.009611261523378755
1668680701.0554237,45911,1668680701,55308879,,-0.09869412363528379,-0.6161323928835561,0.07819229594812847,0.9955612194339611,0.09352316321146958,-0.004347410703890706,0.009611260180471214
1668680701.0640938,45912,1668680701,63876129,,-0.09868105823685229,-0.6161477837029543,0.07819229578727997,0.9955612194455774,0.09352316321855991,-0.004347410754106895,0.009611258885521995
1668680701.0718372,45913,1668680701,71660332,,-0.09866691203233921,-0.6161644477108114,0.07819229560115776,0.995561219456609,0.09352316322585431,-0.0043474108280031395,0.009611257638430066
1668680701.0798237,45914,1668680701,79655358,,-0.09865164238822793,-0.616182435114549,0.07819229538714403,0.9955612194670579,0.09352316323335015,-0.004347410925437145,0.009611256439097325
1668680701.087741,45915,1668680701,87621790,,-0.09863520725958717,-0.6162017954268154,0.07819229514251018,0.9955612194769257,0.09352316324104495,-0.004347411046269242,0.00961125528743052
1668680701.095854,45916,1668680701,95697247,,-0.09861756522978116,-0.6162225774186318,0.07819229486442364,0.9955612194862142,0.0935231632489356,-0.004347411190361697,0.009611254183339342
1668680701.103804,45917,1668680701,103609418,,-0.09859867554590836,-0.6162448290775654,0.07819229454995878,0.9955612194949252,0.09352316325701973,-0.004347411357579155,0.009611253126738056
1668680701.111699,45918,1668680701,111521208,,-0.09857849815023645,-0.6162685975706147,0.07819229419610439,0.9955612195030601,0.09352316326529439,-0.004347411547788802,0.009611252117544688
1668680701.120551,45919,1668680701,120321819,,-0.09855699370788641,-0.6162939292115077,0.07819229379977535,0.9955612195106206,0.09352316327375688,-0.004347411760859864,0.009611251155681191
1668680701.128401,45920,1668680701,128222156,,-0.0985341236310083,-0.6163208694321232,0.07819229335782307,0.9955612195176082,0.09352316328240436,-0.0043474119966643845,0.009611250241073859
1668680701.135667,45921,1668680701,135401189,,-0.09850985009967839,-0.6163494627577728,0.0781922928670455,0.9955612195240247,0.09352316329123407,-0.0043474122550764775,0.009611249373652877
1668680701.1437678,45922,1668680701,143673793,,-0.09848413607973454,-0.6163797527860739,0.07819229232419876,0.9955612195298709,0.09352316330024309,-0.004347412535972791,0.009611248553352056
1668680701.1516154,45923,1668680701,151499819,,-0.09845694533775573,-0.6164117821691866,0.07819229172600815,0.9955612195351486,0.09352316330942874,-0.004347412839232178,0.009611247780109716
1668680701.1596816,45924,1668680701,159580581,,-0.09842824245338429,-0.6164455925991651,0.07819229106918023,0.9955612195398592,0.09352316331878838,-0.004347413164735815,0.009611247053867376
1668680701.167758,45925,1668680701,167637739,,-0.09839799282917407,-0.6164812247962187,0.07819229035041224,0.9955612195440039,0.0935231633283188,-0.004347413512367249,0.009611246374570084
1668680701.1754477,45926,1668680701,175322891,,-0.0983661626981388,-0.6165187184996682,0.07819228956640578,0.995561219547584,0.09352316333801748,-0.004347413882012112,0.009611245742166815
1668680701.1837656,45927,1668680701,183660695,,-0.09833271912917257,-0.6165581124614006,0.07819228871387557,0.9955612195506005,0.09352316334788145,-0.004347414273558132,0.009611245156609263
1668680701.1917255,45928,1668680701,191613137,,-0.09829763003049352,-0.6165994444416385,0.0781922877895619,0.995561219553055,0.09352316335790785,-0.004347414686895029,0.009611244617852765
1668680701.199633,45929,1668680701,199507637,,-0.0982608641512653,-0.61664275120685,0.07819228679024064,0.9955612195549483,0.09352316336809365,-0.004347415121914676,0.009611244125855142
1668680701.2077746,45930,1668680701,207674322,,-0.0982223910815317,-0.6166880685296253,0.07819228571273362,0.9955612195562815,0.09352316337843626,-0.0043474155785107665,0.009611243680577393
1668680701.2157054,45931,1668680701,215602258,,-0.09818218125060214,-0.616735431190374,0.07819228455391762,0.9955612195570559,0.0935231633889325,-0.004347416056578519,0.009611243281981777
1668680701.2235446,45932,1668680701,223387225,,-0.09814020592401074,-0.6167848729806844,0.07819228331073609,0.9955612195572725,0.09352316339957996,-0.004347416556015023,0.009611242930033997
1668680701.2316537,45933,1668680701,231488722,,-0.09809643719916852,-0.6168364267082114,0.0781922819802058,0.9955612195569323,0.09352316341037552,-0.00434741707671899,0.009611242624700873
1668680701.239674,45934,1668680701,239522790,,-0.0980508479998196,-0.6168901242029589,0.07819228055942733,0.9955612195560363,0.09352316342131604,-0.004347417618590369,0.009611242365951308
1668680701.2477748,45935,1668680701,247602112,,-0.0980034120694068,-0.6169459963248362,0.07819227904559183,0.9955612195545854,0.093523163432399,-0.0043474181815306235,0.00961124215375527
1668680701.2556863,45936,1668680701,255548973,,-0.09795410396344709,-0.6170040729723617,0.07819227743598962,0.9955612195525809,0.09352316344362138,-0.004347418765442397,0.009611241988083987
1668680701.263341,45937,1668680701,263193879,,-0.09790289904100662,-0.6170643830924176,0.07819227572801676,0.9955612195500233,0.09352316345498037,-0.004347419370229272,0.009611241868909192
1668680701.2720935,45938,1668680701,271960104,,-0.09784977345536783,-0.617126954690943,0.07819227391918154,0.9955612195469139,0.09352316346647302,-0.004347419995796032,0.0096112417962035
1668680701.279616,45939,1668680701,279418180,,-0.09779470414396496,-0.6171918148444673,0.07819227200711103,0.9955612195432534,0.09352316347809661,-0.004347420642048281,0.009611241769939648
1668680701.2876961,45940,1668680701,287545696,,-0.09773766881767135,-0.6172589897124011,0.07819226998955557,0.9955612195390431,0.09352316348984802,-0.004347421308892148,0.009611241790089884
1668680701.2953603,45941,1668680701,295217613,,-0.09767864594950548,-0.6173285045499938,0.07819226786439457,0.9955612195342834,0.09352316350172468,-0.004347421996234564,0.009611241856626705
1668680701.3036187,45942,1668680701,303502559,,-0.0976176147628275,-0.6174003837218756,0.07819226562964024,0.9955612195289758,0.09352316351372374,-0.004347422703982703,0.009611241969521253
1668680701.3116982,45943,1668680701,311596526,,-0.09755455521908725,-0.6174746507161146,0.0781922632834413,0.9955612195231209,0.09352316352584197,-0.0043474234320443955,0.00961124212874418
1668680701.3196785,45944,1668680701,319561159,,-0.09748944800518436,-0.6175513281587166,0.07819226082408681,0.9955612195167198,0.09352316353807702,-0.004347424180327636,0.009611242334264683
1668680701.3278866,45945,1668680701,327793012,,-0.09742227452049557,-0.617630437828502,0.07819225825000814,0.9955612195097735,0.0935231635504257,-0.004347424948740257,0.009611242586050306
1668680701.335331,45946,1668680701,335230371,,-0.09735301686362051,-0.6177120006722988,0.07819225555978114,0.9955612195022829,0.09352316356288536,-0.004347425737190221,0.009611242884066753
1668680701.3440316,45947,1668680701,343833008,,-0.09728165781889436,-0.6177960368203951,0.07819225275212831,0.9955612194942492,0.093523163575453,-0.004347426545585386,0.009611243228277394
1668680701.35172,45948,1668680701,351540306,,-0.0972081808427134,-0.6178825656022013,0.07819224982591966,0.9955612194856732,0.09352316358812623,-0.0043474273738333775,0.009611243618643564
1668680701.3598306,45949,1668680701,359693617,,-0.09713257004971265,-0.6179716055620686,0.07819224678017289,0.9955612194765563,0.09352316360090197,-0.004347428221841318,0.009611244055123522
1668680701.3675153,45950,1668680701,367390335,,-0.09705481019883631,-0.6180631744752186,0.07819224361405432,0.9955612194668991,0.09352316361377745,-0.004347429089515919,0.009611244537672597
1668680701.3754697,45951,1668680701,375330827,,-0.0969748866793362,-0.6181572893637471,0.0781922403268785,0.9955612194567031,0.09352316362675026,-0.00434742997676322,0.009611245066243104
1668680701.383959,45952,1668680701,383854003,,-0.09689278549673136,-0.6182539665126571,0.07819223691810695,0.9955612194459695,0.0935231636398171,-0.004347430883488465,0.009611245640783417
1668680701.3916817,45953,1668680701,391500895,,-0.09680849325875822,-0.6183532214858889,0.07819223338734788,0.9955612194346992,0.09352316365297583,-0.004347431809596496,0.009611246261238405
1668680701.399573,45954,1668680701,399427491,,-0.09672199716134283,-0.6184550691423117,0.07819222973435436,0.9955612194228938,0.09352316366622317,-0.004347432754990591,0.009611246927548812
1668680701.407824,45955,1668680701,407696690,,-0.09663328497461605,-0.6185595236516497,0.07819222595902274,0.9955612194105544,0.09352316367955703,-0.004347433719573504,0.009611247639651219
1668680701.4159305,45956,1668680701,415768935,,-0.09654234502900115,-0.6186665985103087,0.0781922220613902,0.9955612193976823,0.09352316369297438,-0.004347434703246735,0.009611248397477724
1668680701.423654,45957,1668680701,423482217,,-0.09644916620139074,-0.6187763065570869,0.07819221804163276,0.995561219384279,0.09352316370647251,-0.004347435705910299,0.009611249200955704
1668680701.431911,45958,1668680701,431696574,,-0.09635373790143575,-0.6188886599887383,0.07819221390006216,0.9955612193703458,0.09352316372004893,-0.004347436727463425,0.009611250050007389
1668680701.439922,45959,1668680701,439805238,,-0.09625605005796364,-0.6190036703753692,0.07819220963712345,0.9955612193558844,0.09352316373370088,-0.004347437767803213,0.009611250944550011
1668680701.4478016,45960,1668680701,447637701,,-0.09615609310554234,-0.6191213486756563,0.07819220525339168,0.9955612193408961,0.09352316374742609,-0.004347438826826074,0.009611251884495966
1668680701.4558527,45961,1668680701,455690286,,-0.0960538579712049,-0.6192417052518537,0.07819220074956795,0.9955612193253827,0.09352316376122187,-0.004347439904426364,0.009611252869751038
1668680701.463411,45962,1668680701,463204030,,-0.09594933606134788,-0.6193647498845932,0.07819219612647647,0.9955612193093458,0.09352316377508559,-0.004347441000496825,0.009611253900216311
1668680701.4715817,45963,1668680701,471465984,,-0.09584251924881523,-0.6194904917874455,0.07819219138506056,0.9955612192927871,0.09352316378901492,-0.004347442114928906,0.00961125497578675
1668680701.479836,45964,1668680701,479690784,,-0.09573339986017931,-0.6196189396212408,0.07819218652637881,0.9955612192757084,0.09352316380300708,-0.0043474432476118,0.009611256096350813
1668680701.4878256,45965,1668680701,487693409,,-0.09562197066322699,-0.6197501015081357,0.0781921815516011,0.9955612192581115,0.09352316381705991,-0.00434744439843313,0.009611257261791436
1668680701.495458,45966,1668680701,495312703,,-0.09550822485466073,-0.619883985045416,0.07819217646200395,0.9955612192399984,0.09352316383117083,-0.0043474455672784735,0.009611258471984626
1668680701.5036736,45967,1668680701,503570556,,-0.09539215604802034,-0.6200205973190259,0.07819217125896741,0.9955612192213711,0.09352316384533754,-0.004347446754031463,0.009611259726800405
1668680701.511903,45968,1668680701,511791106,,-0.09527375826183285,-0.6201599449168214,0.07819216594396972,0.9955612192022317,0.09352316385955717,-0.004347447958573812,0.009611261026101808
1668680701.519738,45969,1668680701,519585601,,-0.0951530259079932,-0.6203020339415346,0.07819216051858366,0.9955612191825822,0.09352316387382807,-0.00434744918078525,0.009611262369745735
1668680701.527687,45970,1668680701,527538913,,-0.09502995378038537,-0.6204468700234517,0.07819215498447145,0.9955612191624249,0.0935231638881473,-0.004347450420543116,0.009611263757581161
1668680701.5353158,45971,1668680701,535207896,,-0.09490453704374037,-0.6205944583327961,0.07819214934338091,0.9955612191417621,0.09352316390251289,-0.0043474516777227004,0.009611265189451148
1668680701.5440955,45972,1668680701,543953401,,-0.09477677122274061,-0.6207448035918123,0.07819214359714106,0.995561219120596,0.09352316391692253,-0.00434745295219729,0.009611266665191296
1668680701.5516198,45973,1668680701,551501351,,-0.09464665219136816,-0.6208979100865546,0.07819213774765757,0.9955612190989293,0.09352316393137391,-0.004347454243837674,0.009611268184630095
1668680701.5596912,45974,1668680701,559562801,,-0.09451417616250034,-0.6210537816783723,0.07819213179690807,0.9955612190767642,0.09352316394586503,-0.004347455552512551,0.009611269747588778
1668680701.5678527,45975,1668680701,567690830,,-0.09437933967775361,-0.6212124218150956,0.07819212574693868,0.9955612190541034,0.09352316396039338,-0.004347456878088372,0.009611271353881417
1668680701.57587,45976,1668680701,575690017,,-0.09424213959757428,-0.6213738335419171,0.07819211959985875,0.9955612190309497,0.09352316397495694,-0.004347458220428894,0.009611273003314637
1668680701.583548,45977,1668680701,583465680,,-0.09410257309157849,-0.6215380195119767,0.07819211335783714,0.9955612190073058,0.09352316398955357,-0.004347459579395999,0.009611274695687861
1668680701.5914812,45978,1668680701,591387128,,-0.09396063762913859,-0.6217049819966437,0.07819210702309749,0.9955612189831744,0.09352316400418118,-0.0043474609548488675,0.009611276430792426
1668680701.5997505,45979,1668680701,599645632,,-0.09381439439916925,-0.6218753873694136,0.07819291974814323,0.9955612189584426,0.09352316401882844,-0.004347462351170903,0.009611278218442034
1668680701.6080818,45980,1668680701,607864394,,-0.09366202119224043,-0.6220531061221031,0.07819547034524701,0.9955612189328225,0.0935231640334697,-0.0043474637796125145,0.00961128008365763
1668680701.6156378,45981,1668680701,615521636,,-0.0935037620983689,-0.6222427536248667,0.07819986927083122,0.9955612189061696,0.09352316404809224,-0.004347465245791263,0.009611282038955884
1668680701.6234508,45982,1668680701,623327521,,-0.09334070225535028,-0.6224524502009451,0.0782048521829421,0.9955612188783398,0.093523164062683,-0.004347466755327648,0.009611284096842887
1668680701.632062,45983,1668680701,631885787,,-0.0931738644631786,-0.6226879153441928,0.07820916339989104,0.9955612188491659,0.09352316407722829,-0.004347468314755871,0.009611286271835225
1668680701.639817,45984,1668680701,639679448,,-0.09300393700543806,-0.622951084711866,0.07821184048250235,0.9955612188186334,0.09352316409172619,-0.004347469924642064,0.009611288565202866
1668680701.6479533,45985,1668680701,647777246,,-0.09283184590024916,-0.6232457325465517,0.07821146321159245,0.9955612187866559,0.09352316410616986,-0.004347471588351026,0.009611290984410204
1668680701.655445,45986,1668680701,655307842,,-0.09265804766762681,-0.6235708110101025,0.07820851805921128,0.9955612187532551,0.09352316412056116,-0.0043474733050510505,0.0096112935276065
1668680701.6639125,45987,1668680701,663751131,,-0.09248267106382149,-0.6239232591799116,0.07820399530541096,0.995561218718542,0.09352316413490828,-0.004347475070401226,0.009611296185156857
1668680701.6722038,45988,1668680701,671954890,,-0.09230575984088167,-0.624300495164358,0.07819844210527353,0.9955612186825928,0.09352316414921726,-0.004347476881416597,0.009611298950435191
1668680701.679664,45989,1668680701,679503935,,-0.0921253310056667,-0.624694148802921,0.07819348679313211,0.995561218645498,0.09352316416349472,-0.004347478734580653,0.009611301815637175
1668680701.68763,45990,1668680701,687503188,,-0.0919390571835814,-0.6250931445239833,0.07819125904278366,0.9955612186073791,0.09352316417774924,-0.004347480625142458,0.00961130477022721
1668680701.6957598,45991,1668680701,695650597,,-0.0917465984571302,-0.6254912870327621,0.0781931417587745,0.9955612185684634,0.09352316419199691,-0.004347482544213989,0.009611307794505567
1668680701.7035892,45992,1668680701,703474352,,-0.09154748135151675,-0.6258883165961555,0.07819830233151212,0.9955612185287692,0.09352316420623824,-0.0043474844910832,0.009611310886913858
1668680701.7117672,45993,1668680701,711575980,,-0.09134150009624405,-0.6262859380632702,0.07820541395078644,0.9955612184881414,0.09352316422046184,-0.004347486471806609,0.009611314060900954
1668680701.7199063,45994,1668680701,719776682,,-0.0911285984237877,-0.6266900170736283,0.07821012030908543,0.9955612184464174,0.09352316423465605,-0.004347488492722308,0.009611317330512152
1668680701.7282064,45995,1668680701,727883915,,-0.0909084801903858,-0.6271091564764196,0.07820619099730484,0.9955612184030993,0.09352316424878773,-0.004347490573300151,0.0096113207388871
1668680701.7360897,45996,1668680701,735894574,,-0.09068162835362308,-0.6275487823853823,0.07818955985780192,0.995561218357952,0.09352316426284288,-0.004347492722736819,0.009611324306323358
1668680701.7434065,45997,1668680701,743234558,,-0.09044888859394253,-0.6280125487948391,0.07815738214487199,0.9955612183108645,0.09352316427681698,-0.004347494945404416,0.00961132804238601
1668680701.751924,45998,1668680701,751749652,,-0.0902107738795686,-0.6285001825967945,0.07810960645287941,0.9955612182618666,0.09352316429071483,-0.004347497240192865,0.009611331944459489
1668680701.7597654,45999,1668680701,759647298,,-0.08996771086828698,-0.6290125040931508,0.07804701027522894,0.9955612182109976,0.09352316430454248,-0.004347499605608765,0.009611336009068858
1668680701.7678685,46000,1668680701,767739264,,-0.08972123703352416,-0.6295508471142867,0.0779740745102538,0.995561218158312,0.09352316431830654,-0.004347502039582944,0.009611340231461337
1668680701.77545,46001,1668680701,775328654,,-0.08947328905808681,-0.6301137086764059,0.0778974770841851,0.9955612181042223,0.09352316433203574,-0.004347504526064699,0.009611344575872231
1668680701.7836783,46002,1668680701,783557812,,-0.08922450764054125,-0.630699038257813,0.07781963706548743,0.9955612180489781,0.09352316434574719,-0.004347507055351861,0.009611349020663197
1668680701.7919142,46003,1668680701,791693509,,-0.08897465320299669,-0.6313058776844387,0.07773936940550596,0.9955612179926341,0.09352316435944569,-0.004347509625348668,0.009611353561095024
1668680701.7997978,46004,1668680701,799671859,,-0.08872238533302379,-0.6319329079412601,0.07765271570663518,0.9955612179350546,0.09352316437312523,-0.00434751224137124,0.009611358208868487
1668680701.8075569,46005,1668680701,807451377,,-0.08846610453604513,-0.6325773716362738,0.07755596772187998,0.9955612178760856,0.09352316438677952,-0.004347514909454012,0.009611362977252914
1668680701.815534,46006,1668680701,815344730,,-0.08820390547168241,-0.6332355776640487,0.07744821544617965,0.9955612178156266,0.09352316440040613,-0.004347517633570921,0.009611367874914355
1668680701.8236635,46007,1668680701,823558821,,-0.08793463083027123,-0.633904313785309,0.07733016081052037,0.9955612177535812,0.09352316441400348,-0.004347520417515951,0.009611372910101683
1668680701.8328702,46008,1668680701,832603566,,-0.08765795426288714,-0.6345813206102326,0.07720264934472164,0.9955612176900532,0.09352316442758066,-0.004347523257311897,0.009611378073796849
1668680701.8398736,46009,1668680701,839762969,,-0.08737285635509899,-0.6352632387830638,0.0770673958118093,0.9955612176250312,0.09352316444114138,-0.004347526153446568,0.009611383366898579
1668680701.8476293,46010,1668680701,847493719,,-0.08707896447507156,-0.635947222737173,0.07692644631135148,0.9955612175585989,0.09352316445469312,-0.004347529102732041,0.009611388782140958
1668680701.8560011,46011,1668680701,855852880,,-0.08677653541805387,-0.6366316271042025,0.07678090808449635,0.9955612174909046,0.09352316446824688,-0.004347532099439099,0.009611394306627143
1668680701.8642046,46012,1668680701,863878088,,-0.08646554410106004,-0.6373163789772195,0.07662944659397673,0.995561217421999,0.09352316448180847,-0.004347535141641505,0.009611399935911872
1668680701.871668,46013,1668680701,871536689,,-0.08614612009992702,-0.6380017064107056,0.07647071177115954,0.9955612173518363,0.09352316449537904,-0.004347538231176854,0.009611405673907959
1668680701.8795743,46014,1668680701,879472819,,-0.08581834043132104,-0.6386884839751241,0.07630432545805099,0.9955612172804507,0.09352316450896403,-0.004347541366769989,0.009611411517600362
1668680701.8878589,46015,1668680701,887646392,,-0.08548196922293963,-0.6393783372718386,0.07612928237150238,0.9955612172076478,0.09352316452255949,-0.004347544556045249,0.009611417483722805
1668680701.896058,46016,1668680701,895911818,,-0.08513767664530934,-0.6400719036390281,0.07594707385304583,0.9955612171334808,0.093523164536172,-0.004347547796984656,0.009611423567575219
1668680701.9035313,46017,1668680701,903337713,,-0.08478655549374696,-0.6407693129308087,0.07576035610474899,0.9955612170581818,0.09352316454981466,-0.004347551080638248,0.00961142974907739
1668680701.9116073,46018,1668680701,911507155,,-0.08442934718905049,-0.6414699931872272,0.07557045373749066,0.9955612169819602,0.0935231645634991,-0.004347554398902699,0.009611436010063994
1668680701.9196427,46019,1668680701,919545630,,-0.08406785741963563,-0.6421725672442856,0.07538304153799681,0.9955612169052139,0.09352316457724079,-0.004347557736354316,0.009611442316171245
1668680701.9278147,46020,1668680701,927722136,,-0.0837047260470957,-0.6428751012304564,0.0752063227915243,0.9955612168286935,0.09352316459106506,-0.004347561063814518,0.009611448602583367
1668680701.935766,46021,1668680701,935639877,,-0.08334163529531055,-0.6435759487978134,0.07504435952821503,0.9955612167529376,0.09352316460498629,-0.004347564360318163,0.00961145482285554
1668680701.9434862,46022,1668680701,943381188,,-0.08297776375832196,-0.6442748402984986,0.07489299126673021,0.9955612166779505,0.09352316461900095,-0.004347567625653033,0.009611460976688796
1668680701.9516766,46023,1668680701,951534816,,-0.08261183563624562,-0.644971887538549,0.07474678460870261,0.9955612166033234,0.09352316463309389,-0.004347570875655242,0.009611467099406718
1668680701.9599633,46024,1668680701,959865061,,-0.08224230584812095,-0.6456658402041852,0.0746026590316836,0.9955612165289187,0.09352316464726015,-0.004347574115641787,0.00961147320289201
1668680701.9676132,46025,1668680701,967484499,,-0.08186681859057778,-0.6463551381386771,0.07445620460501329,0.9955612164542681,0.09352316466148726,-0.0043475773637983665,0.009611479327559238
1668680701.9765887,46026,1668680701,976476396,,-0.08148398121516724,-0.6470382400310392,0.07430587193953476,0.9955612163791627,0.09352316467577138,-0.004347580628249461,0.00961148549139858
1668680701.983902,46027,1668680701,983747214,,-0.08109292981098545,-0.6477136825490112,0.07415157219770585,0.9955612163034849,0.09352316469011177,-0.004347583913591895,0.009611491704530213
1668680701.9925811,46028,1668680701,992439801,,-0.08069387792638336,-0.648381044582238,0.07399368508573369,0.9955612162272848,0.09352316470451148,-0.004347587217912984,0.009611497962602621
1668680702.0004203,46029,1668680702,230176,,-0.08028795729265262,-0.6490405008287562,0.07383570532767714,0.9955612161507823,0.09352316471897616,-0.0043475905326887734,0.009611504246604294
1668680702.008314,46030,1668680702,8187801,,-0.07987816333612341,-0.6496908789887638,0.07368508706311964,0.995561216074596,0.0935231647335149,-0.0043475938339348685,0.009611510503271007
1668680702.015883,46031,1668680702,15753138,,-0.07946789328068324,-0.6503303435192058,0.07354802265209387,0.9955612159997178,0.09352316474813853,-0.0043475970831151345,0.00961151664716655
1668680702.0237498,46032,1668680702,23576620,,-0.07906027052074165,-0.650958505034083,0.07342920481319057,0.9955612159268132,0.0935231647628477,-0.004347600254307775,0.009611522621061925
1668680702.03209,46033,1668680702,31937115,,-0.07865713345645975,-0.6515757465554716,0.07333067856362313,0.9955612158563907,0.09352316477763822,-0.004347603327665186,0.009611528381330664
1668680702.0398061,46034,1668680702,39662780,,-0.0782595801430206,-0.652183225652928,0.07325408034071967,0.9955612157884803,0.09352316479249885,-0.004347606301857817,0.009611533925549507
1668680702.0476797,46035,1668680702,47531718,,-0.07786932872699352,-0.6527824030784231,0.07320248988719347,0.995561215723352,0.09352316480742036,-0.004347609166265326,0.009611539230674584
1668680702.0554178,46036,1668680702,55279627,,-0.07748692319236822,-0.6533744000010232,0.07317676233027838,0.995561215661019,0.0935231648223907,-0.004347611920208963,0.00961154429576305
1668680702.06393,46037,1668680702,63800567,,-0.07711212322361788,-0.6539598952175484,0.07317601907188842,0.9955612156013401,0.09352316483739792,-0.004347614568987095,0.009611549133121648
1668680702.071548,46038,1668680702,71430931,,-0.07674452726211843,-0.6545393144522103,0.07319887606894808,0.9955612155441406,0.09352316485243096,-0.0043476171192385945,0.00961155375799153
1668680702.0797803,46039,1668680702,79649456,,-0.07638368197799085,-0.6551137148267832,0.07324432129690547,0.9955612154892395,0.09352316486747994,-0.00434761957783737,0.00961155818608723
1668680702.087845,46040,1668680702,87734532,,-0.07602892078652566,-0.6556839747196057,0.07331050943320559,0.995561215436397,0.09352316488253633,-0.004347621953960895,0.009611562438188776
1668680702.0953934,46041,1668680702,95208821,,-0.0756796533536554,-0.6562503377785177,0.07339524447151173,0.9955612153854438,0.09352316489759269,-0.00434762425406218,0.009611566528980198
1668680702.103669,46042,1668680702,103562350,,-0.07533537193155246,-0.656812905778583,0.07349674544805085,0.9955612153362415,0.0935231649126421,-0.004347626483414964,0.009611570470491281
1668680702.1115437,46043,1668680702,111423615,,-0.07499456810999221,-0.6573712146290093,0.07361266719735514,0.9955612152885611,0.09352316492767991,-0.004347628650799112,0.009611574282489798
1668680702.11973,46044,1668680702,119550460,,-0.07465455265244365,-0.6579239285258608,0.07374024924342558,0.9955612152419571,0.09352316494270403,-0.004347630773428648,0.009611578003396685
1668680702.1278439,46045,1668680702,127637637,,-0.07431321543289961,-0.6584698424246791,0.07387744427474018,0.995561215196059,0.09352316495771422,-0.00434763286559701,0.009611581665076281
1668680702.136612,46046,1668680702,136489650,,-0.07397020203443205,-0.6590087575855319,0.07402288798659874,0.9955612151507537,0.0935231649727091,-0.004347634931665584,0.009611585277308432
1668680702.1439445,46047,1668680702,143804315,,-0.0736260268428605,-0.6595409820351974,0.0741755913069189,0.9955612151061274,0.09352316498768487,-0.004347636968275737,0.009611588832733513
1668680702.1525445,46048,1668680702,152237713,,-0.07328086122552686,-0.6600668428589552,0.07433466076485788,0.9955612150622013,0.09352316500263852,-0.0043476389745707705,0.009611592329551446
1668680702.160556,46049,1668680702,160395649,,-0.07293520250885722,-0.6605867249912093,0.07449940845660478,0.9955612150190126,0.0935231650175666,-0.00434764094907769,0.00961159576459999
1668680702.1680841,46050,1668680702,167856351,,-0.0725891963623797,-0.6611014522577117,0.07466935332134958,0.9955612149765997,0.09352316503246594,-0.0043476428902943995,0.009611599134651727
1668680702.1757638,46051,1668680702,175518755,,-0.07224231002565269,-0.661611983451621,0.07484399794847109,0.9955612149347985,0.0935231650473364,-0.004347644804536169,0.009611602453815383
1668680702.183624,46052,1668680702,183528412,,-0.07189436133077164,-0.6621187596625638,0.07502271159081966,0.9955612148935372,0.09352316506217737,-0.0043476466945628475,0.009611605728288682
1668680702.1916003,46053,1668680702,191445860,,-0.07154631591184794,-0.6626218574176063,0.07520482245931712,0.9955612148529248,0.09352316507698416,-0.00434764855614344,0.009611608948762987
1668680702.1997366,46054,1668680702,199629969,,-0.07119858217246236,-0.6631216637462053,0.07538994914113965,0.9955612148131104,0.09352316509175061,-0.004347650383473782,0.009611612102450633
1668680702.2076297,46055,1668680702,207493939,,-0.07085030642275347,-0.663618805568932,0.07557786066164031,0.9955612147738879,0.09352316510647969,-0.004347652184509235,0.009611615207090028
1668680702.2158473,46056,1668680702,215532344,,-0.07050030990666387,-0.6641132331534191,0.0757682086280234,0.9955612147350759,0.09352316512117327,-0.004347653966262941,0.009611618278291092
1668680702.2238982,46057,1668680702,223772749,,-0.07014775999077312,-0.6646047477636461,0.07596053843319092,0.9955612146964865,0.09352316513583528,-0.004347655735983839,0.009611621332158444
1668680702.23172,46058,1668680702,231594614,,-0.06979230131505218,-0.6650933311564279,0.07615437428084897,0.9955612146580838,0.09352316515046626,-0.004347657495078363,0.00961162437181074
1668680702.2403202,46059,1668680702,240139334,,-0.0694339328306538,-0.6655790015322461,0.07634876912336863,0.9955612146198235,0.0935231651650666,-0.004347659245260139,0.009611627401042827
1668680702.248441,46060,1668680702,248286202,,-0.06907323244416098,-0.6660619556257948,0.07654214206809319,0.9955612145818151,0.09352316517963216,-0.004347660982297409,0.009611630410461154
1668680702.255413,46061,1668680702,255210267,,-0.06871047150818899,-0.6665423543509397,0.07673320392532552,0.9955612145441052,0.09352316519416079,-0.004347662704393597,0.009611633396086517
1668680702.2636323,46062,1668680702,263541440,,-0.068345782901782,-0.6670203577599441,0.07692141854724384,0.9955612145067152,0.09352316520865064,-0.004347664410714026,0.009611636356076873
1668680702.2716537,46063,1668680702,271516123,,-0.06797872199686462,-0.6674969458796095,0.07710613855674804,0.9955612144695624,0.09352316522310354,-0.004347666104469854,0.009611639297557114
1668680702.2798975,46064,1668680702,279710599,,-0.06760920435109397,-0.667972362274068,0.07728653709402655,0.9955612144325441,0.09352316523752299,-0.004347667789621381,0.009611642229303014
1668680702.2878544,46065,1668680702,287678187,,-0.06723783158048367,-0.6684456628094464,0.07746223816933179,0.995561214395835,0.09352316525190148,-0.004347669459434211,0.009611645136364155
1668680702.2954445,46066,1668680702,295274864,,-0.06686523417055817,-0.6689169963668179,0.0776331032788019,0.9955612143595421,0.09352316526623358,-0.004347671109769389,0.009611648009572153
1668680702.303712,46067,1668680702,303556556,,-0.06649182015795822,-0.6693868582003006,0.0777991389204361,0.9955612143237359,0.09352316528051548,-0.004347672737900945,0.009611650842905599
1668680702.3121872,46068,1668680702,311963087,,-0.06611777468048582,-0.6698555465784666,0.07796037847142345,0.9955612142884256,0.09352316529474483,-0.004347674343464393,0.009611653635587962
1668680702.3202648,46069,1668680702,320140797,,-0.06574253237921066,-0.6703244107027204,0.07811693992381218,0.9955612142535161,0.09352316530892499,-0.0043476759301358595,0.009611656395792575
1668680702.3284752,46070,1668680702,328225748,,-0.06536571454407772,-0.6707948862257531,0.07826871700441973,0.9955612142187893,0.09352316532306407,-0.004347677506330677,0.009611659142185116
1668680702.3354733,46071,1668680702,335327206,,-0.06498789646991332,-0.6712674258261724,0.0784154130824234,0.9955612141843402,0.09352316533715767,-0.004347679068406711,0.009611661866667997
1668680702.3439817,46072,1668680702,343849468,,-0.06460924982379451,-0.671742069104435,0.0785570096899071,0.9955612141502097,0.09352316535120293,-0.0043476806147772305,0.00961166456571385
1668680702.3517709,46073,1668680702,351622473,,-0.0642291383620016,-0.6722184464882265,0.07869318853393845,0.9955612141163358,0.09352316536520239,-0.004347682147846546,0.009611667244643131
1668680702.359629,46074,1668680702,359511429,,-0.06384588796105523,-0.6726957176204983,0.07882337708071127,0.9955612140824779,0.09352316537916787,-0.0043476836769149405,0.00961166992404454
1668680702.367781,46075,1668680702,367668482,,-0.06345798775154173,-0.6731730501264181,0.07894734882272708,0.9955612140483698,0.09352316539311382,-0.0043476852122913716,0.009611672626702742
1668680702.3754284,46076,1668680702,375337475,,-0.0630644799586576,-0.6736493256238022,0.07906520658028895,0.9955612140138836,0.09352316540704873,-0.004347686758954979,0.00961167536354294
1668680702.3838153,46077,1668680702,383619406,,-0.06266506658116511,-0.6741237830114777,0.0791772109657022,0.995561213978972,0.09352316542097709,-0.0043476883187605455,0.009611678138544081
1668680702.3916795,46078,1668680702,391568403,,-0.06225979111407558,-0.674596128487378,0.0792836082434276,0.9955612139436725,0.09352316543489872,-0.004347689890318456,0.009611680948481706
1668680702.3997557,46079,1668680702,399604585,,-0.061849074538529634,-0.6750659008231297,0.0793847931808498,0.9955612139080458,0.09352316544881202,-0.0043476914713239485,0.009611683788111457
1668680702.407855,46080,1668680702,407658232,,-0.061431482852135025,-0.6755340465164283,0.07948140141705212,0.9955612138719524,0.09352316546272753,-0.004347693067204255,0.009611686669317015
1668680702.4157324,46081,1668680702,415582880,,-0.061004178469654606,-0.6760021211834344,0.07957400960679412,0.995561213834679,0.09352316547669204,-0.00434769470554745,0.009611689653081993
1668680702.4235713,46082,1668680702,423363033,,-0.060567050358577616,-0.6764710197213013,0.07966285105069237,0.995561213796045,0.09352316549072252,-0.004347696393394398,0.009611692754725811
1668680702.4320898,46083,1668680702,431934093,,-0.060121166069961395,-0.6769410846402656,0.07974800863760038,0.9955612137562493,0.09352316550481148,-0.004347698123185375,0.00961169595716393
1668680702.440023,46084,1668680702,439843204,,-0.05966708067915073,-0.677413261876516,0.07983021695142459,0.9955612137153742,0.0935231655189593,-0.004347699891831803,0.009611699253249884
1668680702.447754,46085,1668680702,447574685,,-0.059205245960440106,-0.6778889500904659,0.07991048098431607,0.9955612136734201,0.09352316553317093,-0.0043477016994123195,0.009611702642868591
1668680702.4558506,46086,1668680702,455587440,,-0.05873649939588513,-0.6783695628997918,0.07998957961012684,0.9955612136304692,0.09352316554744594,-0.004347703542836997,0.009611706118875065
1668680702.463586,46087,1668680702,463425825,,-0.058261838265584925,-0.6788564622995061,0.08006815404627467,0.995561213586659,0.09352316556177952,-0.0043477054169157765,0.009611709669480257
1668680702.4719136,46088,1668680702,471737223,,-0.05778191876862153,-0.6793497613984238,0.08014633559730715,0.9955612135421251,0.09352316557616623,-0.0043477073164882776,0.009611713282981207
1668680702.4796672,46089,1668680702,479490556,,-0.05729660708416164,-0.6798500717373327,0.08022451701233037,0.9955612134968728,0.0935231655906103,-0.004347709241436159,0.009611716958869676
1668680702.487602,46090,1668680702,487474888,,-0.056805711885426255,-0.6803585509002826,0.0803032460680167,0.99556121345075,0.09352316560512747,-0.0043477111976834276,0.009611720710036777
