Time,header.seq,header.stamp.secs,header.stamp.nsecs,header.frame_id,wrench.force.x,wrench.force.y,wrench.force.z,wrench.torque.x,wrench.torque.y,wrench.torque.z
1668680699.9755502,45776,1668680699,975340429,,-2.321999791087894e-159,-1.5390641259323145e-167,5e-324,5e-324,-5e-324,0.0
1668680699.98394,45777,1668680699,983677518,,-1.228518560266922e-159,-8.142846745317667e-168,5e-324,5e-324,-5e-324,0.0
1668680699.9916866,45778,1668680699,991464578,,-6.499819072822568e-160,-4.308199509072733e-168,5e-324,5e-324,-5e-324,0.0
1668680699.9998386,45779,1668680699,999647676,,-3.438910029185788e-160,-2.279372753840335e-168,5e-324,5e-324,-5e-324,0.0
1668680700.007755,45780,1668680700,7506224,,-1.8194509810715504e-160,-1.2059655408270367e-168,5e-324,5e-324,-5e-324,0.0
1668680700.015512,45781,1668680700,15295245,,-1.8194509810715504e-160,-1.2059655408270367e-168,5e-324,5e-324,-5e-324,0.0
1668680700.023998,45782,1668680700,23581498,,-9.626311373159166e-161,-6.380496051871826e-169,5e-324,5e-324,-5e-324,0.0
1668680700.031815,45783,1668680700,31602941,,-5.093067723013825e-161,-3.3757788667852844e-169,5e-324,5e-324,-5e-324,0.0
1668680700.0400717,45784,1668680700,39867069,,-2.6946291082512997e-161,-1.7860496840352976e-169,5e-324,5e-324,-5e-324,0.0
1668680700.047958,45785,1668680700,47646444,,-1.4256684626880397e-161,-9.449592522866764e-170,5e-324,5e-324,-5e-324,0.0
1668680700.0555546,45786,1668680700,55340084,,-1.4256684626880397e-161,-9.449592522866764e-170,5e-324,5e-324,-5e-324,0.0
1668680700.063735,45787,1668680700,63476992,,-7.542895455554196e-162,-4.9995697010215274e-170,5e-324,5e-324,-5e-324,0.0
1668680700.071826,45788,1668680700,71599200,,-3.9907785956172747e-162,-2.6451613796982466e-170,5e-324,5e-324,-5e-324,0.0
1668680700.0799685,45789,1668680700,79762159,,-2.1114323926509785e-162,-1.3994961852852072e-170,5e-324,5e-324,-5e-324,0.0
1668680700.0880177,45790,1668680700,87767790,,-1.11711202260928e-162,-7.404423743897538e-171,5e-324,5e-324,-5e-324,0.0
1668680700.095634,45791,1668680700,95403951,,-1.11711202260928e-162,-7.404423743897538e-171,5e-324,5e-324,-5e-324,0.0
1668680700.1041608,45792,1668680700,103844639,,-5.910391805116547e-163,-3.9175162859068885e-171,5e-324,5e-324,-5e-324,0.0
1668680700.111837,45793,1668680700,111607022,,-3.1270571422546466e-163,-2.0726709304007754e-171,5e-324,5e-324,-5e-324,0.0
1668680700.1196775,45794,1668680700,119465714,,-1.6544565391520563e-163,-1.09660419311669e-171,5e-324,5e-324,-5e-324,0.0
1668680700.1276753,45795,1668680700,127398138,,-8.753362396087926e-164,-5.801889430313867e-172,5e-324,5e-324,-5e-324,0.0
1668680700.1354241,45796,1668680700,135207201,,-8.753362396087926e-164,-5.801889430313867e-172,5e-324,5e-324,-5e-324,0.0
1668680700.1438558,45797,1668680700,143602320,,-4.631209791495412e-164,-3.0696509436022003e-172,5e-324,5e-324,-5e-324,0.0
1668680700.1519654,45798,1668680700,151726375,,-2.4502703261124683e-164,-1.6240841933880376e-172,5e-324,5e-324,-5e-324,0.0
1668680700.1599543,45799,1668680700,159710424,,-1.2963836538030538e-164,-8.592669054800158e-173,5e-324,5e-324,-5e-324,0.0
1668680700.1677787,45800,1668680700,167570754,,-6.858878222282383e-165,-4.546190510683661e-173,5e-324,5e-324,-5e-324,0.0
1668680700.1758666,45801,1668680700,175649803,,-3.628880257020464e-165,-2.4052885113600875e-173,5e-324,5e-324,-5e-324,0.0
1668680700.183531,45802,1668680700,183285207,,-3.628880257020464e-165,-2.4052885113600875e-173,5e-324,5e-324,-5e-324,0.0
1668680700.1918833,45803,1668680700,191664617,,-1.919960012850443e-165,-1.2725847738419588e-173,5e-324,5e-324,-5e-324,0.0
1668680700.1998801,45804,1668680700,199647119,,-1.0158082355606053e-165,-6.7329636297919515e-174,5e-324,5e-324,-5e-324,0.0
1668680700.207794,45805,1668680700,207546543,,-5.3744159489072044e-166,-3.5622616403967013e-174,5e-324,5e-324,-5e-324,0.0
1668680700.2156558,45806,1668680700,215455168,,-2.843484210966985e-166,-1.8847135811773142e-174,5e-324,5e-324,-5e-324,0.0
1668680700.2234569,45807,1668680700,223247012,,-2.843484210966985e-166,-1.8847135811773142e-174,5e-324,5e-324,-5e-324,0.0
1668680700.23217,45808,1668680700,231944879,,-1.5044243941823232e-166,-9.971601307417278e-175,5e-324,5e-324,-5e-324,0.0
1668680700.2408879,45809,1668680700,240489818,,-7.959575611784991e-167,-5.275752964648017e-175,5e-324,5e-324,-5e-324,0.0
1668680700.24804,45810,1668680700,247755146,,-4.211234819424522e-167,-2.79128381549798e-175,5e-324,5e-324,-5e-324,0.0
1668680700.2558513,45811,1668680700,255537191,,-4.211234819424522e-167,-2.79128381549798e-175,5e-324,5e-324,-5e-324,0.0
1668680700.2638528,45812,1668680700,263575661,,-2.2280708883618982e-167,-1.4768063233568727e-175,5e-324,5e-324,-5e-324,0.0
1668680700.2717574,45813,1668680700,271457280,,-1.178822862279659e-167,-7.813454527975867e-176,5e-324,5e-324,-5e-324,0.0
1668680700.2796981,45814,1668680700,279442407,,-6.236890163108205e-168,-4.133925396661084e-176,5e-324,5e-324,-5e-324,0.0
1668680700.287849,45815,1668680700,287641539,,-3.299800177903887e-168,-2.1871681884077747e-176,5e-324,5e-324,-5e-324,0.0
1668680700.2955534,45816,1668680700,295335556,,-3.299800177903887e-168,-2.1871681884077747e-176,5e-324,5e-324,-5e-324,0.0
1668680700.3039355,45817,1668680700,303668539,,-1.7458510458468716e-168,-1.1571821514356987e-176,5e-324,5e-324,-5e-324,0.0
1668680700.3116975,45818,1668680700,311509585,,-9.236910448985963e-169,-6.12239396448142e-177,5e-324,5e-324,-5e-324,0.0
1668680700.3197567,45819,1668680700,319519341,,-4.8870443355148365e-169,-3.2392227800794408e-177,5e-324,5e-324,-5e-324,0.0
1668680700.3284059,45820,1668680700,328143154,,-2.5856267059414407e-169,-1.7138008889753509e-177,5e-324,5e-324,-5e-324,0.0
1668680700.3358865,45821,1668680700,335678839,,-1.3679977105780217e-169,-9.06734018146375e-178,5e-324,5e-324,-5e-324,0.0
1668680700.3434477,45822,1668680700,343224046,,-1.3679977105780217e-169,-9.06734018146375e-178,5e-324,5e-324,-5e-324,0.0
1668680700.3526087,45823,1668680700,352359753,,-7.237772304278994e-170,-4.7973284700268106e-178,5e-324,5e-324,-5e-324,0.0
1668680700.3607774,45824,1668680700,360458551,,-3.829344707488846e-170,-2.5381600324621927e-178,5e-324,5e-324,-5e-324,0.0
1668680700.3687384,45825,1668680700,368407388,,-2.0260213049398508e-170,-1.342884147007861e-178,5e-324,5e-324,-5e-324,0.0
1668680700.3764424,45826,1668680700,376189483,,-1.0719229115213133e-170,-7.104902012564063e-179,5e-324,5e-324,-5e-324,0.0
1668680700.384214,45827,1668680700,383890523,,-1.0719229115213133e-170,-7.104902012564063e-179,5e-324,5e-324,-5e-324,0.0
1668680700.39235,45828,1668680700,391984889,,-5.67130624659666e-171,-3.7590459847644164e-179,5e-324,5e-324,-5e-324,0.0
1668680700.4004912,45829,1668680700,400208254,,-3.000562278964477e-171,-1.9888278107967882e-179,5e-324,5e-324,-5e-324,0.0
1668680700.4077632,45830,1668680700,407564852,,-1.5875309141253665e-171,-1.052244659158283e-179,5e-324,5e-324,-5e-324,0.0
1668680700.4158015,45831,1668680700,415537706,,-8.399273766027232e-172,-5.567192980288945e-180,5e-324,5e-324,-5e-324,0.0
1668680700.4235728,45832,1668680700,423359815,,-8.399273766027232e-172,-5.567192980288945e-180,5e-324,5e-324,-5e-324,0.0
1668680700.431715,45833,1668680700,431552160,,-4.443869355170375e-172,-2.9454782602147964e-180,5e-324,5e-324,-5e-324,0.0
1668680700.439788,45834,1668680700,439550078,,-2.3511526586616962e-172,-1.5583871822147067e-180,5e-324,5e-324,-5e-324,0.0
1668680700.4478846,45835,1668680700,447647307,,-1.243942695547589e-172,-8.245080747986889e-181,5e-324,5e-324,-5e-324,0.0
1668680700.4555101,45836,1668680700,455304920,,-1.243942695547589e-172,-8.245080747986889e-181,5e-324,5e-324,-5e-324,0.0
1668680700.463678,45837,1668680700,463445353,,-6.581424749709771e-173,-4.3622892511354027e-181,5e-324,5e-324,-5e-324,0.0
1668680700.4716425,45838,1668680700,471440855,,-3.482085781855474e-173,-2.3079904360206191e-181,5e-324,5e-324,-5e-324,0.0
1668680700.4796896,45839,1668680700,479469660,,-1.8422943136643377e-173,-1.221106521392684e-181,5e-324,5e-324,-5e-324,0.0
1668680700.4877121,45840,1668680700,487490444,,-9.747170376576394e-174,-6.460603619998797e-182,5e-324,5e-324,-5e-324,0.0
1668680700.4955196,45841,1668680700,495295953,,-9.747170376576394e-174,-6.460603619998797e-182,5e-324,5e-324,-5e-324,0.0
1668680700.5038114,45842,1668680700,503593014,,-5.157011539651235e-174,-3.41816200335556e-182,5e-324,5e-324,-5e-324,0.0
1668680700.511901,45843,1668680700,511597784,,-2.728460362610095e-174,-1.808473661039411e-182,5e-324,5e-324,-5e-324,0.0
1668680700.520617,45844,1668680700,520318350,,-1.4435678285951393e-174,-9.568232808926588e-183,5e-324,5e-324,-5e-324,0.0
1668680700.5280704,45845,1668680700,527773755,,-7.637597028389302e-175,-5.062339643542316e-183,5e-324,5e-324,-5e-324,0.0
1668680700.5356045,45846,1668680700,535370995,,-7.637597028389302e-175,-5.062339643542316e-183,5e-324,5e-324,-5e-324,0.0
1668680700.5445287,45847,1668680700,544180867,,-4.04088309621238e-175,-2.678371563312237e-183,5e-324,5e-324,-5e-324,0.0
1668680700.55202,45848,1668680700,551757740,,-2.1379415720101864e-175,-1.4170669564438661e-183,5e-324,5e-324,-5e-324,0.0
1668680700.5598278,45849,1668680700,559565853,,-1.131137441123626e-175,-7.497386794839511e-184,5e-324,5e-324,-5e-324,0.0
1668680700.5678644,45850,1668680700,567607076,,-5.9845971819926255e-176,-3.9667009731491493e-184,5e-324,5e-324,-5e-324,0.0
1668680700.5757213,45851,1668680700,575502012,,-3.166317560413923e-176,-2.0986934569272447e-184,5e-324,5e-324,-5e-324,0.0
1668680700.5834792,45852,1668680700,583257403,,-3.166317560413923e-176,-2.0986934569272447e-184,5e-324,5e-324,-5e-324,0.0
1668680700.5918615,45853,1668680700,591591970,,-1.6752283551434412e-176,-1.1103721344169034e-184,5e-324,5e-324,-5e-324,0.0
1668680700.5997982,45854,1668680700,599565763,,-8.863261464872552e-177,-5.874732552388624e-185,5e-324,5e-324,-5e-324,0.0
1668680700.6077988,45855,1668680700,607533036,,-4.689354949938647e-177,-3.1081906229768916e-185,5e-324,5e-324,-5e-324,0.0
1668680700.6158886,45856,1668680700,615563817,,-4.689354949938647e-177,-3.1081906229768916e-185,5e-324,5e-324,-5e-324,0.0
1668680700.6238012,45857,1668680700,623594718,,-2.481033639102995e-177,-1.6444746824829405e-185,5e-324,5e-324,-5e-324,0.0
1668680700.6318548,45858,1668680700,631621515,,-1.3126598400151362e-177,-8.700550607598542e-186,5e-324,5e-324,-5e-324,0.0
1668680700.6398318,45859,1668680700,639621934,,-6.944991911562844e-178,-4.603268246190749e-186,5e-324,5e-324,-5e-324,0.0
1668680700.6478446,45860,1668680700,647574056,,-3.6744410990068187e-178,-2.4354870745630634e-186,5e-324,5e-324,-5e-324,0.0
1668680700.655498,45861,1668680700,655296649,,-3.6744410990068187e-178,-2.4354870745630634e-186,5e-324,5e-324,-5e-324,0.0
1668680700.6637104,45862,1668680700,663495909,,-1.9440652432714163e-178,-1.288562163474224e-186,5e-324,5e-324,-5e-324,0.0
1668680700.6718574,45863,1668680700,671626011,,-1.0285617780395225e-178,-6.817496452676737e-187,5e-324,5e-324,-5e-324,0.0
1668680700.6804905,45864,1668680700,679925762,,-5.441892111931154e-179,-3.606986081055268e-187,5e-324,5e-324,-5e-324,0.0
1668680700.6884732,45865,1668680700,688123699,,-2.8791843514100123e-179,-1.908376290216949e-187,5e-324,5e-324,-5e-324,0.0
1668680700.695545,45866,1668680700,695253064,,-2.8791843514100123e-179,-1.908376290216949e-187,5e-324,5e-324,-5e-324,0.0
1668680700.7037764,45867,1668680700,703570157,,-1.5233125462427703e-179,-1.009679544978095e-187,5e-324,5e-324,-5e-324,0.0
1668680700.7119482,45868,1668680700,711694035,,-8.059508632728682e-180,-5.341990407097748e-188,5e-324,5e-324,-5e-324,0.0
1668680700.7197144,45869,1668680700,719454395,,-4.264107163118983e-180,-2.8263285763745437e-188,5e-324,5e-324,-5e-324,0.0
1668680700.7276602,45870,1668680700,727456829,,-2.2560444720817423e-180,-1.495347728632712e-188,5e-324,5e-324,-5e-324,0.0
1668680700.7359643,45871,1668680700,735738868,,-1.1936230646435481e-180,-7.911552988631316e-189,5e-324,5e-324,-5e-324,0.0
1668680700.7435622,45872,1668680700,743363263,,-1.1936230646435481e-180,-7.911552988631316e-189,5e-324,5e-324,-5e-324,0.0
1668680700.7516866,45873,1668680700,751453807,,-6.315194749394258e-181,-4.185827115219108e-189,5e-324,5e-324,-5e-324,0.0
1668680700.7600071,45874,1668680700,759778615,,-3.341229396793424e-181,-2.2146282359077827e-189,5e-324,5e-324,-5e-324,0.0
1668680700.7678175,45875,1668680700,767627249,,-1.767770326175192e-181,-1.1717106531819307e-189,5e-324,5e-324,-5e-324,0.0
1668680700.7758408,45876,1668680700,775605679,,-1.767770326175192e-181,-1.1717106531819307e-189,5e-324,5e-324,-5e-324,0.0
1668680700.7838943,45877,1668680700,783667464,,-9.352880496935101e-182,-6.199261043094524e-190,5e-324,5e-324,-5e-324,0.0
1668680700.7916586,45878,1668680700,791460339,,-4.94840151430847e-182,-3.2798914455600056e-190,5e-324,5e-324,-5e-324,0.0
1668680700.7998843,45879,1668680700,799626730,,-2.6180894276190678e-182,-1.735317777372982e-190,5e-324,5e-324,-5e-324,0.0
1668680700.8079658,45880,1668680700,807692611,,-1.3851730162136261e-182,-9.181181263005352e-191,5e-324,5e-324,-5e-324,0.0
1668680700.815963,45881,1668680700,815694907,,-7.3286430348991344e-183,-4.8575592599396697e-191,5e-324,5e-324,-5e-324,0.0
1668680700.8235798,45882,1668680700,823339522,,-7.3286430348991344e-183,-4.8575592599396697e-191,5e-324,5e-324,-5e-324,0.0
1668680700.8324072,45883,1668680700,832095113,,-3.877422394481038e-183,-2.5700268067795228e-191,5e-324,5e-324,-5e-324,0.0
1668680700.8399327,45884,1668680700,839719909,,-2.051458142200262e-183,-1.3597441501202364e-191,5e-324,5e-324,-5e-324,0.0
1668680700.847684,45885,1668680700,847476986,,-1.0853809776283147e-183,-7.194104547504892e-192,5e-324,5e-324,-5e-324,0.0
1668680700.8558052,45886,1668680700,855357155,,-1.0853809776283147e-183,-7.194104547504892e-192,5e-324,5e-324,-5e-324,0.0
1668680700.8636663,45887,1668680700,863445442,,-5.742509887790806e-184,-3.806241066442836e-192,5e-324,5e-324,-5e-324,0.0
1668680700.871809,45888,1668680700,871556468,,-3.0382345453881585e-184,-2.0137976811722232e-192,5e-324,5e-324,-5e-324,0.0
1668680700.8798757,45889,1668680700,879628455,,-1.6074624742772862e-184,-1.0654556634492474e-192,5e-324,5e-324,-5e-324,0.0
1668680700.8878233,45890,1668680700,887565488,,-8.504727227632575e-185,-5.637089472241736e-193,5e-324,5e-324,-5e-324,0.0
1668680700.8954957,45891,1668680700,895248380,,-8.504727227632575e-185,-5.637089472241736e-193,5e-324,5e-324,-5e-324,0.0
1668680700.9039304,45892,1668680700,903690199,,-4.499662441510776e-185,-2.982458942982783e-193,5e-324,5e-324,-5e-324,0.0
1668680700.91172,45893,1668680700,911528497,,-2.380671542499168e-185,-1.5779528408018373e-193,5e-324,5e-324,-5e-324,0.0
1668680700.9198973,45894,1668680700,919657919,,-1.2595604819108286e-185,-8.348598305612828e-194,5e-324,5e-324,-5e-324,0.0
1668680700.9278696,45895,1668680700,927658729,,-6.664054991500336e-186,-4.4170580936413635e-194,5e-324,5e-324,-5e-324,0.0
1668680700.9354255,45896,1668680700,935237177,,-6.664054991500336e-186,-4.4170580936413635e-194,5e-324,5e-324,-5e-324,0.0
1668680700.9437013,45897,1668680700,943500419,,-3.5258036090786595e-186,-2.336967415175034e-194,5e-324,5e-324,-5e-324,0.0
1668680700.9519153,45898,1668680700,951670483,,-1.865424445873808e-186,-1.2364375980139216e-194,5e-324,5e-324,-5e-324,0.0
1668680700.9599926,45899,1668680700,959630831,,-9.86954677311969e-187,-6.541716944170288e-195,5e-324,5e-324,-5e-324,0.0
1668680700.9679341,45900,1668680700,967684805,,-5.221758175318066e-187,-3.461077263129523e-195,5e-324,5e-324,-5e-324,0.0
1668680700.9763591,45901,1668680700,976018897,,-2.7627163707014113e-187,-1.83117917262186e-195,5e-324,5e-324,-5e-324,0.0
1668680700.9834716,45902,1668680700,983255639,,-2.7627163707014113e-187,-1.83117917262186e-195,5e-324,5e-324,-5e-324,0.0
1668680700.9917138,45903,1668680700,991528613,,-1.4616919222760948e-187,-9.688362631962985e-196,5e-324,5e-324,-5e-324,0.0
1668680701.000465,45904,1668680701,78811,,-7.733487586004891e-188,-5.125897667022003e-196,5e-324,5e-324,-5e-324,0.0
1668680701.0077422,45905,1668680701,7538827,,-4.091616662269207e-188,-2.711998703072699e-196,5e-324,5e-324,-5e-324,0.0
1668680701.0155709,45906,1668680701,15314177,,-4.091616662269207e-188,-2.711998703072699e-196,5e-324,5e-324,-5e-324,0.0
1668680701.0238407,45907,1668680701,23618721,,-2.1647835759451386e-188,-1.4348583298466444e-196,5e-324,5e-324,-5e-324,0.0
1668680701.0319612,45908,1668680701,31754387,,-1.1453389497350444e-188,-7.591517003299659e-197,5e-324,5e-324,-5e-324,0.0
1668680701.0398314,45909,1668680701,39567489,,-6.059734212494872e-189,-4.0165031775330296e-197,5e-324,5e-324,-5e-324,0.0
1668680701.047837,45910,1668680701,47621082,,-3.2060708958317977e-189,-2.12504269806957e-197,5e-324,5e-324,-5e-324,0.0
1668680701.0555475,45911,1668680701,55308879,,-3.2060708958317977e-189,-2.12504269806957e-197,5e-324,5e-324,-5e-324,0.0
1668680701.0641656,45912,1668680701,63876129,,-1.6962609627176623e-189,-1.1243129331700028e-197,5e-324,5e-324,-5e-324,0.0
1668680701.071927,45913,1668680701,71660332,,-8.974540324047794e-190,-5.948490224886539e-198,5e-324,5e-324,-5e-324,0.0
1668680701.0798914,45914,1668680701,79655358,,-4.748230124857618e-190,-3.147214170685018e-198,5e-324,5e-324,-5e-324,0.0
1668680701.0878413,45915,1668680701,87621790,,-2.5121831876105037e-190,-1.6651211755751877e-198,5e-324,5e-324,-5e-324,0.0
1668680701.0959551,45916,1668680701,95697247,,-2.5121831876105037e-190,-1.6651211755751877e-198,5e-324,5e-324,-5e-324,0.0
1668680701.1038451,45917,1668680701,103609418,,-1.3291403748680183e-190,-8.809786620735153e-199,5e-324,5e-324,-5e-324,0.0
1668680701.1117673,45918,1668680701,111521208,,-7.032186764153272e-191,-4.661062596604973e-199,5e-324,5e-324,-5e-324,0.0
1668680701.120955,45919,1668680701,120321819,,-3.720573960507591e-191,-2.4660647828104786e-199,5e-324,5e-324,-5e-324,0.0
1668680701.1286032,45920,1668680701,128222156,,-1.9684731165233637e-191,-1.3047401503356167e-199,5e-324,5e-324,-5e-324,0.0
1668680701.1357296,45921,1668680701,135401189,,-1.9684731165233637e-191,-1.3047401503356167e-199,5e-324,5e-324,-5e-324,0.0
1668680701.143872,45922,1668680701,143673793,,-1.0414754421241397e-191,-6.903090590984836e-200,5e-324,5e-324,-5e-324,0.0
1668680701.151667,45923,1668680701,151499819,,-5.510215442837104e-192,-3.6522720401518825e-200,5e-324,5e-324,-5e-324,0.0
1668680701.1597755,45924,1668680701,159580581,,-2.9153327095792836e-192,-1.9323360862010882e-200,5e-324,5e-324,-5e-324,0.0
1668680701.1678565,45925,1668680701,167637739,,-1.5424378403554455e-192,-1.0223561413239253e-200,5e-324,5e-324,-5e-324,0.0
1668680701.1755316,45926,1668680701,175322891,,-1.5424378403554455e-192,-1.0223561413239253e-200,5e-324,5e-324,-5e-324,0.0
1668680701.1838608,45927,1668680701,183660695,,-8.160696319644781e-193,-5.409059465207215e-201,5e-324,5e-324,-5e-324,0.0
1668680701.1933546,45928,1668680701,191613137,,-4.3176433227362346e-193,-2.8618133266416816e-201,5e-324,5e-324,-5e-324,0.0
1668680701.1997643,45929,1668680701,199507637,,-2.284369266075109e-193,-1.5141219225309773e-201,5e-324,5e-324,-5e-324,0.0
1668680701.2078917,45930,1668680701,207674322,,-1.2086090845691936e-193,-8.010883082228192e-202,5e-324,5e-324,-5e-324,0.0
1668680701.2157986,45931,1668680701,215602258,,-6.394482455163429e-194,-4.238380463434372e-202,5e-324,5e-324,-5e-324,0.0
1668680701.223635,45932,1668680701,223387225,,-6.394482455163429e-194,-4.238380463434372e-202,5e-324,5e-324,-5e-324,0.0
1668680701.2317297,45933,1668680701,231488722,,-3.383178762384354e-194,-2.242433046198646e-202,5e-324,5e-324,-5e-324,0.0
1668680701.2397385,45934,1668680701,239522790,,-1.7899648045802635e-194,-1.186421561269921e-202,5e-324,5e-324,-5e-324,0.0
1668680701.2478194,45935,1668680701,247602112,,-9.470306556837109e-195,-6.277093193182744e-203,5e-324,5e-324,-5e-324,0.0
1668680701.255795,45936,1668680701,255548973,,-5.010529036714941e-195,-3.321070708941446e-203,5e-324,5e-324,-5e-324,0.0
1668680701.263456,45937,1668680701,263193879,,-5.010529036714941e-195,-3.321070708941446e-203,5e-324,5e-324,-5e-324,0.0
1668680701.2721877,45938,1668680701,271960104,,-2.650959721006988e-195,-1.7571048117889144e-203,5e-324,5e-324,-5e-324,0.0
1668680701.2796683,45939,1668680701,279418180,,-1.4025639589964244e-195,-9.296451627179705e-204,5e-324,5e-324,-5e-324,0.0
1668680701.2877479,45940,1668680701,287545696,,-7.42065465381146e-196,-4.91854625157526e-204,5e-324,5e-324,-5e-324,0.0
1668680701.2953982,45941,1668680701,295217613,,-7.42065465381146e-196,-4.91854625157526e-204,5e-324,5e-324,-5e-324,0.0
1668680701.303698,45942,1668680701,303502559,,-3.926103700150338e-196,-2.6022936706469236e-204,5e-324,5e-324,-5e-324,0.0
1668680701.3117847,45943,1668680701,311596526,,-2.0772143407073867e-196,-1.3768158317348741e-204,5e-324,5e-324,-5e-324,0.0
1668680701.3197193,45944,1668680701,319561159,,-1.099008010683773e-196,-7.284427026426063e-205,5e-324,5e-324,-5e-324,0.0
1668680701.3280241,45945,1668680701,327793012,,-5.814607495612544e-197,-3.8540286856277578e-205,5e-324,5e-324,-5e-324,0.0
1668680701.335422,45946,1668680701,335230371,,-5.814607495612544e-197,-3.8540286856277578e-205,5e-324,5e-324,-5e-324,0.0
1668680701.3441107,45947,1668680701,343833008,,-3.0763797897158304e-197,-2.0390810499929148e-205,5e-324,5e-324,-5e-324,0.0
1668680701.3517637,45948,1668680701,351540306,,-1.627644276542008e-197,-1.0788325328105237e-205,5e-324,5e-324,-5e-324,0.0
1668680701.3599467,45949,1668680701,359693617,,-8.611504664723692e-198,-5.707863519473216e-206,5e-324,5e-324,-5e-324,0.0
1668680701.3675888,45950,1668680701,367390335,,-4.55615601389939e-198,-3.019903920774251e-206,5e-324,5e-324,-5e-324,0.0
1668680701.3755746,45951,1668680701,375330827,,-4.55615601389939e-198,-3.019903920774251e-206,5e-324,5e-324,-5e-324,0.0
1668680701.384064,45952,1668680701,383854003,,-2.4105610379597504e-198,-1.5977641475823813e-206,5e-324,5e-324,-5e-324,0.0
1668680701.3917336,45953,1668680701,391500895,,-1.2753743506593418e-198,-8.453415533316527e-207,5e-324,5e-324,-5e-324,0.0
1668680701.3996506,45954,1668680701,399427491,,-6.747722661677307e-199,-4.4725145627435367e-207,5e-324,5e-324,-5e-324,0.0
1668680701.4079335,45955,1668680701,407696690,,-3.570070316638759e-199,-2.366308202301879e-207,5e-324,5e-324,-5e-324,0.0
1668680701.4161665,45956,1668680701,415768935,,-1.8888449784889346e-199,-1.251961157359843e-207,5e-324,5e-324,-5e-324,0.0
1668680701.4237506,45957,1668680701,423482217,,-1.8888449784889346e-199,-1.251961157359843e-207,5e-324,5e-324,-5e-324,0.0
1668680701.4319754,45958,1668680701,431696574,,-9.993459613764432e-200,-6.62384865172283e-208,5e-324,5e-324,-5e-324,0.0
1668680701.4400318,45959,1668680701,439805238,,-5.287317709462614e-200,-3.5045313269507086e-208,5e-324,5e-324,-5e-324,0.0
1668680701.4478586,45960,1668680701,447637701,,-2.797402465337663e-200,-1.8541697534686991e-208,5e-324,5e-324,-5e-324,0.0
1668680701.455966,45961,1668680701,455690286,,-1.48004356520361e-200,-9.810000693215463e-209,5e-324,5e-324,-5e-324,0.0
1668680701.4634793,45962,1668680701,463204030,,-1.48004356520361e-200,-9.810000693215463e-209,5e-324,5e-324,-5e-324,0.0
1668680701.4716709,45963,1668680701,471465984,,-7.83058205618691e-201,-5.190253665871401e-209,5e-324,5e-324,-5e-324,0.0
1668680701.4798894,45964,1668680701,479690784,,-4.142987191748027e-201,-2.7460480338928196e-209,5e-324,5e-324,-5e-324,0.0
1668680701.4879005,45965,1668680701,487693409,,-2.191962583091346e-201,-1.4528730751699369e-209,5e-324,5e-324,-5e-324,0.0
1668680701.4955344,45966,1668680701,495312703,,-2.191962583091346e-201,-1.4528730751699369e-209,5e-324,5e-324,-5e-324,0.0
1668680701.5037704,45967,1668680701,503570556,,-1.1597187592668529e-201,-7.686829023021148e-210,5e-324,5e-324,-5e-324,0.0
1668680701.511998,45968,1668680701,511791106,,-6.135814593598839e-202,-4.066930652028846e-210,5e-324,5e-324,-5e-324,0.0
1668680701.519822,45969,1668680701,519585601,,-3.2463233371184587e-202,-2.1517227557522938e-210,5e-324,5e-324,-5e-324,0.0
1668680701.5277443,45970,1668680701,527538913,,-1.7175576361310345e-202,-1.1384287596132353e-210,5e-324,5e-324,-5e-324,0.0
1668680701.535415,45971,1668680701,535207896,,-1.7175576361310345e-202,-1.1384287596132353e-210,5e-324,5e-324,-5e-324,0.0
1668680701.5442069,45972,1668680701,543953401,,-9.087216296977202e-203,-6.023173930051271e-211,5e-324,5e-324,-5e-324,0.0
1668680701.551723,45973,1668680701,551501351,,-4.8078444816595436e-203,-3.186727661726888e-211,5e-324,5e-324,-5e-324,0.0
1668680701.560147,45974,1668680701,559562801,,-2.5437238208485574e-203,-1.686026886812627e-211,5e-324,5e-324,-5e-324,0.0
1668680701.5679238,45975,1668680701,567690830,,-1.345827823972984e-203,-8.920394099552977e-212,5e-324,5e-324,-5e-324,0.0
1668680701.575926,45976,1668680701,575690017,,-1.345827823972984e-203,-8.920394099552977e-212,5e-324,5e-324,-5e-324,0.0
1668680701.5837398,45977,1668680701,583465680,,-7.120476354133619e-204,-4.7195825590759275e-212,5e-324,5e-324,-5e-324,0.0
1668680701.5915947,45978,1668680701,591387128,,0.6049545899167998,-0.20782235068029575,0.2559762254383262,5e-324,-5e-324,0.0
1668680701.599849,45979,1668680701,599645632,,0.6169408601036581,-1.2263424375308927,0.30811493178019345,5e-324,-5e-324,0.0
1668680701.6081762,45980,1668680701,607864394,,0.6232674851701697,-1.7652382514473868,0.33567036934524963,5e-324,-5e-324,0.0
1668680701.6156855,45981,1668680701,615521636,,0.3682195878169646,-3.99878922970373,-0.03753201690271746,5e-324,-0.10302514261174343,0.0
1668680701.6235435,45982,1668680701,623327521,,0.3682195878169646,-3.99878922970373,-0.03753201690271746,5e-324,-0.10302514261174343,0.0
1668680701.6321552,45983,1668680701,631885787,,0.19481681248344854,-5.20508735418151,-0.3514152463557662,5e-324,-0.17339926512881954,0.0
1668680701.6398854,45984,1668680701,639679448,,0.10307325216244934,-5.843151395289585,-0.5182892657219587,5e-324,-0.21063092819390472,0.0
1668680701.648012,45985,1668680701,647777246,,0.054533770345136304,-5.653316546786895,-0.27421534875686776,5e-324,-0.14334302846706226,0.0
1668680701.655481,45986,1668680701,655307842,,0.054533770345136304,-5.653316546786895,-0.27421534875686776,5e-324,-0.14334302846706226,0.0
1668680701.6639774,45987,1668680701,663751131,,0.028852607690780737,-5.552842268294036,-0.14508125571365627,5e-324,-0.10774076218664692,0.0
1668680701.6722522,45988,1668680701,671954890,,0.6619264020233127,-3.6935071744683206,0.2039811748815514,5e-324,-0.05700324631880645,0.0
1668680701.6797175,45989,1668680701,679503935,,0.7953556839023348,-2.5487879060135032,0.5281559801101374,5e-324,-0.030159152626499968,0.0
1668680701.687701,45990,1668680701,687503188,,0.8660033427553486,-1.9430789406727444,0.6996908098037459,5e-324,-0.015956538370840715,0.0
1668680701.6958716,45991,1668680701,695650597,,1.0501506952410864,-2.498750094612401,0.37019088011604273,5e-324,-0.008442250348784425,0.0
1668680701.7036872,45992,1668680701,703474352,,1.0501506952410864,-2.498750094612401,0.37019088011604273,5e-324,-0.008442250348784425,0.0
1668680701.7118816,45993,1668680701,711575980,,1.1950250922245769,-4.395614348746573,-0.9368555997311667,5e-324,-0.1435709255753524,0.0
1668680701.7200363,45994,1668680701,719776682,,1.271920971365803,-5.398857103944735,-1.6289791780155667,5e-324,-0.21505393611180398,0.0
1668680701.7282836,45995,1668680701,727883915,,1.1851941405591675,-6.522798735217808,-2.42036992913247,5e-324,-0.3571426487777775,0.0
1668680701.7361608,45996,1668680701,735894574,,1.1399576009556698,-7.117257667774361,-2.8391576001312755,5e-324,-0.4323104472115056,0.0
1668680701.7434735,45997,1668680701,743234558,,1.1399576009556698,-7.117257667774361,-2.8391576001312755,5e-324,-0.4323104472115056,0.0
1668680701.7519996,45998,1668680701,751749652,,1.1111259239803477,-8.059888387735816,-3.0102509934528814,5e-324,-0.562950399095924,0.0
1668680701.759867,45999,1668680701,759647298,,0.7543337667839212,-8.25468461611488,-1.842348332107957,5e-324,-0.5499100510598322,0.0
1668680701.767968,46000,1668680701,767739264,,0.5654826943815612,-8.357657427493073,-1.2250620633920852,5e-324,-0.5430072275941561,0.0
1668680701.7755618,46001,1668680701,775328654,,0.5654826943815612,-8.357657427493073,-1.2250620633920852,5e-324,-0.5430072275941561,0.0
1668680701.783771,46002,1668680701,783557812,,0.6345760845266428,-8.763734771841625,-1.674129739047288,5e-324,-0.6045003997748366,0.0
1668680701.7919862,46003,1668680701,791693509,,0.9832517121297739,-8.639125601030134,-2.5706360824510677,5e-324,-0.6122126829764525,0.0
1668680701.7999058,46004,1668680701,799671859,,1.167398467239168,-8.573655469727257,-3.0441785940424113,5e-324,-0.6163036258221848,0.0
1668680701.8076427,46005,1668680701,807451377,,1.6525794973544041,-8.098442059756998,-3.1651435497769453,5e-324,-0.5526707794640917,0.0
1668680701.8156002,46006,1668680701,815344730,,1.6525794973544041,-8.098442059756998,-3.1651435497769453,5e-324,-0.5526707794640917,0.0
1668680701.8237743,46007,1668680701,823558821,,1.9094448114391365,-7.84684399206456,-3.2293642730850474,5e-324,-0.5189968551614059,0.0
1668680701.8329504,46008,1668680701,832603566,,2.137666631089019,-7.450783930060142,-2.943685497833803,5e-324,-0.46464463483089863,0.0
1668680701.8399723,46009,1668680701,839762969,,2.221658481530792,-7.278305290488009,-2.867014405703637,5e-324,-0.4457103406210646,0.0
1668680701.8477154,46010,1668680701,847493719,,2.2660628472045232,-7.1870152457570065,-2.8265548704704573,5e-324,-0.43569530420714264,0.0
1668680701.85612,46011,1668680701,855852880,,2.434972229460996,-7.464413080151687,-3.4871882907391383,5e-324,-0.49234309885844685,0.0
1668680701.8643298,46012,1668680701,863878088,,2.434972229460996,-7.464413080151687,-3.4871882907391383,5e-324,-0.49234309885844685,0.0
1668680701.8718162,46013,1668680701,871536689,,2.6212062300820342,-7.948357719930851,-3.882575177087462,5e-324,-0.5743322220105311,0.0
1668680701.8796768,46014,1668680701,879472819,,2.719732207212629,-8.204626185055282,-4.0913707661105425,5e-324,-0.6177153872323933,0.0
1668680701.8879437,46015,1668680701,887646392,,2.6336977491607865,-8.41989895812808,-3.7379470055928556,5e-324,-0.6437408340835342,0.0
1668680701.8961143,46016,1668680701,895911818,,2.5877555275106956,-8.533904002149029,-3.5510605993441535,5e-324,-0.6575277316543433,0.0
1668680701.9035788,46017,1668680701,903337713,,2.5877555275106956,-8.533904002149029,-3.5510605993441535,5e-324,-0.6575277316543433,0.0
1668680701.9117103,46018,1668680701,911507155,,2.1941572070829727,-8.382397004688174,-1.9751293507233305,5e-324,-0.6003288452558071,0.0
1668680701.9197202,46019,1668680701,919545630,,1.8912725859221884,-8.173694731066425,-1.0449971079259748,5e-324,-0.5438219405984024,0.0
1668680701.9279346,46020,1668680701,927722136,,1.73096630822084,-8.063289049912418,-0.5528847795075968,5e-324,-0.5139258788890326,0.0
1668680701.9359078,46021,1668680701,935639877,,2.1659948811657532,-8.242525745041581,-2.0804831584629127,5e-324,-0.5763823820277973,0.0
1668680701.9436004,46022,1668680701,943381188,,2.1659948811657532,-8.242525745041581,-2.0804831584629127,5e-324,-0.5763823820277973,0.0
1668680701.9517488,46023,1668680701,951534816,,2.7178480649285444,-7.995839595455106,-3.005901114739288,5e-324,-0.5805117637542023,0.0
1668680701.9621296,46024,1668680701,959865061,,3.010075965872505,-7.86498554567814,-3.4958840954026202,5e-324,-0.5826762804352845,0.0
1668680701.9676743,46025,1668680701,967484499,,3.3218527983953,-7.58138986012413,-3.638252631312368,5e-324,-0.558973003081426,0.0
1668680701.9767056,46026,1668680701,976476396,,3.486800815943065,-7.431652336534878,-3.713054520398601,5e-324,-0.5464384651433756,0.0
1668680701.9840112,46027,1668680701,983747214,,3.486800815943065,-7.431652336534878,-3.713054520398601,5e-324,-0.5464384651433756,0.0
1668680701.992702,46028,1668680701,992439801,,3.3631371145204247,-7.451411045710158,-2.8073142342387296,5e-324,-0.5298292255139547,0.0
1668680702.0004652,46029,1668680702,230176,,2.756878683605835,-7.028040270783448,-1.4852876621698428,5e-324,-0.41202119302458284,0.0
1668680702.0084054,46030,1668680702,8187801,,2.4361153553229533,-6.804058862412044,-0.7858327409479289,5e-324,-0.3496873173003183,0.0
1668680702.0160923,46031,1668680702,15753138,,1.829216482850514,-6.780011958610382,0.23029277550032012,5e-324,-0.30404890427103104,0.0
1668680702.0260842,46032,1668680702,23576620,,1.829216482850514,-6.780011958610382,0.23029277550032012,5e-324,-0.30404890427103104,0.0
1668680702.0321443,46033,1668680702,31937115,,1.4032122717818254,-7.000154332173135,1.1825179722387251,5e-324,-0.31106778429606463,0.0
1668680702.039872,46034,1668680702,39662780,,1.1776706931875145,-7.116364078878841,1.6870752098052317,5e-324,-0.31479285766623333,0.0
1668680702.047736,46035,1668680702,47531718,,1.0703094095017467,-7.260269156747626,2.035808443171069,5e-324,-0.3272393418351427,0.0
1668680702.0554724,46036,1668680702,55279627,,1.0703094095017467,-7.260269156747626,2.035808443171069,5e-324,-0.3272393418351427,0.0
1668680702.064026,46037,1668680702,63800567,,1.0136179321751593,-7.336383549585786,2.22030782423448,5e-324,-0.33382654609751133,0.0
1668680702.0716877,46038,1668680702,71430931,,1.0337799454974144,-7.53941979766274,2.3170144149820118,5e-324,-0.36527966724173955,0.0
1668680702.0798614,46039,1668680702,79649456,,1.0494668367807438,-7.58140131387481,2.2302556336529165,5e-324,-0.3777292173314446,0.0
1668680702.0879457,46040,1668680702,87734532,,1.0578705632023018,-7.603564019501841,2.1844191293620687,5e-324,-0.3843193167698763,0.0
1668680702.0954695,46041,1668680702,95208821,,1.0578705632023018,-7.603564019501841,2.1844191293620687,5e-324,-0.3843193167698763,0.0
1668680702.1037898,46042,1668680702,103562350,,1.3873264467373798,-7.447743314415204,1.9285197696696152,5e-324,-0.38358394034937504,0.0
1668680702.1116767,46043,1668680702,111423615,,1.790344659128991,-7.15980965683239,1.749557228478595,5e-324,-0.3468971598469951,0.0
1668680702.1197894,46044,1668680702,119550460,,2.0037385675033277,-7.007245032317275,1.6553536711043777,5e-324,-0.32749597606805775,0.0
1668680702.127907,46045,1668680702,127637637,,1.9098159670395027,-6.9988290759112255,1.6454732848688498,5e-324,-0.3356043703290655,0.0
1668680702.1367097,46046,1668680702,136489650,,1.8603552639323149,-6.9943494127518555,1.6400809410271875,5e-324,-0.3398914752503743,0.0
1668680702.1440136,46047,1668680702,143804315,,1.8603552639323149,-6.9943494127518555,1.6400809410271875,5e-324,-0.3398914752503743,0.0
1668680702.152622,46048,1668680702,152237713,,1.704254795583822,-7.011033692301565,1.6807503062799607,5e-324,-0.32655661337049924,0.0
1668680702.1606715,46049,1668680702,160395649,,1.8008601172271763,-7.153071272921656,1.7319324158244283,5e-324,-0.339392394865925,0.0
1668680702.1681495,46050,1668680702,167856351,,1.8517532351942645,-7.228344571187966,1.7588690999126513,5e-324,-0.3461802635729705,0.0
1668680702.1758823,46051,1668680702,175518755,,1.8517532351942645,-7.228344571187966,1.7588690999126513,5e-324,-0.3461802635729705,0.0
1668680702.1837037,46052,1668680702,183528412,,1.5484697847051978,-7.196872575079363,1.759825803159742,5e-324,-0.3392377037090285,0.0
1668680702.1916506,46053,1668680702,191445860,,1.6976728217105541,-7.292542052755772,1.8360652171943888,5e-324,-0.36979525154177756,0.0
1668680702.1998425,46054,1668680702,199629969,,1.7765980562832868,-7.343140351278297,1.8764689035128996,5e-324,-0.38596281666867727,0.0
1668680702.2077293,46055,1668680702,207493939,,2.0479771175442507,-7.239956954867724,1.911895439497849,5e-324,-0.3663203249759851,0.0
1668680702.21592,46056,1668680702,215532344,,2.0479771175442507,-7.239956954867724,1.911895439497849,5e-324,-0.3663203249759851,0.0
1668680702.223972,46057,1668680702,223772749,,2.1913339939552934,-7.185380980255695,1.9308487426753196,5e-324,-0.3559332234399405,0.0
1668680702.2317965,46058,1668680702,231594614,,2.0901258488511685,-7.193433113719734,1.772798128573573,5e-324,-0.3785711525660401,0.0
1668680702.2404327,46059,1668680702,240139334,,2.053478504100723,-7.191978653136821,1.5709249684396003,5e-324,-0.3897974738706813,0.0
1668680702.2485085,46060,1668680702,248286202,,2.0340449653909274,-7.191174291891065,1.4642969215198338,5e-324,-0.3957397959232058,0.0
1668680702.2554648,46061,1668680702,255210267,,2.0340449653909274,-7.191174291891065,1.4642969215198338,5e-324,-0.3957397959232058,0.0
1668680702.26375,46062,1668680702,263541440,,2.191483335077879,-7.448490969156116,1.3080126073962188,5e-324,-0.43094369863110754,0.0
1668680702.2717283,46063,1668680702,271516123,,2.0902805908566973,-7.240657383938961,1.2338954454072573,5e-324,-0.4206119484079585,0.0
1668680702.2799635,46064,1668680702,279710599,,2.037018925416505,-7.130554252783215,1.1948230895221958,5e-324,-0.41514864345957514,0.0
1668680702.2879133,46065,1668680702,287678187,,1.9114640407428856,-7.239193734025304,1.1829496553217227,5e-324,-0.42564121556883816,0.0
1668680702.2955186,46066,1668680702,295274864,,1.9114640407428856,-7.239193734025304,1.1829496553217227,5e-324,-0.42564121556883816,0.0
1668680702.3037717,46067,1668680702,303556556,,1.845003530259228,-7.296718651769886,1.176530834748084,5e-324,-0.43119008105958034,0.0
1668680702.3123753,46068,1668680702,311963087,,2.0737750813300986,-7.63128302822196,1.20106061104825,5e-324,-0.458802888926394,0.0
1668680702.3203835,46069,1668680702,320140797,,1.9621906587865299,-7.748694988948739,1.124781975115111,5e-324,-0.4656361972817531,0.0
1668680702.3285322,46070,1668680702,328225748,,1.903115574340272,-7.810915453706976,1.0840404931077923,5e-324,-0.4692468223119961,0.0
1668680702.33553,46071,1668680702,335327206,,1.903115574340272,-7.810915453706976,1.0840404931077923,5e-324,-0.4692468223119961,0.0
1668680702.3440263,46072,1668680702,343849468,,2.0917793567040737,-7.746739860958604,0.9458853846456885,5e-324,-0.4871073719841156,0.0
1668680702.3519244,46073,1668680702,351622473,,2.431653121319602,-7.590767956750678,0.855165188000607,5e-324,-0.4729286589825827,0.0
1668680702.359699,46074,1668680702,359511429,,2.611562788526482,-7.508206240249457,0.8071655046325702,5e-324,-0.4654253406806891,0.0
1668680702.3678813,46075,1668680702,367668482,,2.8179543691522664,-7.241499892899411,0.809870542579829,5e-324,-0.44045509173209885,0.0
1668680702.3755426,46076,1668680702,375337475,,2.8179543691522664,-7.241499892899411,0.809870542579829,5e-324,-0.44045509173209885,0.0
1668680702.383879,46077,1668680702,383619406,,2.9273527584020784,-7.100305337093248,0.8112296468865497,5e-324,-0.4272375461422885,0.0
1668680702.39179,46078,1668680702,391568403,,2.8111402662182536,-7.038591988235824,0.8601124095707263,5e-324,-0.4290841243613075,0.0
1668680702.3998125,46079,1668680702,399604585,,3.4913699969404153,-7.3242462343287,0.9435653530719808,5e-324,-0.47553119043881475,0.0
1668680702.4079273,46080,1668680702,407658232,,3.8511127827873124,-7.475598940648514,0.9871785864589531,5e-324,-0.5001040177254623,0.0
1668680702.415794,46081,1668680702,415582880,,3.755499783772201,-7.591499941203043,0.9750120216088598,5e-324,-0.5317310446227497,0.0
1668680702.4238653,46082,1668680702,423363033,,3.755499783772201,-7.591499941203043,0.9750120216088598,5e-324,-0.5317310446227497,0.0
1668680702.432161,46083,1668680702,431934093,,3.7978280695443765,-7.904786020240162,1.1662158254586328,5e-324,-0.5812810446689183,0.0
1668680702.4400752,46084,1668680702,439843204,,3.8198857494136824,-8.070752454080733,1.2672329022408333,5e-324,-0.6075013814732887,0.0
1668680702.447825,46085,1668680702,447574685,,3.734610766451057,-8.424519794726404,1.4113793100099445,5e-324,-0.6484544054779733,0.0
1668680702.4559355,46086,1668680702,455587440,,3.689250967506613,-8.611703695732427,1.4880300453882074,5e-324,-0.6701340661525848,0.0
1668680702.4636605,46087,1668680702,463425825,,3.689250967506613,-8.611703695732427,1.4880300453882074,5e-324,-0.6701340661525848,0.0
1668680702.4719565,46088,1668680702,471737223,,3.8767194460140577,-8.96098570689675,1.6493431028162444,5e-324,-0.735277532686186,0.0
1668680702.4797344,46089,1668680702,479490556,,3.8995890366469808,-9.151097314978928,1.707770952526265,5e-324,-0.7768486246688295,0.0
1668680702.4876404,46090,1668680702,487474888,,3.9119414914255146,-9.251401014114133,1.739281843862754,5e-324,-0.7988494093198413,0.0
1668680702.4957533,46091,1668680702,495550670,,4.5019419198536,-9.098208275308739,1.7388886836572435,5e-324,-0.7861542243599187,0.0
1668680702.503635,46092,1668680702,503436842,,4.5019419198536,-9.098208275308739,1.7388886836572435,5e-324,-0.7861542243599187,0.0
1668680702.5117695,46093,1668680702,511553032,,4.652021919432757,-8.955121175084585,1.5736938731887817,5e-324,-0.7720770053340842,0.0
1668680702.519777,46094,1668680702,519568513,,4.731637175442431,-8.879346734100327,1.4860660506325536,5e-324,-0.764616607262756,0.0
1668680702.527812,46095,1668680702,527599576,,4.674113279426378,-8.820174449144766,1.4210439660165721,5e-324,-0.7691254830252872,0.0
1668680702.5355139,46096,1668680702,535293973,,4.674113279426378,-8.820174449144766,1.4210439660165721,5e-324,-0.7691254830252872,0.0
1668680702.543737,46097,1668680702,543506319,,4.644048130686893,-8.788857163210814,1.38580296025497,5e-324,-0.7714948627729998,0.0
1668680702.5517657,46098,1668680702,551574450,,4.947922796206161,-8.871527644641436,1.2815926099530786,5e-324,-0.777159918945812,0.0
1668680702.5596619,46099,1668680702,559474796,,5.159740913532913,-8.935137918708019,1.184473762543251,5e-324,-0.7807894105347247,0.0
1668680702.5676794,46100,1668680702,567470417,,5.271926116465076,-8.968785162622245,1.1327661483439622,5e-324,-0.7827113115977808,0.0
1668680702.5756087,46101,1668680702,575421696,,4.906365843725705,-9.094985875483754,1.158199845784291,5e-324,-0.8059004912736321,0.0
1668680702.5834465,46102,1668680702,583240682,,4.906365843725705,-9.094985875483754,1.158199845784291,5e-324,-0.8059004912736321,0.0
1668680702.5916567,46103,1668680702,591444349,,4.977414151949601,-9.612907383077122,1.2730043435356508,5e-324,-0.885966122694443,0.0
1668680702.5999327,46104,1668680702,599723293,,5.015092883909196,-9.886614904704228,1.334980548362389,5e-324,-0.92833144306403,0.0
1668680702.6081135,46105,1668680702,607907972,,5.045749645210797,-10.163245152679863,1.4023284272437047,5e-324,-0.9638952559939846,0.0
1668680702.6156275,46106,1668680702,615328743,,5.045749645210797,-10.163245152679863,1.4023284272437047,5e-324,-0.9638952559939846,0.0
1668680702.6240382,46107,1668680702,623673182,,5.062245600942303,-10.309093760595317,1.4396447296634514,5e-324,-0.9827142524886803,0.0
1668680702.632078,46108,1668680702,631837546,,4.550474614599908,-10.297787315818912,1.4847167490825026,5e-324,-0.9755642575449285,0.0
1668680702.6396809,46109,1668680702,639452379,,4.267748026805155,-10.250723640174307,1.5212150332103516,5e-324,-0.9630597349716696,0.0
1668680702.6479814,46110,1668680702,647726991,,4.11868039103385,-10.225492428775546,1.5409729315976342,5e-324,-0.9564371437651282,0.0
1668680702.655796,46111,1668680702,655462566,,4.11868039103385,-10.225492428775546,1.5409729315976342,5e-324,-0.9564371437651282,0.0
1668680702.6638153,46112,1668680702,663596335,,4.347838347898676,-10.50688358333452,1.380953555852332,5e-324,-0.9854315995663525,0.0
1668680702.6717904,46113,1668680702,671575827,,4.219969463964427,-10.384048756844837,1.1792735710461524,5e-324,-0.9825159140823183,0.0
1668680702.679821,46114,1668680702,679597342,,4.152650504102559,-10.319067887902044,1.071653460588335,5e-324,-0.9809668967907524,0.0
1668680702.6879232,46115,1668680702,687682262,,4.4650865569858,-9.843746032632577,1.0559625332507503,5e-324,-0.9159325122466828,0.0
1668680702.6956203,46116,1668680702,695368734,,4.4650865569858,-9.843746032632577,1.0559625332507503,5e-324,-0.9159325122466828,0.0
1668680702.7044153,46117,1668680702,703578595,,4.630360453908111,-9.59254144412928,1.0463384851288087,5e-324,-0.8815257050928996,0.0
1668680702.7115705,46118,1668680702,711367547,,5.098530682318313,-9.320413426251696,1.0313416917557907,5e-324,-0.8452359595159082,0.0
1668680702.7196274,46119,1668680702,719440027,,5.188766116725338,-9.005259949845652,1.0118632265063923,5e-324,-0.7966738524550703,0.0
1668680702.727706,46120,1668680702,727527921,,5.23656039511425,-8.838443187883863,1.0017597980455293,5e-324,-0.7709749489506417,0.0
1668680702.7354774,46121,1668680702,735256371,,5.23656039511425,-8.838443187883863,1.0017597980455293,5e-324,-0.7709749489506417,0.0
1668680702.7442327,46122,1668680702,743933974,,4.830564786170305,-8.805134269086517,0.892212668824752,5e-324,-0.7729190711663674,0.0
1668680702.752659,46123,1668680702,752430773,,4.8540243924612785,-8.787518117080268,0.7202033144645937,5e-324,-0.7569669968748192,0.0
1668680702.7603838,46124,1668680702,760081426,,4.866239265337146,-8.778223569047292,0.6297908635360575,5e-324,-0.7485347089179264,0.0
1668680702.7680175,46125,1668680702,767689137,,4.864515436481218,-8.755994864105823,0.5671558146710006,5e-324,-0.7468266507070286,0.0
1668680702.7754915,46126,1668680702,775297218,,4.864515436481218,-8.755994864105823,0.5671558146710006,5e-324,-0.7468266507070286,0.0
1668680702.7835999,46127,1668680702,783418086,,4.863655428278415,-8.74421548177704,0.5339345626754264,5e-324,-0.7459206790229035,0.0
1668680702.791725,46128,1668680702,791529536,,4.786945326585357,-8.60659305979182,0.6308094510020761,5e-324,-0.7259054056857486,0.0
1668680702.8003306,46129,1668680702,800081083,,5.211239873506889,-8.731464525096584,0.7726953089510757,5e-324,-0.7472079889353219,0.0
1668680702.8078635,46130,1668680702,807630792,,5.436212247173341,-8.797485903726983,0.8463067139126742,5e-324,-0.7584524626271809,0.0
1668680702.815611,46131,1668680702,815387788,,5.436212247173341,-8.797485903726983,0.8463067139126742,5e-324,-0.7584524626271809,0.0
1668680702.8245296,46132,1668680702,824278936,,5.247493306527471,-8.774471414374107,0.9620663331925505,5e-324,-0.7531149984316395,0.0
1668680702.8317733,46133,1668680702,831585785,,5.336022201252252,-8.994025531786498,1.0737417811304684,5e-324,-0.8013482701279357,0.0
1668680702.8398066,46134,1668680702,839597801,,5.381901045770649,-9.110702397988804,1.1332336851162679,5e-324,-0.8269101520410099,0.0
1668680702.8504684,46135,1668680702,847689740,,5.722158403477906,-9.016224535262747,1.1824500785567038,5e-324,-0.8051415812059031,0.0
1668680702.8560154,46136,1668680702,855734118,,5.902358234074374,-8.965796668185956,1.2098819625263904,5e-324,-0.793602538687423,0.0
1668680702.8634818,46137,1668680702,863259729,,5.902358234074374,-8.965796668185956,1.2098819625263904,5e-324,-0.793602538687423,0.0
1668680702.8717659,46138,1668680702,871554887,,5.748985961810201,-8.611943467425679,1.2566173542257704,5e-324,-0.7501610542636847,0.0
1668680702.8798497,46139,1668680702,879663628,,5.543649968075115,-8.41248107621203,1.1554151959270365,5e-324,-0.7357573722457342,0.0
1668680702.8879173,46140,1668680702,887580850,,5.435438457606582,-8.306548274806165,1.1023578356375252,5e-324,-0.7281076817576044,0.0
1668680702.8955188,46141,1668680702,895312390,,5.435438457606582,-8.306548274806165,1.1023578356375252,5e-324,-0.7281076817576044,0.0
1668680702.9038854,46142,1668680702,903631219,,6.107362559592768,-8.179564580602632,1.058669943056066,5e-324,-0.725884010725984,0.0
1668680702.91421,46143,1668680702,911906545,,6.5623398040188246,-7.7303787910372845,0.9661058461113905,5e-324,-0.6883382075277953,0.0
1668680702.9201944,46144,1668680702,919971555,,6.803178488535787,-7.492603622768031,0.9171447678219657,5e-324,-0.6684681733158642,0.0
1668680702.9277847,46145,1668680702,927488040,,6.887167328903322,-7.389590185126481,0.8684463400293105,5e-324,-0.6610621883589407,0.0
1668680702.9354815,46146,1668680702,935257474,,6.887167328903322,-7.389590185126481,0.8684463400293105,5e-324,-0.6610621883589407,0.0
1668680702.9439445,46147,1668680702,943717333,,6.931479976785901,-7.335417965424288,0.8417211238663673,5e-324,-0.6571663294600268,0.0
1668680702.9518666,46148,1668680702,951647652,,7.294234987901751,-7.516747905087315,1.0040302737098892,5e-324,-0.6945685169371438,0.0
1668680702.959748,46149,1668680702,959564714,,7.37836024799137,-7.46778541322922,1.2198690081310457,5e-324,-0.6833573110114322,0.0
1668680702.9678774,46150,1668680702,967672166,,7.422967744313517,-7.441801466696742,1.3339947368154375,5e-324,-0.6774212117277167,0.0
1668680702.9758236,46151,1668680702,975602659,,7.905342613907222,-7.957493415890482,1.7643363002957044,5e-324,-0.7691515056748428,0.0
1668680702.9839914,46152,1668680702,983786028,,7.905342613907222,-7.957493415890482,1.7643363002957044,5e-324,-0.7691515056748428,0.0
1668680702.9925625,46153,1668680702,992324575,,8.412655593774737,-7.9911333545987135,2.475645023784747,5e-324,-0.800920924692451,0.0
1668680703.000304,46154,1668680703,34840,,8.68110932917213,-8.008811893280523,2.85212858882966,5e-324,-0.817728581338613,0.0
1668680703.0078156,46155,1668680703,7577406,,8.609701813351947,-8.170279119513246,3.2528637448010267,5e-324,-0.8629734049310126,0.0
1668680703.0159166,46156,1668680703,15682470,,8.571822505983574,-8.255407310544141,3.4656821956566954,5e-324,-0.886897927989889,0.0
1668680703.0235093,46157,1668680703,23273221,,8.571822505983574,-8.255407310544141,3.4656821956566954,5e-324,-0.886897927989889,0.0
1668680703.0318983,46158,1668680703,31636858,,9.312328901411542,-8.654535615654872,3.829428096086023,0.05080064396271917,-0.966229034420224,0.0
1668680703.0401719,46159,1668680703,39900820,,9.664591751953498,-8.834523434809562,4.045335665539653,0.0688718176800219,-1.0036352669695308,0.0
1668680703.0482576,46160,1668680703,47966768,,9.851178296415071,-8.929114137414166,4.160332544170618,0.07845630897406627,-1.0234063379218825,0.0
1668680703.0558062,46161,1668680703,55358345,,9.851178296415071,-8.929114137414166,4.160332544170618,0.07845630897406627,-1.0234063379218825,0.0
1668680703.0642588,46162,1668680703,63994450,,10.39336852966325,-9.052072620527374,4.558577621239824,0.13555899326178383,-1.087241100060061,0.0
1668680703.0728946,46163,1668680703,72512234,,10.676328223024756,-9.035845970141443,4.55624359435569,0.16267837570573093,-1.1316992190573125,0.0
1668680703.08006,46164,1668680703,79779221,,10.826382496094233,-9.027758791315177,4.553361353687001,0.17701556879280944,-1.15523722429743,0.0
1668680703.0876784,46165,1668680703,87455776,,11.034278903267836,-8.8690689479695,4.596000858637829,0.20382009617021016,-1.1470546818689913,0.0
1668680703.0957096,46166,1668680703,95479033,,11.144760926123304,-8.78525219038253,4.617253251700863,0.2180157394901273,-1.1427244927895661,0.0
1668680703.1035066,46167,1668680703,103287569,,11.144760926123304,-8.78525219038253,4.617253251700863,0.2180157394901273,-1.1427244927895661,0.0
1668680703.111839,46168,1668680703,111611636,,11.51554472617046,-8.68879887435379,4.771703483743929,0.27911890420472396,-1.138946107836901,0.0
1668680703.1197479,46169,1668680703,119572198,,11.520264785869601,-8.463331765926114,4.874461210309018,0.2767854358523387,-1.1052255744025115,0.0
1668680703.1276915,46170,1668680703,127483554,,11.522963819431524,-8.34394752420369,4.928551582214999,0.27559584692516564,-1.0873595793259558,0.0
1668680703.1358004,46171,1668680703,135505954,,11.22154706045551,-8.822840652894767,4.677808410618557,0.21708046056117322,-1.1445611277624037,0.0
1668680703.1436653,46172,1668680703,143408795,,11.22154706045551,-8.822840652894767,4.677808410618557,0.21708046056117322,-1.1445611277624037,0.0
1668680703.1517096,46173,1668680703,151471951,,11.131320997433852,-9.102232643273693,4.734637084324014,0.196687260092609,-1.1735298606510365,0.0
1668680703.1597595,46174,1668680703,159550117,,11.083424335576783,-9.249801523946541,4.765487088054541,0.1858704746736702,-1.1888655702530064,0.0
1668680703.1679604,46175,1668680703,167739137,,11.038184471696956,-9.015218782385421,4.741858201420676,0.179805000803273,-1.1616077005889296,0.0
1668680703.17599,46176,1668680703,175783799,,11.013224452937715,-8.891797063688866,4.730326579047994,0.17644917254435333,-1.1472632645509426,0.0
1668680703.1834598,46177,1668680703,183257138,,11.013224452937715,-8.891797063688866,4.730326579047994,0.17644917254435333,-1.1472632645509426,0.0
1668680703.1919758,46178,1668680703,191728064,,11.180548792561403,-8.737529336805821,4.324819464689362,0.23178704297277308,-1.1201423015919931,0.0
1668680703.199742,46179,1668680703,199522673,,11.284098180534388,-8.641430123271363,3.9819315368733275,0.2701187313329403,-1.1028756165653821,0.0
1668680703.2080026,46180,1668680703,207762123,,11.339164980258648,-8.590496450085283,3.7999447454610094,0.29044541734063556,-1.0937133051294285,0.0
1668680703.2155812,46181,1668680703,215318083,,11.339164980258648,-8.590496450085283,3.7999447454610094,0.29044541734063556,-1.0937133051294285,0.0
1668680703.2255075,46182,1668680703,223657735,,11.066328596914584,-8.377870891874602,3.9044995779304217,0.24336395002871242,-1.0595847459307666,0.0
1668680703.2325566,46183,1668680703,232243223,,10.66582888689133,-8.542728984251916,3.764687531144398,0.18720064352774068,-1.068829026212422,0.0
1668680703.2402763,46184,1668680703,239860487,,10.454546022397661,-8.629375177785619,3.690441885531949,0.15757837916446907,-1.0736700852810328,0.0
1668680703.2483099,46185,1668680703,247611429,,10.928160624839304,-8.834012571149493,3.5655178758499537,0.2281492191392102,-1.1034241313779811,0.0
1668680703.2560542,46186,1668680703,255795999,,11.178947745910186,-8.941645074545459,3.5002847651789164,0.2655344948414007,-1.1191333786154,0.0
1668680703.263646,46187,1668680703,263422737,,11.178947745910186,-8.941645074545459,3.5002847651789164,0.2655344948414007,-1.1191333786154,0.0
1668680703.2718527,46188,1668680703,271596196,,10.963126659790223,-8.878538999506205,3.9368521480937266,0.21967070971046676,-1.1338352805765028,0.0
1668680703.2797916,46189,1668680703,279594568,,10.777948745524931,-8.795172146969431,4.223669187571415,0.17426565234106123,-1.132463065395791,0.0
1668680703.287926,46190,1668680703,287607911,,10.67976493646761,-8.750345849246287,4.377113066261487,0.150289841509415,-1.131705923511027,0.0
1668680703.2958012,46191,1668680703,295561142,,10.59152082771504,-9.008489997459336,4.124629047248954,0.13634248134568994,-1.1502772764489628,0.0
1668680703.303792,46192,1668680703,303532654,,10.59152082771504,-9.008489997459336,4.124629047248954,0.13634248134568994,-1.1502772764489628,0.0
1668680703.311751,46193,1668680703,311528447,,10.416215774575598,-9.334898770966,3.864488717316725,0.11133646436624388,-1.1835963389753699,0.0
1668680703.3196242,46194,1668680703,319414220,,10.32352702757516,-9.507664461262445,3.7265399210131527,0.09811586797203947,-1.2012214285403238,0.0
1668680703.3277135,46195,1668680703,327492379,,10.132098651221385,-9.282060001677904,3.6010356209432137,0.07625989033302215,-1.1640699480040237,0.0
1668680703.3354023,46196,1668680703,335210214,,10.132098651221385,-9.282060001677904,3.6010356209432137,0.07625989033302215,-1.1640699480040237,0.0
1668680703.3438663,46197,1668680703,343605570,,10.030907994750553,-9.16291159722049,3.533933039151589,0.06468336745884389,-1.1444223612701871,0.0
1668680703.3519037,46198,1668680703,351655178,,10.261537915023077,-9.255548381447255,3.6071337161407007,0.1099066292333018,-1.1689131227001293,0.0
1668680703.3600214,46199,1668680703,359699118,,10.151994101654948,-9.124138110114256,3.583507920347158,0.0930895509438853,-1.1500031253112286,0.0
1668680703.3678277,46200,1668680703,367563500,,10.093973377337486,-9.05470108550867,3.5709664167843087,0.08414331558573108,-1.1400220482981915,0.0
1668680703.3760674,46201,1668680703,375758010,,10.261177166928656,-9.160856617606697,3.391932974289218,0.11260748479890637,-1.155503726891756,0.0
1668680703.383893,46202,1668680703,383542199,,10.261177166928656,-9.160856617606697,3.391932974289218,0.11260748479890637,-1.155503726891756,0.0
1668680703.3916452,46203,1668680703,391463796,,10.36583968064216,-9.350699484681652,2.9140942835495354,0.14128704672984066,-1.1691424607670684,0.0
1668680703.4003482,46204,1668680703,400066449,,10.42136201450473,-9.450704855548581,2.6621425216904626,0.15648410563980805,-1.1763429433389347,0.0
1668680703.407687,46205,1668680703,407473684,,10.419486417495614,-9.061359087736108,2.8954276035750635,0.14850920629422,-1.1357149776711684,0.0
1668680703.415433,46206,1668680703,415236687,,10.419486417495614,-9.061359087736108,2.8954276035750635,0.14850920629422,-1.1357149776711684,0.0
1668680703.4237757,46207,1668680703,423562633,,10.417740506376775,-8.855914245256788,3.0196509647801695,0.1441718797836547,-1.114282331410661,0.0
1668680703.4319344,46208,1668680703,431629237,,10.516898108606624,-8.858589313806416,3.280088870728739,0.16774225797420428,-1.1282791070517129,0.0
1668680703.439844,46209,1668680703,439591004,,10.63662474979482,-8.830466146821632,3.540118404982461,0.1793288554376532,-1.1222024411209786,0.0
1668680703.4478643,46210,1668680703,447615070,,10.700803549524622,-8.815186688397224,3.6764732971086156,0.1855995544119834,-1.1189109086422764,0.0
1668680703.4558308,46211,1668680703,455594899,,10.575200873253102,-8.882977343161189,4.133592256607178,0.15011446532469805,-1.1462752090586326,0.0
1668680703.463677,46212,1668680703,463482928,,10.575200873253102,-8.882977343161189,4.133592256607178,0.15011446532469805,-1.1462752090586326,0.0
1668680703.4718194,46213,1668680703,471568654,,10.481886371493957,-9.106089121264443,3.856206911107067,0.14764201961939627,-1.1606158797631385,0.0
1668680703.47979,46214,1668680703,479591459,,10.432259702829587,-9.224374329074525,3.7095385648282977,0.1462953592290792,-1.1682234980254158,0.0
1668680703.4878182,46215,1668680703,487623166,,10.489123476334502,-8.957263340426994,3.72323235581144,0.14772693731128633,-1.1375461978143808,0.0
1668680703.4956706,46216,1668680703,495395733,,10.489123476334502,-8.957263340426994,3.72323235581144,0.14772693731128633,-1.1375461978143808,0.0
1668680703.503834,46217,1668680703,503610411,,10.518915184705065,-8.815757223490138,3.731567297452893,0.14847364584129905,-1.1213196376623644,0.0
1668680703.5117607,46218,1668680703,511509027,,10.607956549152108,-8.589571857852844,3.4253070065944735,0.1844040844929039,-1.0984094959603876,0.0
1668680703.520079,46219,1668680703,519799005,,10.933371283130668,-8.622901065682248,3.2607028397295874,0.2527413138564603,-1.1136138085570746,0.0
1668680703.5280447,46220,1668680703,527656482,,11.10542714266903,-8.640860605614247,3.173185717581969,0.288834623364713,-1.1216971693799933,0.0
1668680703.5361197,46221,1668680703,535874294,,11.10542714266903,-8.640860605614247,3.173185717581969,0.288834623364713,-1.1216971693799933,0.0
1668680703.5444312,46222,1668680703,544225045,,11.100492233282294,-8.457539462450562,3.873358043985709,0.2666487111941937,-1.1152533583571036,0.0
1668680703.552435,46223,1668680703,552157376,,10.798385438636345,-8.707204626461996,4.1346818888369885,0.21469637648662088,-1.1525772459060573,0.0
1668680703.5606947,46224,1668680703,560480045,,10.638792039680228,-8.838402282045557,4.274071856771396,0.187333788469524,-1.1722576349748344,0.0
1668680703.567884,46225,1668680703,567654227,,10.676837330568382,-9.017509507089411,4.433051524587391,0.1737172001492886,-1.1988261420867734,0.0
1668680703.5757108,46226,1668680703,575491496,,10.696311407491883,-9.112796928823617,4.5175741614045535,0.1664121059521404,-1.2129350420744265,0.0
1668680703.5835989,46227,1668680703,583359370,,10.696311407491883,-9.112796928823617,4.5175741614045535,0.1664121059521404,-1.2129350420744265,0.0
1668680703.591969,46228,1668680703,591759489,,10.70668027740727,-9.023883900293434,4.328223842582562,0.16543663051188845,-1.1978669024782254,0.0
1668680703.5998952,46229,1668680703,599641206,,10.899974875184725,-9.138631897282291,4.220772749951192,0.2029682845866162,-1.220893075378588,0.0
1668680703.6079354,46230,1668680703,607698185,,11.002354530229223,-9.199751489412478,4.162833562083149,0.22279594069238262,-1.2330923143107504,0.0
