Time,header.seq,header.stamp.secs,header.stamp.nsecs,header.frame_id,pose.position.x,pose.position.y,pose.position.z,pose.orientation.x,pose.orientation.y,pose.orientation.z,pose.orientation.w
1668680699.9755218,45776,1668680699,975340429,,-0.09879818043296344,-0.6160097982919182,0.0781922967147341,0.9955612156868467,0.09352316526210439,-0.00434759538630278,0.009611544820769187
1668680699.9839182,45777,1668680699,983677518,,-0.09879818043296344,-0.6160097982919182,0.0781922967147341,0.9955612156868467,0.09352316526210439,-0.00434759538630278,0.009611544820769187
1668680699.9916172,45778,1668680699,991464578,,-0.09879818043296344,-0.6160097982919182,0.0781922967147341,0.9955612156868467,0.09352316526210439,-0.00434759538630278,0.009611544820769187
1668680699.9998176,45779,1668680699,999647676,,-0.09879818043296344,-0.6160097982919182,0.0781922967147341,0.9955612156868467,0.09352316526210439,-0.00434759538630278,0.009611544820769187
1668680700.0076683,45780,1668680700,7506224,,-0.09879818043296344,-0.6160097982919182,0.0781922967147341,0.9955612156868467,0.09352316526210439,-0.00434759538630278,0.009611544820769187
1668680700.0154195,45781,1668680700,15295245,,-0.09879818043296344,-0.6160097982919182,0.0781922967147341,0.9955612156868467,0.09352316526210439,-0.00434759538630278,0.009611544820769187
1668680700.0239942,45782,1668680700,23581498,,-0.09879818043296344,-0.6160097982919182,0.0781922967147341,0.9955612156868467,0.09352316526210439,-0.00434759538630278,0.009611544820769187
1668680700.0317209,45783,1668680700,31602941,,-0.09879818043296344,-0.6160097982919182,0.0781922967147341,0.9955612156868467,0.09352316526210439,-0.00434759538630278,0.009611544820769187
1668680700.0399866,45784,1668680700,39867069,,-0.09879818043296344,-0.6160097982919182,0.0781922967147341,0.9955612156868467,0.09352316526210439,-0.00434759538630278,0.009611544820769187
1668680700.0478075,45785,1668680700,47646444,,-0.09879818043296344,-0.6160097982919182,0.0781922967147341,0.9955612156868467,0.09352316526210439,-0.00434759538630278,0.009611544820769187
1668680700.0555375,45786,1668680700,55340084,,-0.09879818043296344,-0.6160097982919182,0.0781922967147341,0.9955612156868467,0.09352316526210439,-0.00434759538630278,0.009611544820769187
1668680700.0636535,45787,1668680700,63476992,,-0.09879818043296344,-0.6160097982919182,0.0781922967147341,0.9955612156868467,0.09352316526210439,-0.00434759538630278,0.009611544820769187
1668680700.0717466,45788,1668680700,71599200,,-0.09879818043296344,-0.6160097982919182,0.0781922967147341,0.9955612156868467,0.09352316526210439,-0.00434759538630278,0.009611544820769187
1668680700.0799434,45789,1668680700,79762159,,-0.09879818043296344,-0.6160097982919182,0.0781922967147341,0.9955612156868467,0.09352316526210439,-0.00434759538630278,0.009611544820769187
1668680700.0879865,45790,1668680700,87767790,,-0.09879818043296344,-0.6160097982919182,0.0781922967147341,0.9955612156868467,0.09352316526210439,-0.00434759538630278,0.009611544820769187
1668680700.0956023,45791,1668680700,95403951,,-0.09879818043296344,-0.6160097982919182,0.0781922967147341,0.9955612156868467,0.09352316526210439,-0.00434759538630278,0.009611544820769187
1668680700.1041222,45792,1668680700,103844639,,-0.09879818043296344,-0.6160097982919182,0.0781922967147341,0.9955612156868467,0.09352316526210439,-0.00434759538630278,0.009611544820769187
1668680700.1117392,45793,1668680700,111607022,,-0.09879818043296344,-0.6160097982919182,0.0781922967147341,0.9955612156868467,0.09352316526210439,-0.00434759538630278,0.009611544820769187
1668680700.1196012,45794,1668680700,119465714,,-0.09879818043296344,-0.6160097982919182,0.0781922967147341,0.9955612156868467,0.09352316526210439,-0.00434759538630278,0.009611544820769187
1668680700.1276531,45795,1668680700,127398138,,-0.09879818043296344,-0.6160097982919182,0.0781922967147341,0.9955612156868467,0.09352316526210439,-0.00434759538630278,0.009611544820769187
1668680700.1354005,45796,1668680700,135207201,,-0.09879818043296344,-0.6160097982919182,0.0781922967147341,0.9955612156868467,0.09352316526210439,-0.00434759538630278,0.009611544820769187
1668680700.1438286,45797,1668680700,143602320,,-0.09879818043296344,-0.6160097982919182,0.0781922967147341,0.9955612156868467,0.09352316526210439,-0.00434759538630278,0.009611544820769187
1668680700.1519587,45798,1668680700,151726375,,-0.09879818043296344,-0.6160097982919182,0.0781922967147341,0.9955612156868467,0.09352316526210439,-0.00434759538630278,0.009611544820769187
1668680700.1598904,45799,1668680700,159710424,,-0.09879818043296344,-0.6160097982919182,0.0781922967147341,0.9955612156868467,0.09352316526210439,-0.00434759538630278,0.009611544820769187
1668680700.1677544,45800,1668680700,167570754,,-0.09879818043296344,-0.6160097982919182,0.0781922967147341,0.9955612156868467,0.09352316526210439,-0.00434759538630278,0.009611544820769187
1668680700.1757758,45801,1668680700,175649803,,-0.09879818043296344,-0.6160097982919182,0.0781922967147341,0.9955612156868467,0.09352316526210439,-0.00434759538630278,0.009611544820769187
1668680700.1835177,45802,1668680700,183285207,,-0.09879818043296344,-0.6160097982919182,0.0781922967147341,0.9955612156868467,0.09352316526210439,-0.00434759538630278,0.009611544820769187
1668680700.1918294,45803,1668680700,191664617,,-0.09879818043296344,-0.6160097982919182,0.0781922967147341,0.9955612156868467,0.09352316526210439,-0.00434759538630278,0.009611544820769187
1668680700.1998255,45804,1668680700,199647119,,-0.09879818043296344,-0.6160097982919182,0.0781922967147341,0.9955612156868467,0.09352316526210439,-0.00434759538630278,0.009611544820769187
1668680700.2077727,45805,1668680700,207546543,,-0.09879818043296344,-0.6160097982919182,0.0781922967147341,0.9955612156868467,0.09352316526210439,-0.00434759538630278,0.009611544820769187
1668680700.2155755,45806,1668680700,215455168,,-0.09879818043296344,-0.6160097982919182,0.0781922967147341,0.9955612156868467,0.09352316526210439,-0.00434759538630278,0.009611544820769187
1668680700.2233663,45807,1668680700,223247012,,-0.09879818043296344,-0.6160097982919182,0.0781922967147341,0.9955612156868467,0.09352316526210439,-0.00434759538630278,0.009611544820769187
1668680700.2321453,45808,1668680700,231944879,,-0.09879818043296344,-0.6160097982919182,0.0781922967147341,0.9955612156868467,0.09352316526210439,-0.00434759538630278,0.009611544820769187
1668680700.2407062,45809,1668680700,240489818,,-0.09879818043296344,-0.6160097982919182,0.0781922967147341,0.9955612156868467,0.09352316526210439,-0.00434759538630278,0.009611544820769187
1668680700.2479796,45810,1668680700,247755146,,-0.09879818043296344,-0.6160097982919182,0.0781922967147341,0.9955612156868467,0.09352316526210439,-0.00434759538630278,0.009611544820769187
1668680700.255794,45811,1668680700,255537191,,-0.09879818043296344,-0.6160097982919182,0.0781922967147341,0.9955612156868467,0.09352316526210439,-0.00434759538630278,0.009611544820769187
1668680700.2638226,45812,1668680700,263575661,,-0.09879818043296344,-0.6160097982919182,0.0781922967147341,0.9955612156868467,0.09352316526210439,-0.00434759538630278,0.009611544820769187
1668680700.2717376,45813,1668680700,271457280,,-0.09879818043296344,-0.6160097982919182,0.0781922967147341,0.9955612156868467,0.09352316526210439,-0.00434759538630278,0.009611544820769187
1668680700.2796779,45814,1668680700,279442407,,-0.09879818043296344,-0.6160097982919182,0.0781922967147341,0.9955612156868467,0.09352316526210439,-0.00434759538630278,0.009611544820769187
1668680700.2878168,45815,1668680700,287641539,,-0.09879818043296344,-0.6160097982919182,0.0781922967147341,0.9955612156868467,0.09352316526210439,-0.00434759538630278,0.009611544820769187
1668680700.2955327,45816,1668680700,295335556,,-0.09879818043296344,-0.6160097982919182,0.0781922967147341,0.9955612156868467,0.09352316526210439,-0.00434759538630278,0.009611544820769187
1668680700.303845,45817,1668680700,303668539,,-0.09879818043296344,-0.6160097982919182,0.0781922967147341,0.9955612156868467,0.09352316526210439,-0.00434759538630278,0.009611544820769187
1668680700.311675,45818,1668680700,311509585,,-0.09879818043296344,-0.6160097982919182,0.0781922967147341,0.9955612156868467,0.09352316526210439,-0.00434759538630278,0.009611544820769187
1668680700.3197255,45819,1668680700,319519341,,-0.09879818043296344,-0.6160097982919182,0.0781922967147341,0.9955612156868467,0.09352316526210439,-0.00434759538630278,0.009611544820769187
1668680700.3283956,45820,1668680700,328143154,,-0.09879818043296344,-0.6160097982919182,0.0781922967147341,0.9955612156868467,0.09352316526210439,-0.00434759538630278,0.009611544820769187
1668680700.3358085,45821,1668680700,335678839,,-0.09879818043296344,-0.6160097982919182,0.0781922967147341,0.9955612156868467,0.09352316526210439,-0.00434759538630278,0.009611544820769187
1668680700.3433583,45822,1668680700,343224046,,-0.09879818043296344,-0.6160097982919182,0.0781922967147341,0.9955612156868467,0.09352316526210439,-0.00434759538630278,0.009611544820769187
1668680700.352527,45823,1668680700,352359753,,-0.09879818043296344,-0.6160097982919182,0.0781922967147341,0.9955612156868467,0.09352316526210439,-0.00434759538630278,0.009611544820769187
1668680700.3607504,45824,1668680700,360458551,,-0.09879818043296344,-0.6160097982919182,0.0781922967147341,0.9955612156868467,0.09352316526210439,-0.00434759538630278,0.009611544820769187
1668680700.3686953,45825,1668680700,368407388,,-0.09879818043296344,-0.6160097982919182,0.0781922967147341,0.9955612156868467,0.09352316526210439,-0.00434759538630278,0.009611544820769187
1668680700.3764195,45826,1668680700,376189483,,-0.09879818043296344,-0.6160097982919182,0.0781922967147341,0.9955612156868467,0.09352316526210439,-0.00434759538630278,0.009611544820769187
1668680700.3840997,45827,1668680700,383890523,,-0.09879818043296344,-0.6160097982919182,0.0781922967147341,0.9955612156868467,0.09352316526210439,-0.00434759538630278,0.009611544820769187
1668680700.3923254,45828,1668680700,391984889,,-0.09879818043296344,-0.6160097982919182,0.0781922967147341,0.9955612156868467,0.09352316526210439,-0.00434759538630278,0.009611544820769187
1668680700.4004688,45829,1668680700,400208254,,-0.09879818043296344,-0.6160097982919182,0.0781922967147341,0.9955612156868467,0.09352316526210439,-0.00434759538630278,0.009611544820769187
1668680700.40774,45830,1668680700,407564852,,-0.09879818043296344,-0.6160097982919182,0.0781922967147341,0.9955612156868467,0.09352316526210439,-0.00434759538630278,0.009611544820769187
1668680700.415708,45831,1668680700,415537706,,-0.09879818043296344,-0.6160097982919182,0.0781922967147341,0.9955612156868467,0.09352316526210439,-0.00434759538630278,0.009611544820769187
1668680700.4235115,45832,1668680700,423359815,,-0.09879818043296344,-0.6160097982919182,0.0781922967147341,0.9955612156868467,0.09352316526210439,-0.00434759538630278,0.009611544820769187
1668680700.4316878,45833,1668680700,431552160,,-0.09879818043296344,-0.6160097982919182,0.0781922967147341,0.9955612156868467,0.09352316526210439,-0.00434759538630278,0.009611544820769187
1668680700.4396915,45834,1668680700,439550078,,-0.09879818043296344,-0.6160097982919182,0.0781922967147341,0.9955612156868467,0.09352316526210439,-0.00434759538630278,0.009611544820769187
1668680700.4478242,45835,1668680700,447647307,,-0.09879818043296344,-0.6160097982919182,0.0781922967147341,0.9955612156868467,0.09352316526210439,-0.00434759538630278,0.009611544820769187
1668680700.455432,45836,1668680700,455304920,,-0.09879818043296344,-0.6160097982919182,0.0781922967147341,0.9955612156868467,0.09352316526210439,-0.00434759538630278,0.009611544820769187
1668680700.463656,45837,1668680700,463445353,,-0.09879818043296344,-0.6160097982919182,0.0781922967147341,0.9955612156868467,0.09352316526210439,-0.00434759538630278,0.009611544820769187
1668680700.4715676,45838,1668680700,471440855,,-0.09879818043296344,-0.6160097982919182,0.0781922967147341,0.9955612156868467,0.09352316526210439,-0.00434759538630278,0.009611544820769187
1668680700.4795814,45839,1668680700,479469660,,-0.09879818043296344,-0.6160097982919182,0.0781922967147341,0.9955612156868467,0.09352316526210439,-0.00434759538630278,0.009611544820769187
1668680700.4876888,45840,1668680700,487490444,,-0.09879818043296344,-0.6160097982919182,0.0781922967147341,0.9955612156868467,0.09352316526210439,-0.00434759538630278,0.009611544820769187
1668680700.4954941,45841,1668680700,495295953,,-0.09879818043296344,-0.6160097982919182,0.0781922967147341,0.9955612156868467,0.09352316526210439,-0.00434759538630278,0.009611544820769187
1668680700.5037377,45842,1668680700,503593014,,-0.09879818043296344,-0.6160097982919182,0.0781922967147341,0.9955612156868467,0.09352316526210439,-0.00434759538630278,0.009611544820769187
1668680700.511825,45843,1668680700,511597784,,-0.09879818043296344,-0.6160097982919182,0.0781922967147341,0.9955612156868467,0.09352316526210439,-0.00434759538630278,0.009611544820769187
1668680700.5204937,45844,1668680700,520318350,,-0.09879818043296344,-0.6160097982919182,0.0781922967147341,0.9955612156868467,0.09352316526210439,-0.00434759538630278,0.009611544820769187
1668680700.5280466,45845,1668680700,527773755,,-0.09879818043296344,-0.6160097982919182,0.0781922967147341,0.9955612156868467,0.09352316526210439,-0.00434759538630278,0.009611544820769187
1668680700.5355654,45846,1668680700,535370995,,-0.09879818043296344,-0.6160097982919182,0.0781922967147341,0.9955612156868467,0.09352316526210439,-0.00434759538630278,0.009611544820769187
1668680700.5444899,45847,1668680700,544180867,,-0.09879818043296344,-0.6160097982919182,0.0781922967147341,0.9955612156868467,0.09352316526210439,-0.00434759538630278,0.009611544820769187
1668680700.5520039,45848,1668680700,551757740,,-0.09879818043296344,-0.6160097982919182,0.0781922967147341,0.9955612156868467,0.09352316526210439,-0.00434759538630278,0.009611544820769187
1668680700.5597932,45849,1668680700,559565853,,-0.09879818043296344,-0.6160097982919182,0.0781922967147341,0.9955612156868467,0.09352316526210439,-0.00434759538630278,0.009611544820769187
1668680700.5678298,45850,1668680700,567607076,,-0.09879818043296344,-0.6160097982919182,0.0781922967147341,0.9955612156868467,0.09352316526210439,-0.00434759538630278,0.009611544820769187
1668680700.5756392,45851,1668680700,575502012,,-0.09879818043296344,-0.6160097982919182,0.0781922967147341,0.9955612156868467,0.09352316526210439,-0.00434759538630278,0.009611544820769187
1668680700.5834043,45852,1668680700,583257403,,-0.09879818043296344,-0.6160097982919182,0.0781922967147341,0.9955612156868467,0.09352316526210439,-0.00434759538630278,0.009611544820769187
1668680700.591825,45853,1668680700,591591970,,-0.09879818043296344,-0.6160097982919182,0.0781922967147341,0.9955612156868467,0.09352316526210439,-0.00434759538630278,0.009611544820769187
1668680700.5997725,45854,1668680700,599565763,,-0.09879818043296344,-0.6160097982919182,0.0781922967147341,0.9955612156868467,0.09352316526210439,-0.00434759538630278,0.009611544820769187
1668680700.607722,45855,1668680700,607533036,,-0.09879818043296344,-0.6160097982919182,0.0781922967147341,0.9955612156868467,0.09352316526210439,-0.00434759538630278,0.009611544820769187
1668680700.6158693,45856,1668680700,615563817,,-0.09879818043296344,-0.6160097982919182,0.0781922967147341,0.9955612156868467,0.09352316526210439,-0.00434759538630278,0.009611544820769187
1668680700.6237478,45857,1668680700,623594718,,-0.09879818043296344,-0.6160097982919182,0.0781922967147341,0.9955612156868467,0.09352316526210439,-0.00434759538630278,0.009611544820769187
1668680700.6317832,45858,1668680700,631621515,,-0.09879818043296344,-0.6160097982919182,0.0781922967147341,0.9955612156868467,0.09352316526210439,-0.00434759538630278,0.009611544820769187
1668680700.6397488,45859,1668680700,639621934,,-0.09879818043296344,-0.6160097982919182,0.0781922967147341,0.9955612156868467,0.09352316526210439,-0.00434759538630278,0.009611544820769187
1668680700.6478252,45860,1668680700,647574056,,-0.09879818043296344,-0.6160097982919182,0.0781922967147341,0.9955612156868467,0.09352316526210439,-0.00434759538630278,0.009611544820769187
1668680700.6554286,45861,1668680700,655296649,,-0.09879818043296344,-0.6160097982919182,0.0781922967147341,0.9955612156868467,0.09352316526210439,-0.00434759538630278,0.009611544820769187
1668680700.6636455,45862,1668680700,663495909,,-0.09879818043296344,-0.6160097982919182,0.0781922967147341,0.9955612156868467,0.09352316526210439,-0.00434759538630278,0.009611544820769187
1668680700.6717787,45863,1668680700,671626011,,-0.09879818043296344,-0.6160097982919182,0.0781922967147341,0.9955612156868467,0.09352316526210439,-0.00434759538630278,0.009611544820769187
1668680700.6803071,45864,1668680700,679925762,,-0.09879818043296344,-0.6160097982919182,0.0781922967147341,0.9955612156868467,0.09352316526210439,-0.00434759538630278,0.009611544820769187
1668680700.6884685,45865,1668680700,688123699,,-0.09879818043296344,-0.6160097982919182,0.0781922967147341,0.9955612156868467,0.09352316526210439,-0.00434759538630278,0.009611544820769187
1668680700.695526,45866,1668680700,695253064,,-0.09879818043296344,-0.6160097982919182,0.0781922967147341,0.9955612156868467,0.09352316526210439,-0.00434759538630278,0.009611544820769187
1668680700.7037587,45867,1668680700,703570157,,-0.09879818043296344,-0.6160097982919182,0.0781922967147341,0.9955612156868467,0.09352316526210439,-0.00434759538630278,0.009611544820769187
1668680700.711912,45868,1668680700,711694035,,-0.09879818043296344,-0.6160097982919182,0.0781922967147341,0.9955612156868467,0.09352316526210439,-0.00434759538630278,0.009611544820769187
1668680700.7196784,45869,1668680700,719454395,,-0.09879818043296344,-0.6160097982919182,0.0781922967147341,0.9955612156868467,0.09352316526210439,-0.00434759538630278,0.009611544820769187
1668680700.727567,45870,1668680700,727456829,,-0.09879818043296344,-0.6160097982919182,0.0781922967147341,0.9955612156868467,0.09352316526210439,-0.00434759538630278,0.009611544820769187
1668680700.7359228,45871,1668680700,735738868,,-0.09879818043296344,-0.6160097982919182,0.0781922967147341,0.9955612156868467,0.09352316526210439,-0.00434759538630278,0.009611544820769187
1668680700.7434928,45872,1668680700,743363263,,-0.09879818043296344,-0.6160097982919182,0.0781922967147341,0.9955612156868467,0.09352316526210439,-0.00434759538630278,0.009611544820769187
1668680700.7516305,45873,1668680700,751453807,,-0.09879818043296344,-0.6160097982919182,0.0781922967147341,0.9955612156868467,0.09352316526210439,-0.00434759538630278,0.009611544820769187
1668680700.7599185,45874,1668680700,759778615,,-0.09879818043296344,-0.6160097982919182,0.0781922967147341,0.9955612156868467,0.09352316526210439,-0.00434759538630278,0.009611544820769187
1668680700.7678113,45875,1668680700,767627249,,-0.09879818043296344,-0.6160097982919182,0.0781922967147341,0.9955612156868467,0.09352316526210439,-0.00434759538630278,0.009611544820769187
1668680700.775818,45876,1668680700,775605679,,-0.09879818043296344,-0.6160097982919182,0.0781922967147341,0.9955612156868467,0.09352316526210439,-0.00434759538630278,0.009611544820769187
1668680700.7838633,45877,1668680700,783667464,,-0.09879818043296344,-0.6160097982919182,0.0781922967147341,0.9955612156868467,0.09352316526210439,-0.00434759538630278,0.009611544820769187
1668680700.7915812,45878,1668680700,791460339,,-0.09879818043296344,-0.6160097982919182,0.0781922967147341,0.9955612156868467,0.09352316526210439,-0.00434759538630278,0.009611544820769187
1668680700.7998605,45879,1668680700,799626730,,-0.09879818043296344,-0.6160097982919182,0.0781922967147341,0.9955612156868467,0.09352316526210439,-0.00434759538630278,0.009611544820769187
1668680700.8079274,45880,1668680700,807692611,,-0.09879818043296344,-0.6160097982919182,0.0781922967147341,0.9955612156868467,0.09352316526210439,-0.00434759538630278,0.009611544820769187
1668680700.8159363,45881,1668680700,815694907,,-0.09879818043296344,-0.6160097982919182,0.0781922967147341,0.9955612156868467,0.09352316526210439,-0.00434759538630278,0.009611544820769187
1668680700.8235514,45882,1668680700,823339522,,-0.09879690133441453,-0.6160113051943948,0.0781922967147341,0.9955612156868467,0.09352316526210439,-0.00434759538630278,0.009611544820769187
1668680700.832348,45883,1668680700,832095113,,-0.09879306406494526,-0.6160158258709837,0.0781922967147341,0.9955612156868467,0.09352316526210439,-0.00434759538630278,0.009611544820769187
1668680700.8398733,45884,1668680700,839719909,,-0.09878666870308758,-0.6160233602291527,0.0781922967147341,0.9955612156868467,0.09352316526210439,-0.00434759538630278,0.009611544820769187
1668680700.847583,45885,1668680700,847476986,,-0.09877771537972627,-0.6160339081146537,0.0781922967147341,0.9955612156868467,0.09352316526210439,-0.00434759538630278,0.009611544820769187
1668680700.8556743,45886,1668680700,855357155,,-0.09876620427809622,-0.61604746931148,0.0781922967147341,0.9955612156868467,0.09352316526210439,-0.00434759538630278,0.009611544820769187
1668680700.8635967,45887,1668680700,863445442,,-0.0987521356337788,-0.6160640435418062,0.0781922967147341,0.9955612156868467,0.09352316526210439,-0.00434759538630278,0.009611544820769187
1668680700.8717685,45888,1668680700,871556468,,-0.09873550973469691,-0.616083630465913,0.0781922967147341,0.9955612156868467,0.09352316526210439,-0.00434759538630278,0.009611544820769187
1668680700.8798563,45889,1668680700,879628455,,-0.09871632692110918,-0.6161062296820927,0.0781922967147341,0.9955612156868467,0.09352316526210439,-0.00434759538630278,0.009611544820769187
1668680700.8877702,45890,1668680700,887565488,,-0.09869458758560296,-0.6161318407265405,0.0781922967147341,0.9955612156868467,0.09352316526210439,-0.00434759538630278,0.009611544820769187
1668680700.8954666,45891,1668680700,895248380,,-0.09867029217308625,-0.6161604630732257,0.0781922967147341,0.9955612156868467,0.09352316526210439,-0.00434759538630278,0.009611544820769187
1668680700.9038568,45892,1668680700,903690199,,-0.09864344118077872,-0.6161920961337495,0.0781922967147341,0.9955612156868467,0.09352316526210439,-0.00434759538630278,0.009611544820769187
1668680700.9117024,45893,1668680700,911528497,,-0.0986140351582014,-0.6162267392571833,0.0781922967147341,0.9955612156868467,0.09352316526210439,-0.00434759538630278,0.009611544820769187
1668680700.9198732,45894,1668680700,919657919,,-0.0985820747071655,-0.6162643917298916,0.0781922967147341,0.9955612156868467,0.09352316526210439,-0.00434759538630278,0.009611544820769187
1668680700.9277833,45895,1668680700,927658729,,-0.0985475604817601,-0.6163050527753383,0.0781922967147341,0.9955612156868467,0.09352316526210439,-0.00434759538630278,0.009611544820769187
1668680700.9353623,45896,1668680700,935237177,,-0.09851049318833871,-0.6163487215538758,0.0781922967147341,0.9955612156868467,0.09352316526210439,-0.00434759538630278,0.009611544820769187
1668680700.9436567,45897,1668680700,943500419,,-0.09847087358550488,-0.6163953971625175,0.0781922967147341,0.9955612156868467,0.09352316526210439,-0.00434759538630278,0.009611544820769187
1668680700.9518335,45898,1668680700,951670483,,-0.09842870248409663,-0.616445078634695,0.0781922967147341,0.9955612156868467,0.09352316526210439,-0.00434759538630278,0.009611544820769187
1668680700.9599843,45899,1668680700,959630831,,-0.09838398074716988,-0.6164977649399972,0.0781922967147341,0.9955612156868467,0.09352316526210439,-0.00434759538630278,0.009611544820769187
1668680700.96786,45900,1668680700,967684805,,-0.09833670928998077,-0.6165534549838942,0.0781922967147341,0.9955612156868467,0.09352316526210439,-0.00434759538630278,0.009611544820769187
1668680700.9763339,45901,1668680700,976018897,,-0.09828688907996692,-0.6166121476074449,0.0781922967147341,0.9955612156868467,0.09352316526210439,-0.00434759538630278,0.009611544820769187
1668680700.983449,45902,1668680700,983255639,,-0.09823452113672769,-0.6166738415869879,0.0781922967147341,0.9955612156868467,0.09352316526210439,-0.00434759538630278,0.009611544820769187
1668680700.9916465,45903,1668680700,991528613,,-0.09817960653200324,-0.6167385356338168,0.0781922967147341,0.9955612156868467,0.09352316526210439,-0.00434759538630278,0.009611544820769187
1668680701.0004337,45904,1668680701,78811,,-0.0981221463896526,-0.6168062283938395,0.0781922967147341,0.9955612156868467,0.09352316526210439,-0.00434759538630278,0.009611544820769187
1668680701.0076692,45905,1668680701,7538827,,-0.09806214188563075,-0.6168769184472216,0.0781922967147341,0.9955612156868467,0.09352316526210439,-0.00434759538630278,0.009611544820769187
1668680701.0155497,45906,1668680701,15314177,,-0.09799959424796448,-0.6169506043080139,0.0781922967147341,0.9955612156868467,0.09352316526210439,-0.00434759538630278,0.009611544820769187
1668680701.023773,45907,1668680701,23618721,,-0.09793450475672726,-0.6170272844237645,0.0781922967147341,0.9955612156868467,0.09352316526210439,-0.00434759538630278,0.009611544820769187
1668680701.0319262,45908,1668680701,31754387,,-0.09786687474401307,-0.6171069571751155,0.0781922967147341,0.9955612156868467,0.09352316526210439,-0.00434759538630278,0.009611544820769187
1668680701.0397995,45909,1668680701,39567489,,-0.09779670559390913,-0.6171896208753839,0.0781922967147341,0.9955612156868467,0.09352316526210439,-0.00434759538630278,0.009611544820769187
1668680701.0477881,45910,1668680701,47621082,,-0.09772399874246757,-0.6172752737701277,0.0781922967147341,0.9955612156868467,0.09352316526210439,-0.00434759538630278,0.009611544820769187
1668680701.0554552,45911,1668680701,55308879,,-0.09764875567767603,-0.6173639140366967,0.0781922967147341,0.9955612156868467,0.09352316526210439,-0.00434759538630278,0.009611544820769187
1668680701.0641372,45912,1668680701,63876129,,-0.09757097793942725,-0.6174555397837683,0.0781922967147341,0.9955612156868467,0.09352316526210439,-0.00434759538630278,0.009611544820769187
1668680701.0718699,45913,1668680701,71660332,,-0.09749066711948748,-0.6175501490508686,0.0781922967147341,0.9955612156868467,0.09352316526210439,-0.00434759538630278,0.009611544820769187
1668680701.079862,45914,1668680701,79655358,,-0.097407824861464,-0.6176477398078788,0.0781922967147341,0.9955612156868467,0.09352316526210439,-0.00434759538630278,0.009611544820769187
1668680701.0877676,45915,1668680701,87621790,,-0.09732245286077139,-0.6177483099545268,0.0781922967147341,0.9955612156868467,0.09352316526210439,-0.00434759538630278,0.009611544820769187
1668680701.0958793,45916,1668680701,95697247,,-0.09723455286459687,-0.6178518573198652,0.0781922967147341,0.9955612156868467,0.09352316526210439,-0.00434759538630278,0.009611544820769187
1668680701.1038258,45917,1668680701,103609418,,-0.09714412667186459,-0.6179583796617344,0.0781922967147341,0.9955612156868467,0.09352316526210439,-0.00434759538630278,0.009611544820769187
1668680701.1117406,45918,1668680701,111521208,,-0.0970511761331987,-0.6180678746662116,0.0781922967147341,0.9955612156868467,0.09352316526210439,-0.00434759538630278,0.009611544820769187
1668680701.1206534,45919,1668680701,120321819,,-0.09695570315088564,-0.6181803399470465,0.0781922967147341,0.9955612156868467,0.09352316526210439,-0.00434759538630278,0.009611544820769187
1668680701.128423,45920,1668680701,128222156,,-0.09685770967883502,-0.6182957730450834,0.0781922967147341,0.9955612156868467,0.09352316526210439,-0.00434759538630278,0.009611544820769187
1668680701.1356997,45921,1668680701,135401189,,-0.09675719772253977,-0.6184141714276691,0.0781922967147341,0.9955612156868467,0.09352316526210439,-0.00434759538630278,0.009611544820769187
1668680701.1437955,45922,1668680701,143673793,,-0.09665416933903506,-0.618535532488048,0.0781922967147341,0.9955612156868467,0.09352316526210439,-0.00434759538630278,0.009611544820769187
1668680701.151645,45923,1668680701,151499819,,-0.09654862663685619,-0.6186598535447445,0.0781922967147341,0.9955612156868467,0.09352316526210439,-0.00434759538630278,0.009611544820769187
1668680701.159715,45924,1668680701,159580581,,-0.09644057177599542,-0.6187871318409311,0.0781922967147341,0.9955612156868467,0.09352316526210439,-0.00434759538630278,0.009611544820769187
1668680701.1677792,45925,1668680701,167637739,,-0.0963300069678578,-0.6189173645437861,0.0781922967147341,0.9955612156868467,0.09352316526210439,-0.00434759538630278,0.009611544820769187
1668680701.1754644,45926,1668680701,175322891,,-0.09621693447521593,-0.6190505487438361,0.0781922967147341,0.9955612156868467,0.09352316526210439,-0.00434759538630278,0.009611544820769187
1668680701.1837757,45927,1668680701,183660695,,-0.09610135661216354,-0.6191866814542885,0.0781922967147341,0.9955612156868467,0.09352316526210439,-0.00434759538630278,0.009611544820769187
1668680701.191781,45928,1668680701,191613137,,-0.0959832757440683,-0.6193257596103505,0.0781922967147341,0.9955612156868467,0.09352316526210439,-0.00434759538630278,0.009611544820769187
1668680701.199646,45929,1668680701,199507637,,-0.09586269428752327,-0.6194677800685376,0.0781922967147341,0.9955612156868467,0.09352316526210439,-0.00434759538630278,0.009611544820769187
1668680701.2078013,45930,1668680701,207674322,,-0.09573961471029752,-0.6196127396059687,0.0781922967147341,0.9955612156868467,0.09352316526210439,-0.00434759538630278,0.009611544820769187
1668680701.2157295,45931,1668680701,215602258,,-0.09561403953128556,-0.6197606349196516,0.0781922967147341,0.9955612156868467,0.09352316526210439,-0.00434759538630278,0.009611544820769187
1668680701.2235744,45932,1668680701,223387225,,-0.09548597132045587,-0.6199114626257559,0.0781922967147341,0.9955612156868467,0.09352316526210439,-0.00434759538630278,0.009611544820769187
1668680701.2316644,45933,1668680701,231488722,,-0.09535541269879828,-0.6200652192588765,0.0781922967147341,0.9955612156868467,0.09352316526210439,-0.00434759538630278,0.009611544820769187
1668680701.2397203,45934,1668680701,239522790,,-0.09522236633827025,-0.6202219012712848,0.0781922967147341,0.9955612156868467,0.09352316526210439,-0.00434759538630278,0.009611544820769187
1668680701.2477872,45935,1668680701,247602112,,-0.09508683496174229,-0.6203815050321712,0.0781922967147341,0.9955612156868467,0.09352316526210439,-0.00434759538630278,0.009611544820769187
1668680701.2557786,45936,1668680701,255548973,,-0.09494882134294222,-0.6205440268268753,0.0781922967147341,0.9955612156868467,0.09352316526210439,-0.00434759538630278,0.009611544820769187
1668680701.263373,45937,1668680701,263193879,,-0.09480832830639833,-0.6207094628561086,0.0781922967147341,0.9955612156868467,0.09352316526210439,-0.00434759538630278,0.009611544820769187
1668680701.2721133,45938,1668680701,271960104,,-0.09466535872738165,-0.620877809235166,0.0781922967147341,0.9955612156868467,0.09352316526210439,-0.00434759538630278,0.009611544820769187
1668680701.2796452,45939,1668680701,279418180,,-0.09451991553184708,-0.6210490619931281,0.0781922967147341,0.9955612156868467,0.09352316526210439,-0.00434759538630278,0.009611544820769187
1668680701.2877095,45940,1668680701,287545696,,-0.09437200169637351,-0.6212232170720551,0.0781922967147341,0.9955612156868467,0.09352316526210439,-0.00434759538630278,0.009611544820769187
1668680701.295378,45941,1668680701,295217613,,-0.09422162024810288,-0.6214002703261704,0.0781922967147341,0.9955612156868467,0.09352316526210439,-0.00434759538630278,0.009611544820769187
1668680701.3036304,45942,1668680701,303502559,,-0.09406877426467829,-0.6215802175210379,0.0781922967147341,0.9955612156868467,0.09352316526210439,-0.00434759538630278,0.009611544820769187
1668680701.3117235,45943,1668680701,311596526,,-0.09391346687418094,-0.6217630543327288,0.0781922967147341,0.9955612156868467,0.09352316526210439,-0.00434759538630278,0.009611544820769187
1668680701.3197,45944,1668680701,319561159,,-0.09375570125506615,-0.6219487763469815,0.0781922967147341,0.9955612156868467,0.09352316526210439,-0.00434759538630278,0.009611544820769187
1668680701.327916,45945,1668680701,327793012,,-0.0935954806360983,-0.6221373790583542,0.0781922967147341,0.9955612156868467,0.09352316526210439,-0.00434759538630278,0.009611544820769187
1668680701.335352,45946,1668680701,335230371,,-0.0934328082962848,-0.6223288578693686,0.0781922967147341,0.9955612156868467,0.09352316526210439,-0.00434759538630278,0.009611544820769187
1668680701.3440957,45947,1668680701,343833008,,-0.09326768756480888,-0.622523208089648,0.0781922967147341,0.9955612156868467,0.09352316526210439,-0.00434759538630278,0.009611544820769187
1668680701.3517618,45948,1668680701,351540306,,-0.09310012182096158,-0.6227204249350479,0.0781922967147341,0.9955612156868467,0.09352316526210439,-0.00434759538630278,0.009611544820769187
1668680701.3598566,45949,1668680701,359693617,,-0.09293011449407249,-0.62292050352678,0.0781922967147341,0.9955612156868467,0.09352316526210439,-0.00434759538630278,0.009611544820769187
1668680701.367538,45950,1668680701,367390335,,-0.09275766906343957,-0.6231234388905302,0.0781922967147341,0.9955612156868467,0.09352316526210439,-0.00434759538630278,0.009611544820769187
1668680701.3755045,45951,1668680701,375330827,,-0.09258278905825808,-0.623329225955571,0.0781922967147341,0.9955612156868467,0.09352316526210439,-0.00434759538630278,0.009611544820769187
1668680701.384001,45952,1668680701,383854003,,-0.09240547805754816,-0.6235378595538675,0.0781922967147341,0.9955612156868467,0.09352316526210439,-0.00434759538630278,0.009611544820769187
1668680701.3917098,45953,1668680701,391500895,,-0.09222573969008172,-0.6237493344191787,0.0781922967147341,0.9955612156868467,0.09352316526210439,-0.00434759538630278,0.009611544820769187
1668680701.3995984,45954,1668680701,399427491,,-0.09204357763430811,-0.6239636451861539,0.0781922967147341,0.9955612156868467,0.09352316526210439,-0.00434759538630278,0.009611544820769187
1668680701.4078462,45955,1668680701,407696690,,-0.09185899561827889,-0.6241807863894244,0.0781922967147341,0.9955612156868467,0.09352316526210439,-0.00434759538630278,0.009611544820769187
1668680701.4161346,45956,1668680701,415768935,,-0.09167199741957145,-0.624400752462691,0.0781922967147341,0.9955612156868467,0.09352316526210439,-0.00434759538630278,0.009611544820769187
1668680701.4237008,45957,1668680701,423482217,,-0.09148258686521182,-0.6246235377378065,0.0781922967147341,0.9955612156868467,0.09352316526210439,-0.00434759538630278,0.009611544820769187
1668680701.4319515,45958,1668680701,431696574,,-0.09129076783159622,-0.624849136443857,0.0781922967147341,0.9955612156868467,0.09352316526210439,-0.00434759538630278,0.009611544820769187
1668680701.439936,45959,1668680701,439805238,,-0.09109654424441181,-0.6250775427062369,0.0781922967147341,0.9955612156868467,0.09352316526210439,-0.00434759538630278,0.009611544820769187
1668680701.4478328,45960,1668680701,447637701,,-0.09089992007855635,-0.6253087505457233,0.0781922967147341,0.9955612156868467,0.09352316526210439,-0.00434759538630278,0.009611544820769187
1668680701.4559426,45961,1668680701,455690286,,-0.09070089935805678,-0.6255427538775469,0.0781922967147341,0.9955612156868467,0.09352316526210439,-0.00434759538630278,0.009611544820769187
1668680701.4634173,45962,1668680701,463204030,,-0.09049948615598694,-0.62577954651046,0.0781922967147341,0.9955612156868467,0.09352316526210439,-0.00434759538630278,0.009611544820769187
1668680701.4716039,45963,1668680701,471465984,,-0.09029568459438418,-0.6260191221458042,0.0781922967147341,0.9955612156868467,0.09352316526210439,-0.00434759538630278,0.009611544820769187
1668680701.4798677,45964,1668680701,479690784,,-0.09008949884416502,-0.6262614743765749,0.0781922967147341,0.9955612156868467,0.09352316526210439,-0.00434759538630278,0.009611544820769187
1668680701.487855,45965,1668680701,487693409,,-0.08988093312503975,-0.6265065966864856,0.0781922967147341,0.9955612156868467,0.09352316526210439,-0.00434759538630278,0.009611544820769187
1668680701.495473,45966,1668680701,495312703,,-0.08966999170542614,-0.6267544824490309,0.0781922967147341,0.9955612156868467,0.09352316526210439,-0.00434759538630278,0.009611544820769187
1668680701.5036952,45967,1668680701,503570556,,-0.08945667890236196,-0.6270051249265494,0.0781922967147341,0.9955612156868467,0.09352316526210439,-0.00434759538630278,0.009611544820769187
1668680701.5119274,45968,1668680701,511791106,,-0.08924099908141679,-0.6272585172692859,0.0781922967147341,0.9955612156868467,0.09352316526210439,-0.00434759538630278,0.009611544820769187
1668680701.5197656,45969,1668680701,519585601,,-0.08902295665660256,-0.6275146525144547,0.0781922967147341,0.9955612156868467,0.09352316526210439,-0.00434759538630278,0.009611544820769187
1668680701.5277107,45970,1668680701,527538913,,-0.08880255609028326,-0.6277735235853021,0.0781922967147341,0.9955612156868467,0.09352316526210439,-0.00434759538630278,0.009611544820769187
1668680701.53534,45971,1668680701,535207896,,-0.08857980189308359,-0.6280351232901719,0.0781922967147341,0.9955612156868467,0.09352316526210439,-0.00434759538630278,0.009611544820769187
1668680701.5441844,45972,1668680701,543953401,,-0.0883546986237967,-0.6282994443215698,0.0781922967147341,0.9955612156868467,0.09352316526210439,-0.00434759538630278,0.009611544820769187
1668680701.5516434,45973,1668680701,551501351,,-0.08812725088929083,-0.6285664792552323,0.0781922967147341,0.9955612156868467,0.09352316526210439,-0.00434759538630278,0.009611544820769187
1668680701.5599124,45974,1668680701,559562801,,-0.08789746334441502,-0.6288362205491949,0.0781922967147341,0.9955612156868467,0.09352316526210439,-0.00434759538630278,0.009611544820769187
1668680701.5678976,45975,1668680701,567690830,,-0.08766534069190395,-0.6291086605428645,0.0781922967147341,0.9955612156868467,0.09352316526210439,-0.00434759538630278,0.009611544820769187
1668680701.5759158,45976,1668680701,575690017,,-0.08743088768228156,-0.6293837914560948,0.0781922967147341,0.9955612156868467,0.09352316526210439,-0.00434759538630278,0.009611544820769187
1668680701.5836163,45977,1668680701,583465680,,-0.08719410911376395,-0.6296616053882637,0.0781922967147341,0.9955612156868467,0.09352316526210439,-0.00434759538630278,0.009611544820769187
1668680701.591509,45978,1668680701,591387128,,-0.08695500983216106,-0.629942094317355,0.0781922967147341,0.9955612156868467,0.09352316526210439,-0.00434759538630278,0.009611544820769187
1668680701.599774,45979,1668680701,599645632,,-0.08671359473077764,-0.6302252500990444,0.0781922967147341,0.9955612156868467,0.09352316526210439,-0.00434759538630278,0.009611544820769187
1668680701.6081305,45980,1668680701,607864394,,-0.08646986875031294,-0.6305110644657894,0.0781922967147341,0.9955612156868467,0.09352316526210439,-0.00434759538630278,0.009611544820769187
1668680701.6156602,45981,1668680701,615521636,,-0.08622383687875976,-0.6307995290259242,0.0781922967147341,0.9955612156868467,0.09352316526210439,-0.00434759538630278,0.009611544820769187
1668680701.6234765,45982,1668680701,623327521,,-0.08597550415130224,-0.6310906352627593,0.0781922967147341,0.9955612156868467,0.09352316526210439,-0.00434759538630278,0.009611544820769187
1668680701.632073,45983,1668680701,631885787,,-0.08572487565021289,-0.6313843745336877,0.0781922967147341,0.9955612156868467,0.09352316526210439,-0.00434759538630278,0.009611544820769187
1668680701.639855,45984,1668680701,639679448,,-0.08547195650474854,-0.6316807380692959,0.0781922967147341,0.9955612156868467,0.09352316526210439,-0.00434759538630278,0.009611544820769187
1668680701.6479933,45985,1668680701,647777246,,-0.08521675189104537,-0.6319797169724817,0.0781922967147341,0.9955612156868467,0.09352316526210439,-0.00434759538630278,0.009611544820769187
1668680701.6554594,45986,1668680701,655307842,,-0.08495926703201301,-0.6322813022175789,0.0781922967147341,0.9955612156868467,0.09352316526210439,-0.00434759538630278,0.009611544820769187
1668680701.6639605,45987,1668680701,663751131,,-0.08469950719722762,-0.6325854846494887,0.0781922967147341,0.9955612156868467,0.09352316526210439,-0.00434759538630278,0.009611544820769187
1668680701.6722322,45988,1668680701,671954890,,-0.08443747770282402,-0.6328922549828194,0.0781922967147341,0.9955612156868467,0.09352316526210439,-0.00434759538630278,0.009611544820769187
1668680701.6796963,45989,1668680701,679503935,,-0.08417318391138696,-0.6332016038010326,0.0781922967147341,0.9955612156868467,0.09352316526210439,-0.00434759538630278,0.009611544820769187
1668680701.6876771,45990,1668680701,687503188,,-0.08390663123184135,-0.6335135215555991,0.0781922967147341,0.9955612156868467,0.09352316526210439,-0.00434759538630278,0.009611544820769187
1668680701.695785,45991,1668680701,695650597,,-0.08363782511934147,-0.6338279985651631,0.0781922967147341,0.9955612156868467,0.09352316526210439,-0.00434759538630278,0.009611544820769187
1668680701.7036097,45992,1668680701,703474352,,-0.08336677107515948,-0.6341450250147149,0.0781922967147341,0.9955612156868467,0.09352316526210439,-0.00434759538630278,0.009611544820769187
1668680701.7118611,45993,1668680701,711575980,,-0.08309347464657274,-0.6344645909547737,0.0781922967147341,0.9955612156868467,0.09352316526210439,-0.00434759538630278,0.009611544820769187
1668680701.7199416,45994,1668680701,719776682,,-0.08281794142675028,-0.6347866863005801,0.0781922967147341,0.9955612156868467,0.09352316526210439,-0.00434759538630278,0.009611544820769187
1668680701.7282574,45995,1668680701,727883915,,-0.08254017705463837,-0.6351113008312991,0.0781922967147341,0.9955612156868467,0.09352316526210439,-0.00434759538630278,0.009611544820769187
1668680701.7361212,45996,1668680701,735894574,,-0.0822601872148451,-0.6354384241892331,0.0781922967147341,0.9955612156868467,0.09352316526210439,-0.00434759538630278,0.009611544820769187
1668680701.7434347,45997,1668680701,743234558,,-0.08197797763752403,-0.6357680458790474,0.0781922967147341,0.9955612156868467,0.09352316526210439,-0.00434759538630278,0.009611544820769187
1668680701.7519557,45998,1668680701,751749652,,-0.08169355409825695,-0.6361001552670049,0.0781922967147341,0.9955612156868467,0.09352316526210439,-0.00434759538630278,0.009611544820769187
1668680701.7597923,45999,1668680701,759647298,,-0.08140692241793561,-0.6364347415802152,0.0781922967147341,0.9955612156868467,0.09352316526210439,-0.00434759538630278,0.009611544820769187
1668680701.767899,46000,1668680701,767739264,,-0.08111808846264268,-0.6367717939058939,0.0781922967147341,0.9955612156868467,0.09352316526210439,-0.00434759538630278,0.009611544820769187
1668680701.77546,46001,1668680701,775328654,,-0.08082705814353168,-0.6371113011906362,0.0781922967147341,0.9955612156868467,0.09352316526210439,-0.00434759538630278,0.009611544820769187
1668680701.7837021,46002,1668680701,783557812,,-0.08053383741670592,-0.6374532522397021,0.0781922967147341,0.9955612156868467,0.09352316526210439,-0.00434759538630278,0.009611544820769187
1668680701.791948,46003,1668680701,791693509,,-0.0802384322830967,-0.6377976357163162,0.0781922967147341,0.9955612156868467,0.09352316526210439,-0.00434759538630278,0.009611544820769187
1668680701.7998233,46004,1668680701,799671859,,-0.07994084878834047,-0.6381444401409806,0.0781922967147341,0.9955612156868467,0.09352316526210439,-0.00434759538630278,0.009611544820769187
1668680701.8075783,46005,1668680701,807451377,,-0.07964109302265512,-0.6384936538908024,0.0781922967147341,0.9955612156868467,0.09352316526210439,-0.00434759538630278,0.009611544820769187
1668680701.815577,46006,1668680701,815344730,,-0.07933917112071524,-0.6388452651988361,0.0781922967147341,0.9955612156868467,0.09352316526210439,-0.00434759538630278,0.009611544820769187
1668680701.8237176,46007,1668680701,823558821,,-0.07903508926152673,-0.6391992621534398,0.0781922967147341,0.9955612156868467,0.09352316526210439,-0.00434759538630278,0.009611544820769187
1668680701.8329327,46008,1668680701,832603566,,-0.07872885366830021,-0.6395556326976486,0.0781922967147341,0.9955612156868467,0.09352316526210439,-0.00434759538630278,0.009611544820769187
1668680701.8399043,46009,1668680701,839762969,,-0.07842047060832374,-0.6399143646285621,0.0781922967147341,0.9955612156868467,0.09352316526210439,-0.00434759538630278,0.009611544820769187
1668680701.8476782,46010,1668680701,847493719,,-0.0781099463928345,-0.6402754455967495,0.0781922967147341,0.9955612156868467,0.09352316526210439,-0.00434759538630278,0.009611544820769187
1668680701.8560817,46011,1668680701,855852880,,-0.07779728737688968,-0.6406388631056699,0.0781922967147341,0.9955612156868467,0.09352316526210439,-0.00434759538630278,0.009611544820769187
1668680701.864305,46012,1668680701,863878088,,-0.07748249995923637,-0.6410046045111105,0.0781922967147341,0.9955612156868467,0.09352316526210439,-0.00434759538630278,0.009611544820769187
1668680701.8716872,46013,1668680701,871536689,,-0.07716559058218062,-0.6413726570206424,0.0781922967147341,0.9955612156868467,0.09352316526210439,-0.00434759538630278,0.009611544820769187
1668680701.8795898,46014,1668680701,879472819,,-0.07684656573145564,-0.6417430076930924,0.0781922967147341,0.9955612156868467,0.09352316526210439,-0.00434759538630278,0.009611544820769187
1668680701.8878996,46015,1668680701,887646392,,-0.076525431936089,-0.6421156434380351,0.0781922967147341,0.9955612156868467,0.09352316526210439,-0.00434759538630278,0.009611544820769187
1668680701.8960981,46016,1668680701,895911818,,-0.07620219576826905,-0.6424905510153016,0.0781922967147341,0.9955612156868467,0.09352316526210439,-0.00434759538630278,0.009611544820769187
1668680701.9035616,46017,1668680701,903337713,,-0.0758768638432104,-0.6428677170345084,0.0781922967147341,0.9955612156868467,0.09352316526210439,-0.00434759538630278,0.009611544820769187
1668680701.9116333,46018,1668680701,911507155,,-0.07554944281901854,-0.6432471279546044,0.0781922967147341,0.9955612156868467,0.09352316526210439,-0.00434759538630278,0.009611544820769187
1668680701.9196682,46019,1668680701,919545630,,-0.0752199393965536,-0.6436287700834379,0.0781922967147341,0.9955612156868467,0.09352316526210439,-0.00434759538630278,0.009611544820769187
1668680701.9278488,46020,1668680701,927722136,,-0.07488836031929313,-0.6440126295773441,0.0781922967147341,0.9955612156868467,0.09352316526210439,-0.00434759538630278,0.009611544820769187
1668680701.9357965,46021,1668680701,935639877,,-0.07455471237319423,-0.6443986924407519,0.0781922967147341,0.9955612156868467,0.09352316526210439,-0.00434759538630278,0.009611544820769187
1668680701.9435046,46022,1668680701,943381188,,-0.07421900238655456,-0.6447869445258114,0.0781922967147341,0.9955612156868467,0.09352316526210439,-0.00434759538630278,0.009611544820769187
1668680701.9517117,46023,1668680701,951534816,,-0.07388123722987261,-0.6451773715320439,0.0781922967147341,0.9955612156868467,0.09352316526210439,-0.00434759538630278,0.009611544820769187
1668680701.959998,46024,1668680701,959865061,,-0.07354142381570714,-0.6455699590060108,0.0781922967147341,0.9955612156868467,0.09352316526210439,-0.00434759538630278,0.009611544820769187
1668680701.9676285,46025,1668680701,967484499,,-0.07319956909853567,-0.6459646923410061,0.0781922967147341,0.9955612156868467,0.09352316526210439,-0.00434759538630278,0.009611544820769187
1668680701.9766896,46026,1668680701,976476396,,-0.07285568007461216,-0.6463615567767704,0.0781922967147341,0.9955612156868467,0.09352316526210439,-0.00434759538630278,0.009611544820769187
1668680701.9839385,46027,1668680701,983747214,,-0.07250976378182383,-0.6467605373992271,0.0781922967147341,0.9955612156868467,0.09352316526210439,-0.00434759538630278,0.009611544820769187
1668680701.9926121,46028,1668680701,992439801,,-0.07216182729954712,-0.6471616191402413,0.0781922967147341,0.9955612156868467,0.09352316526210439,-0.00434759538630278,0.009611544820769187
1668680702.0004423,46029,1668680702,230176,,-0.07181187774850285,-0.6475647867774016,0.0781922967147341,0.9955612156868467,0.09352316526210439,-0.00434759538630278,0.009611544820769187
1668680702.0083365,46030,1668680702,8187801,,-0.07145992229061042,-0.6479700249338264,0.0781922967147341,0.9955612156868467,0.09352316526210439,-0.00434759538630278,0.009611544820769187
1668680702.0159466,46031,1668680702,15753138,,-0.07110596812884126,-0.6483773180779919,0.0781922967147341,0.9955612156868467,0.09352316526210439,-0.00434759538630278,0.009611544820769187
1668680702.0237656,46032,1668680702,23576620,,-0.07075002250707146,-0.6487866505235862,0.0781922967147341,0.9955612156868467,0.09352316526210439,-0.00434759538630278,0.009611544820769187
1668680702.032123,46033,1668680702,31937115,,-0.07039209270993348,-0.6491980064293863,0.0781922967147341,0.9955612156868467,0.09352316526210439,-0.00434759538630278,0.009611544820769187
1668680702.0398433,46034,1668680702,39662780,,-0.07003218606266705,-0.6496113697991602,0.0781922967147341,0.9955612156868467,0.09352316526210439,-0.00434759538630278,0.009611544820769187
1668680702.0477192,46035,1668680702,47531718,,-0.06967030993096929,-0.6500267244815945,0.0781922967147341,0.9955612156868467,0.09352316526210439,-0.00434759538630278,0.009611544820769187
1668680702.055446,46036,1668680702,55279627,,-0.06930647172084398,-0.650444054170246,0.0781922967147341,0.9955612156868467,0.09352316526210439,-0.00434759538630278,0.009611544820769187
1668680702.0639453,46037,1668680702,63800567,,-0.06894067887844993,-0.6508633424035203,0.0781922967147341,0.9955612156868467,0.09352316526210439,-0.00434759538630278,0.009611544820769187
1668680702.0715659,46038,1668680702,71430931,,-0.06857293888994864,-0.6512845725646756,0.0781922967147341,0.9955612156868467,0.09352316526210439,-0.00434759538630278,0.009611544820769187
1668680702.0798297,46039,1668680702,79649456,,-0.06820325928135111,-0.6517077278818522,0.0781922967147341,0.9955612156868467,0.09352316526210439,-0.00434759538630278,0.009611544820769187
1668680702.087865,46040,1668680702,87734532,,-0.06783164761836372,-0.6521327914281291,0.0781922967147341,0.9955612156868467,0.09352316526210439,-0.00434759538630278,0.009611544820769187
1668680702.0954397,46041,1668680702,95208821,,-0.0674581115062335,-0.652559746121607,0.0781922967147341,0.9955612156868467,0.09352316526210439,-0.00434759538630278,0.009611544820769187
1668680702.103696,46042,1668680702,103562350,,-0.06708265858959245,-0.6529885747255191,0.0781922967147341,0.9955612156868467,0.09352316526210439,-0.00434759538630278,0.009611544820769187
1668680702.1115587,46043,1668680702,111423615,,-0.06670529655230104,-0.6534192598483669,0.0781922967147341,0.9955612156868467,0.09352316526210439,-0.00434759538630278,0.009611544820769187
1668680702.1197622,46044,1668680702,119550460,,-0.06632603311729103,-0.6538517839440868,0.0781922967147341,0.9955612156868467,0.09352316526210439,-0.00434759538630278,0.009611544820769187
1668680702.1278763,46045,1668680702,127637637,,-0.06594487604640739,-0.6542861293122415,0.0781922967147341,0.9955612156868467,0.09352316526210439,-0.00434759538630278,0.009611544820769187
1668680702.1366315,46046,1668680702,136489650,,-0.0655618331402494,-0.6547222780982411,0.0781922967147341,0.9955612156868467,0.09352316526210439,-0.00434759538630278,0.009611544820769187
1668680702.1439772,46047,1668680702,143804315,,-0.06517691223801106,-0.6551602122935921,0.0781922967147341,0.9955612156868467,0.09352316526210439,-0.00434759538630278,0.009611544820769187
1668680702.152598,46048,1668680702,152237713,,-0.06479012121732065,-0.6555999137361747,0.0781922967147341,0.9955612156868467,0.09352316526210439,-0.00434759538630278,0.009611544820769187
1668680702.160644,46049,1668680702,160395649,,-0.06440146799407953,-0.6560413641105487,0.0781922967147341,0.9955612156868467,0.09352316526210439,-0.00434759538630278,0.009611544820769187
1668680702.1681166,46050,1668680702,167856351,,-0.06401096052230006,-0.6564845449482893,0.0781922967147341,0.9955612156868467,0.09352316526210439,-0.00434759538630278,0.009611544820769187
1668680702.1758237,46051,1668680702,175518755,,-0.06361860679394289,-0.6569294376283511,0.0781922967147341,0.9955612156868467,0.09352316526210439,-0.00434759538630278,0.009611544820769187
1668680702.1836426,46052,1668680702,183528412,,-0.06322441483875338,-0.6573760233774614,0.0781922967147341,0.9955612156868467,0.09352316526210439,-0.00434759538630278,0.009611544820769187
1668680702.1916308,46053,1668680702,191445860,,-0.06282839272409725,-0.6578242832705444,0.0781922967147341,0.9955612156868467,0.09352316526210439,-0.00434759538630278,0.009611544820769187
1668680702.1997597,46054,1668680702,199629969,,-0.062430548554795504,-0.6582741982311738,0.0781922967147341,0.9955612156868467,0.09352316526210439,-0.00434759538630278,0.009611544820769187
1668680702.2076452,46055,1668680702,207493939,,-0.06203089047295851,-0.6587257490320562,0.0781922967147341,0.9955612156868467,0.09352316526210439,-0.00434759538630278,0.009611544820769187
1668680702.2158935,46056,1668680702,215532344,,-0.06162942665781947,-0.659178916295544,0.0781922967147341,0.9955612156868467,0.09352316526210439,-0.00434759538630278,0.009611544820769187
1668680702.2239575,46057,1668680702,223772749,,-0.06122616532556688,-0.6596336804941803,0.0781922967147341,0.9955612156868467,0.09352316526210439,-0.00434759538630278,0.009611544820769187
1668680702.2317555,46058,1668680702,231594614,,-0.06082111472917652,-0.660090021951272,0.0781922967147341,0.9955612156868467,0.09352316526210439,-0.00434759538630278,0.009611544820769187
1668680702.240402,46059,1668680702,240139334,,-0.060414283158242474,-0.6605479208414954,0.0781922967147341,0.9955612156868467,0.09352316526210439,-0.00434759538630278,0.009611544820769187
1668680702.2484746,46060,1668680702,248286202,,-0.06000567893880748,-0.661007357191532,0.0781922967147341,0.9955612156868467,0.09352316526210439,-0.00434759538630278,0.009611544820769187
1668680702.2554476,46061,1668680702,255210267,,-0.059595310433192564,-0.6614683108807358,0.0781922967147341,0.9955612156868467,0.09352316526210439,-0.00434759538630278,0.009611544820769187
1668680702.2636635,46062,1668680702,263541440,,-0.059183186039825905,-0.6619307616418306,0.0781922967147341,0.9955612156868467,0.09352316526210439,-0.00434759538630278,0.009611544820769187
1668680702.2716858,46063,1668680702,271516123,,-0.05876931419307091,-0.6623946890616405,0.0781922967147341,0.9955612156868467,0.09352316526210439,-0.00434759538630278,0.009611544820769187
1668680702.2799382,46064,1668680702,279710599,,-0.05835370336305362,-0.6628600725818496,0.0781922967147341,0.9955612156868467,0.09352316526210439,-0.00434759538630278,0.009611544820769187
1668680702.2878857,46065,1668680702,287678187,,-0.057936362055489424,-0.6633268914997955,0.0781922967147341,0.9955612156868467,0.09352316526210439,-0.00434759538630278,0.009611544820769187
1668680702.2954543,46066,1668680702,295274864,,-0.05751729881150887,-0.6637951249692927,0.0781922967147341,0.9955612156868467,0.09352316526210439,-0.00434759538630278,0.009611544820769187
1668680702.3037467,46067,1668680702,303556556,,-0.05709652220748296,-0.664264752001489,0.0781922967147341,0.9955612156868467,0.09352316526210439,-0.00434759538630278,0.009611544820769187
1668680702.3123496,46068,1668680702,311963087,,-0.05667404085484759,-0.664735751465753,0.0781922967147341,0.9955612156868467,0.09352316526210439,-0.00434759538630278,0.009611544820769187
1668680702.320357,46069,1668680702,320140797,,-0.05624986339992734,-0.6652081020905938,0.0781922967147341,0.9955612156868467,0.09352316526210439,-0.00434759538630278,0.009611544820769187
1668680702.3285062,46070,1668680702,328225748,,-0.05582399852375845,-0.6656817824646131,0.0781922967147341,0.9955612156868467,0.09352316526210439,-0.00434759538630278,0.009611544820769187
1668680702.3355002,46071,1668680702,335327206,,-0.05539645494191127,-0.6661567710374888,0.0781922967147341,0.9955612156868467,0.09352316526210439,-0.00434759538630278,0.009611544820769187
1668680702.3440046,46072,1668680702,343849468,,-0.05496724140431178,-0.6666330461209918,0.0781922967147341,0.9955612156868467,0.09352316526210439,-0.00434759538630278,0.009611544820769187
1668680702.3518207,46073,1668680702,351622473,,-0.05453636669506262,-0.6671105858900336,0.0781922967147341,0.9955612156868467,0.09352316526210439,-0.00434759538630278,0.009611544820769187
1668680702.359655,46074,1668680702,359511429,,-0.054103839632263215,-0.6675893683837474,0.0781922967147341,0.9955612156868467,0.09352316526210439,-0.00434759538630278,0.009611544820769187
1668680702.3678074,46075,1668680702,367668482,,-0.05366966906782937,-0.6680693715066014,0.0781922967147341,0.9955612156868467,0.09352316526210439,-0.00434759538630278,0.009611544820769187
1668680702.3754563,46076,1668680702,375337475,,-0.05323386388731213,-0.6685505730295438,0.0781922967147341,0.9955612156868467,0.09352316526210439,-0.00434759538630278,0.009611544820769187
1668680702.3838506,46077,1668680702,383619406,,-0.05279643300971587,-0.6690329505911811,0.0781922967147341,0.9955612156868467,0.09352316526210439,-0.00434759538630278,0.009611544820769187
1668680702.3916976,46078,1668680702,391568403,,-0.0523573853873158,-0.6695164816989876,0.0781922967147341,0.9955612156868467,0.09352316526210439,-0.00434759538630278,0.009611544820769187
1668680702.399791,46079,1668680702,399604585,,-0.05191673000547474,-0.6700011437305492,0.0781922967147341,0.9955612156868467,0.09352316526210439,-0.00434759538630278,0.009611544820769187
1668680702.4079049,46080,1668680702,407658232,,-0.05147447588245928,-0.6704869139348375,0.0781922967147341,0.9955612156868467,0.09352316526210439,-0.00434759538630278,0.009611544820769187
1668680702.4157639,46081,1668680702,415582880,,-0.05103063206925508,-0.6709737694335179,0.0781922967147341,0.9955612156868467,0.09352316526210439,-0.00434759538630278,0.009611544820769187
1668680702.4237437,46082,1668680702,423363033,,-0.05058520764938182,-0.6714616872222894,0.0781922967147341,0.9955612156868467,0.09352316526210439,-0.00434759538630278,0.009611544820769187
1668680702.4321356,46083,1668680702,431934093,,-0.050138211738707125,-0.6719506441722568,0.0781922967147341,0.9955612156868467,0.09352316526210439,-0.00434759538630278,0.009611544820769187
1668680702.440054,46084,1668680702,439843204,,-0.049689653485260166,-0.6724406170313353,0.0781922967147341,0.9955612156868467,0.09352316526210439,-0.00434759538630278,0.009611544820769187
1668680702.4478,46085,1668680702,447574685,,-0.049239542069044295,-0.6729315824256874,0.0781922967147341,0.9955612156868467,0.09352316526210439,-0.00434759538630278,0.009611544820769187
1668680702.4558907,46086,1668680702,455587440,,-0.04878788670184929,-0.6734235168611921,0.0781922967147341,0.9955612156868467,0.09352316526210439,-0.00434759538630278,0.009611544820769187
1668680702.4636276,46087,1668680702,463425825,,-0.04833469662706272,-0.6739163967249461,0.0781922967147341,0.9955612156868467,0.09352316526210439,-0.00434759538630278,0.009611544820769187
1668680702.471933,46088,1668680702,471737223,,-0.04787998111948086,-0.6744101982867974,0.0781922967147341,0.9955612156868467,0.09352316526210439,-0.00434759538630278,0.009611544820769187
1668680702.4797068,46089,1668680702,479490556,,-0.04742374948511885,-0.67490489770091,0.0781922967147341,0.9955612156868467,0.09352316526210439,-0.00434759538630278,0.009611544820769187
1668680702.4876177,46090,1668680702,487474888,,-0.04696601106102023,-0.675400471007362,0.0781922967147341,0.9955612156868467,0.09352316526210439,-0.00434759538630278,0.009611544820769187
1668680702.4957137,46091,1668680702,495550670,,-0.04650677521506587,-0.6758968941337741,0.0781922967147341,0.9955612156868467,0.09352316526210439,-0.00434759538630278,0.009611544820769187
1668680702.5036132,46092,1668680702,503436842,,-0.04604605134578224,-0.6763941428969705,0.0781922967147341,0.9955612156868467,0.09352316526210439,-0.00434759538630278,0.009611544820769187
