Time,header.seq,header.stamp.secs,header.stamp.nsecs,header.frame_id,pose.position.x,pose.position.y,pose.position.z,pose.orientation.x,pose.orientation.y,pose.orientation.z,pose.orientation.w
1668680538.2323878,25558,1668680538,232262761,,-0.0987977645767806,-0.6160097986507668,0.07088206678738847,0.9955612043656502,0.09352317221125762,-0.004348187958752539,0.00961238175660975
1668680538.2404413,25559,1668680538,240333580,,-0.09879789533674856,-0.6160097986379351,0.07088206678650721,0.9955612042966617,0.09352317219992366,-0.00434818908953959,0.009612388500556113
1668680538.2483475,25560,1668680538,248174091,,-0.0987980163272587,-0.6160097986253985,0.07088206678565001,0.9955612042296788,0.09352317218779174,-0.004348190135358478,0.009612395082991545
1668680538.255816,25561,1668680538,255706341,,-0.09879812808156473,-0.6160097986131582,0.07088206678481702,0.9955612041646937,0.09352317217486958,-0.0043481910967496816,0.009612401504355097
1668680538.2645364,25562,1668680538,264442075,,-0.09879823110900514,-0.6160097986012145,0.07088206678400802,0.9955612041016993,0.09352317216116501,-0.0043481919742601625,0.009612407765103297
1668680538.2720647,25563,1668680538,271922129,,-0.09879832589588904,-0.6160097985895675,0.07088206678322234,0.9955612040406878,0.09352317214668603,-0.004348192768443271,0.009612413865709301
1668680538.2805958,25564,1668680538,280466456,,-0.09879841290635509,-0.6160097985782159,0.07088206678245963,0.9955612039816513,0.09352317213144082,-0.004348193479858616,0.009612419806663147
1668680538.288582,25565,1668680538,288438498,,-0.09879849258320922,-0.6160097985671592,0.07088206678171984,0.9955612039245816,0.09352317211543744,-0.004348194109072119,0.009612425588471371
1668680538.2961392,25566,1668680538,295993976,,-0.09879856534873552,-0.6160097985563954,0.07088206678100238,0.9955612038694703,0.09352317209868367,-0.004348194656655535,0.009612431211656867
1668680538.3040183,25567,1668680538,303845594,,-0.09879863160548523,-0.6160097985459224,0.07088206678030728,0.9955612038163092,0.09352317208118785,-0.004348195123186667,0.009612436676758963
1668680538.3117735,25568,1668680538,311665320,,-0.09879869173704217,-0.6160097985357375,0.07088206677963363,0.9955612037650893,0.09352317206295811,-0.004348195509248869,0.009612441984332358
1668680538.319834,25569,1668680538,319727839,,-0.09879874610876416,-0.6160097985258383,0.07088206677898129,0.9955612037158019,0.09352317204400253,-0.004348195815431516,0.009612447134947884
1668680538.3279412,25570,1668680538,327745720,,-0.09879879506850262,-0.6160097985162211,0.07088206677834984,0.995561203668438,0.0935231720243292,-0.0043481960423291995,0.009612452129191745
1668680538.3354983,25571,1668680538,335372716,,-0.09879883894729971,-0.616009798506883,0.0708820667777388,0.9955612036229885,0.09352317200394661,-0.00434819619054216,0.009612456967666029
1668680538.343629,25572,1668680538,343475193,,-0.09879887806006393,-0.6160097984978201,0.0708820667771479,0.9955612035794439,0.09352317198286274,-0.004348196260675999,0.009612461650987352
1668680538.3528216,25573,1668680538,352660010,,-0.09879891270622244,-0.6160097984890283,0.07088206677657663,0.9955612035377945,0.09352317196108596,-0.004348196253341262,0.009612466179787596
1668680538.363353,25574,1668680538,363079033,,-0.09879894317035505,-0.6160097984805035,0.07088206677602442,0.995561203498031,0.09352317193862442,-0.004348196169153576,0.00961247055471312
1668680538.3677619,25575,1668680538,367571606,,-0.098798969722805,-0.6160097984722417,0.07088206677549108,0.9955612034601432,0.09352317191548669,-0.0043481960087338655,0.009612474776425487
1668680538.375772,25576,1668680538,375613869,,-0.09879899262027113,-0.6160097984642379,0.07088206677497602,0.9955612034241211,0.09352317189168102,-0.004348195772707469,0.009612478845599867
1668680538.3834863,25577,1668680538,383396420,,-0.09879901210637944,-0.6160097984564874,0.07088206677447886,0.9955612033899546,0.09352317186721563,-0.004348195461704697,0.00961248276292625
1668680538.3916185,25578,1668680538,391445920,,-0.09879902841223534,-0.6160097984489858,0.07088206677399922,0.9955612033576332,0.0935231718420989,-0.004348195076360266,0.009612486529108014
1668680538.3997521,25579,1668680538,399614611,,-0.09879904175695736,-0.6160097984417284,0.07088206677353663,0.9955612033271468,0.0935231718163391,-0.004348194617313696,0.009612490144862682
1668680538.4076807,25580,1668680538,407585406,,-0.0987990523481913,-0.6160097984347096,0.07088206677309064,0.9955612032984842,0.09352317178994496,-0.0043481940852084745,0.009612493610921364
1668680538.415419,25581,1668680538,415289175,,-0.09879906038260823,-0.6160097984279246,0.0708820667726609,0.995561203271635,0.09352317176292461,-0.00434819348069252,0.0096124969280282
1668680538.4238844,25582,1668680538,423771182,,-0.09879906604638306,-0.6160097984213684,0.07088206677224675,0.9955612032465879,0.09352317173528664,-0.004348192804417874,0.009612500096940644
1668680538.4321449,25583,1668680538,432022400,,-0.09879906951565638,-0.6160097984150357,0.07088206677184815,0.9955612032233322,0.09352317170703935,-0.004348192057040734,0.0096125031184295
1668680538.439829,25584,1668680538,439698662,,-0.09879907095698029,-0.6160097984089212,0.07088206677146426,0.9955612032018564,0.09352317167819152,-0.004348191239220834,0.009612505993277586
1668680538.4476602,25585,1668680538,447531411,,-0.09879907052774747,-0.6160097984030202,0.0708820667710949,0.9955612031821491,0.09352317164875132,-0.004348190351621973,0.00961250872228069
1668680538.4553075,25586,1668680538,455193564,,-0.09879906837660433,-0.6160097983973268,0.07088206677073965,0.995561203164199,0.0935231716187271,-0.004348189394911454,0.009612511306247086
1668680538.4641292,25587,1668680538,463925393,,-0.09879906464384841,-0.6160097983918367,0.07088206677039807,0.9955612031479942,0.09352317158812778,-0.004348188369760361,0.009612513745997033
1668680538.4720294,25588,1668680538,471897945,,-0.09879905946181253,-0.6160097983865438,0.07088206677006974,0.9955612031335231,0.09352317155696147,-0.004348187276842984,0.009612516042362696
1668680538.479541,25589,1668680538,479416142,,-0.09879905295523149,-0.6160097983814433,0.07088206676975453,0.9955612031207738,0.09352317152523669,-0.004348186116837053,0.009612518196188136
1668680538.4875865,25590,1668680538,487432560,,-0.09879904524159741,-0.61600979837653,0.07088206676945158,0.9955612031097342,0.093523171492962,-0.00434818489042331,0.009612520208328677
1668680538.4960845,25591,1668680538,495934611,,-0.0987990364315001,-0.616009798371799,0.07088206676916074,0.9955612031003921,0.09352317146014592,-0.00434818359828585,0.009612522079651227
1668680538.5035498,25592,1668680538,503300731,,-0.09879902662895408,-0.6160097983672451,0.0708820667688817,0.9955612030927351,0.09352317142679699,-0.004348182241111688,0.009612523811033903
1668680538.5125668,25593,1668680538,512128737,,-0.09879901593171324,-0.6160097983628633,0.07088206676861399,0.9955612030867513,0.09352317139292361,-0.0043481808195907435,0.009612525403365574
1668680538.520227,25594,1668680538,520044054,,-0.09879900443157198,-0.6160097983586484,0.07088206676835727,0.9955612030824278,0.09352317135853423,-0.004348179334415484,0.009612526857545982
1668680538.528113,25595,1668680538,527916708,,-0.09879899221465564,-0.6160097983545961,0.07088206676811111,0.9955612030797519,0.09352317132363751,-0.004348177786281115,0.009612528174485054
1668680538.5353441,25596,1668680538,535166618,,-0.09879897936169896,-0.6160097983507008,0.07088206676787528,0.9955612030787113,0.0935231712882417,-0.004348176175885647,0.0096125293551037
1668680538.5437217,25597,1668680538,543615594,,-0.09879896594831114,-0.6160097983469582,0.07088206676764926,0.9955612030792926,0.0935231712523557,-0.0043481745039292375,0.009612530400332614
1668680538.5517359,25598,1668680538,551521564,,-0.09879895204523384,-0.6160097983433636,0.07088206676743299,0.9955612030814833,0.09352317121598755,-0.004348172771114369,0.00961253131111231
1668680538.559877,25599,1668680538,559707767,,-0.09879893771858433,-0.6160097983399125,0.0708820667672258,0.9955612030852702,0.09352317117914608,-0.004348170978145819,0.009612532088393346
1668680538.5677845,25600,1668680538,567672575,,-0.09879892303009177,-0.6160097983366003,0.0708820667670278,0.99556120309064,0.09352317114183943,-0.004348169125730606,0.009612532733135613
1668680538.5757024,25601,1668680538,575554698,,-0.09879890803732119,-0.6160097983334226,0.07088206676683832,0.9955612030975797,0.09352317110407624,-0.004348167214577492,0.009612533246308562
1668680538.5832891,25602,1668680538,583158599,,-0.09879889279388976,-0.6160097983303748,0.0708820667666571,0.9955612031060759,0.09352317106586501,-0.0043481652453973,0.009612533628890424
1668680538.5920694,25603,1668680538,591920155,,-0.09879887734967237,-0.6160097983274526,0.07088206676648401,0.9955612031161148,0.09352317102721433,-0.004348163218902576,0.009612533881868656
1668680538.5996904,25604,1668680538,599561430,,-0.09879886175099949,-0.6160097983246524,0.07088206676631843,0.9955612031276835,0.09352317098813245,-0.004348161135807378,0.00961253400623929
1668680538.6076941,25605,1668680538,607502079,,-0.09879884604084532,-0.6160097983219698,0.07088206676616059,0.9955612031407678,0.09352317094862778,-0.004348158996827912,0.009612534003007484
1668680538.6154437,25606,1668680538,615277578,,-0.09879883025900839,-0.6160097983194003,0.07088206676600971,0.9955612031553543,0.09352317090870857,-0.004348156802681077,0.009612533873185659
1668680538.6238613,25607,1668680538,623677102,,-0.09879881444228418,-0.6160097983169407,0.07088206676586602,0.9955612031714292,0.09352317086838352,-0.0043481545540858205,0.009612533617795623
1668680538.6318297,25608,1668680538,631624485,,-0.09879879862462936,-0.6160097983145871,0.07088206676572881,0.9955612031889786,0.09352317082766082,-0.004348152251761899,0.009612533237866273
1668680538.6397672,25609,1668680538,639643061,,-0.09879878283731969,-0.6160097983123356,0.07088206676559802,0.9955612032079884,0.09352317078654915,-0.004348149896430506,0.009612532734434704
1668680538.6480985,25610,1668680538,647922662,,-0.09879876710909974,-0.6160097983101823,0.07088206676547332,0.9955612032284448,0.0935231707450564,-0.0043481474888135965,0.00961253210854536
1668680538.6555517,25611,1668680538,655378845,,-0.09879875146632608,-0.6160097983081242,0.07088206676535458,0.9955612032503336,0.09352317070319115,-0.004348145029634416,0.009612531361250275
1668680538.6642237,25612,1668680538,664111555,,-0.09879873593310469,-0.6160097983061575,0.07088206676524143,0.9955612032736406,0.0935231706609618,-0.004348142519616896,0.009612530493608416
1668680538.671513,25613,1668680538,671371757,,-0.09879872053142032,-0.616009798304279,0.07088206676513384,0.9955612032983517,0.09352317061837659,-0.0043481399594859915,0.009612529506686224
1668680538.6797912,25614,1668680538,679692067,,-0.09879870528126145,-0.6160097983024855,0.0708820667650315,0.9955612033244524,0.09352317057544354,-0.0043481373499668075,0.009612528401556302
1668680538.6876597,25615,1668680538,687476664,,-0.09879869020073796,-0.6160097983007735,0.07088206676493407,0.9955612033519284,0.0935231705321713,-0.004348134691785473,0.009612527179298329
1668680538.6953492,25616,1668680538,695181815,,-0.09879867530619445,-0.6160097982991405,0.07088206676484145,0.9955612033807654,0.09352317048856766,-0.004348131985668321,0.009612525840998202
1668680538.7037866,25617,1668680538,703547929,,-0.09879866061231717,-0.616009798297583,0.07088206676475371,0.9955612034109487,0.09352317044464127,-0.004348129232342279,0.009612524387748464
1668680538.7116663,25618,1668680538,711453418,,-0.098798646132236,-0.6160097982960981,0.07088206676467008,0.9955612034424639,0.09352317040040012,-0.004348126432534403,0.009612522820647102
1668680538.7196534,25619,1668680538,719521555,,-0.0987977507706237,-0.6160097982940245,0.07088206676457307,0.9955612034752963,0.09352317035585236,-0.004348123586978199,0.009612521140803488
1668680538.727538,25620,1668680538,727438067,,-0.09879469865876704,-0.6160097982851032,0.07088206676429863,0.9955612035094302,0.09352317031100611,-0.0043481206964476925,0.009612519349407324
1668680538.7356455,25621,1668680538,735526421,,-0.09878983454488754,-0.6160097982615971,0.0708820667636486,0.9955612035448494,0.09352317026586952,-0.004348117761724849,0.009612517447691772
1668680538.7438002,25622,1668680538,743630412,,-0.09878394564064817,-0.6160097982272638,0.07088206676273277,0.9955612035815399,0.09352317022045044,-0.0043481147835154775,0.009612515436745272
1668680538.7524533,25623,1668680538,752156009,,-0.09877746020495967,-0.6160097981855133,0.07088206676164802,0.9955612036194871,0.09352317017475718,-0.004348111762529496,0.009612513317659563
1668680538.7598972,25624,1668680538,759782857,,-0.0987754559791295,-0.6160116599654157,0.0708869241938268,0.9955612036586822,0.09352317012879784,-0.004348108699234541,0.009612511091051101
1668680538.7676694,25625,1668680538,767562526,,-0.09878681202608222,-0.6160167186870364,0.07090637315890008,0.9955612036991011,0.09352317008257892,-0.00434810559466296,0.009612508758891474
1668680538.7754703,25626,1668680538,775241259,,-0.09881740365449258,-0.6160241361867566,0.07094728029946902,0.9955612037406378,0.09352317003609867,-0.004348102453055525,0.00961250633023936
1668680538.7839603,25627,1668680538,783847406,,-0.09886805678019933,-0.6160335105407261,0.07101065764145788,0.9955612037831308,0.09352316998934956,-0.004348099280886212,0.009612503819001939
1668680538.7920387,25628,1668680538,791786000,,-0.098938055476943,-0.6160440594135715,0.07109708816476316,0.9955612038264289,0.09352316994232575,-0.004348096084217081,0.009612501238128691
1668680538.8002782,25629,1668680538,800012064,,-0.09902498646537998,-0.6160547390270165,0.0712073257783991,0.9955612038704194,0.09352316989502493,-0.004348092867612756,0.009612498597259267
1668680538.8081193,25630,1668680538,807930430,,-0.09912471690541073,-0.6160650263625911,0.0713396734064321,0.9955612039151183,0.09352316984745827,-0.004348089630592299,0.00961249589482245
1668680538.8159628,25631,1668680538,815841141,,-0.09923288317219285,-0.6160746729374714,0.07149065703010414,0.9955612039606008,0.09352316979964286,-0.004348086370369972,0.009612493124163977
1668680538.823469,25632,1668680538,823299654,,-0.09934516859791588,-0.6160835752248848,0.07165605202249119,0.9955612040070194,0.09352316975160348,-0.004348083081104985,0.009612490271859911
1668680538.8316708,25633,1668680538,831552591,,-0.09945983733535708,-0.6160917282596621,0.0718335439441466,0.9955612040544464,0.09352316970335726,-0.004348079760096065,0.009612487331477031
1668680538.8396716,25634,1668680538,839562169,,-0.09957357046293805,-0.6160991521822428,0.07201889072751876,0.9955612041029716,0.09352316965492258,-0.00434807640396958,0.009612484295089697
1668680538.847973,25635,1668680538,847865217,,-0.0996817768873538,-0.6161058565746762,0.07220594989741767,0.9955612041528042,0.0935231696063313,-0.004348073004657844,0.009612481144331914
1668680538.8556204,25636,1668680538,855451764,,-0.09978233065327156,-0.6161118678287588,0.07239082285742605,0.9955612042040182,0.09352316955760041,-0.004348069559415826,0.009612477872654951
1668680538.8636463,25637,1668680538,863510375,,-0.09987482532064065,-0.6161172228689297,0.07257214325751571,0.9955612042566024,0.09352316950873861,-0.00434806606879518,0.009612474480837175
1668680538.871634,25638,1668680538,871485075,,-0.09995928512241334,-0.6161219592161371,0.07274937139871693,0.9955612043105087,0.09352316945975013,-0.004348062534824705,0.009612470972948551
1668680538.8798616,25639,1668680538,879753405,,-0.10003552046291876,-0.6161261104045355,0.07292342126906337,0.9955612043657043,0.09352316941064097,-0.004348058958903549,0.009612467351665058
1668680538.8877182,25640,1668680538,887612788,,-0.10010368236410089,-0.616129709981178,0.0730963461016562,0.9955612044221436,0.09352316936141547,-0.004348055342947527,0.009612463620821113
1668680538.8955414,25641,1668680538,895408641,,-0.10016490854970578,-0.6161325499446677,0.0732702338487175,0.9955612044797625,0.09352316931207591,-0.004348051689567512,0.009612459785818843
1668680538.9034114,25642,1668680538,903260306,,-0.10022078010729193,-0.6161343126739958,0.07344710881399678,0.9955612045384822,0.093523169262623,-0.004348048001968433,0.009612455853408934
1668680538.912399,25643,1668680538,912217568,,-0.1002720090906396,-0.6161349510296137,0.0736272314876212,0.9955612045982564,0.09352316921306074,-0.004348044282060377,0.009612451827462891
1668680538.9196353,25644,1668680538,919539387,,-0.10031983986138944,-0.6161346749888057,0.07381130556991326,0.9955612046590451,0.0935231691633936,-0.004348040531503851,0.009612447711308798
1668680538.9280047,25645,1668680538,927876640,,-0.10036540488765094,-0.6161337950245134,0.07400057858578464,0.9955612047208019,0.09352316911362545,-0.0043480367522186454,0.00961244350887022
1668680538.9356184,25646,1668680538,935510813,,-0.10040876276115385,-0.6161325377972916,0.0741951945904786,0.99556120478351,0.09352316906376335,-0.0043480329449612,0.009612439221464495
1668680538.943639,25647,1668680538,943428488,,-0.1004499158862902,-0.61613102957782,0.07439474700603155,0.9955612048471526,0.0935231690138143,-0.004348029110494381,0.009612434850429577
1668680538.9517212,25648,1668680538,951621414,,-0.10048888137112227,-0.6161293259949981,0.07459853042590518,0.9955612049117127,0.09352316896378557,-0.004348025249573505,0.009612430397091715
1668680538.9607584,25649,1668680538,960533504,,-0.10052473759029715,-0.6161274640200864,0.07480459440133615,0.995561204977182,0.09352316891368469,-0.004348021362640069,0.009612425862071413
1668680538.9682577,25650,1668680538,968119077,,-0.10055610355866285,-0.6161254879340643,0.07501049558581525,0.9955612050435638,0.09352316886352109,-0.0043480174496658254,0.009612421244924393
1668680538.976467,25651,1668680538,976360879,,-0.10058244906915735,-0.6161234256628187,0.0752144958126483,0.9955612051108428,0.09352316881330193,-0.004348013511355542,0.009612416546860772
1668680538.9833827,25652,1668680538,983209312,,-0.10060368340107602,-0.6161212961290734,0.07541564601425274,0.9955612051789947,0.09352316876303308,-0.004348009548740457,0.009612411769834713
1668680538.9917386,25653,1668680538,991528036,,-0.10062001779691276,-0.6161191113929365,0.07561378020106374,0.9955612052479929,0.09352316871272011,-0.0043480055629705775,0.0096124069160793
1668680538.9996681,25654,1668680538,999557375,,-0.10063172746296327,-0.616116881456141,0.07580874884758661,0.99556120531781,0.09352316866236864,-0.004348001555191759,0.009612401987828914
1668680539.007666,25655,1668680539,7507886,,-0.10063916549601645,-0.6161146161458704,0.07600087850424728,0.9955612053884209,0.09352316861198445,-0.004347997526469798,0.009612396987147684
1668680539.0153215,25656,1668680539,15223298,,-0.10064279333195437,-0.6161123233568613,0.07619071484428504,0.9955612054598016,0.09352316856157325,-0.004347993477825435,0.009612391916012722
1668680539.0235398,25657,1668680539,23435457,,-0.10064295298337175,-0.6161100100188007,0.07637830689860803,0.9955612055319305,0.09352316851114092,-0.0043479894101818425,0.009612386776187382
1668680539.0317411,25658,1668680539,31519942,,-0.10063981063998369,-0.6161076824824321,0.07656371374438446,0.9955612056047874,0.09352316846069351,-0.00434798532440119,0.009612381569300969
1668680539.0397894,25659,1668680539,39678808,,-0.1006334690248437,-0.6161049363018215,0.0767465264860987,0.9955612056783533,0.09352316841023728,-0.0043479812213055,0.009612376296899237
1668680539.0479467,25660,1668680539,47749216,,-0.10062410666014389,-0.6161011836278093,0.07692587448279997,0.9955612057526103,0.0935231683597781,-0.00434797710166438,0.009612370960425857
1668680539.0553856,25661,1668680539,55245451,,-0.10061193478286114,-0.6160961914128468,0.07710123871331485,0.9955612058275415,0.09352316830932239,-0.0043479729662054675,0.00961236556123418
1668680539.06382,25662,1668680539,63584094,,-0.10059718351325994,-0.6160899637548036,0.07727239631497868,0.9955612059031309,0.09352316825887642,-0.004347968815629977,0.00961236010062294
1668680539.071819,25663,1668680539,71710577,,-0.10058007732517948,-0.6160825844478431,0.0774392265613506,0.9955612059793626,0.09352316820844667,-0.004347964650619696,0.009612354579852366
1668680539.0801113,25664,1668680539,79830486,,-0.10056082315995413,-0.6160741197204004,0.07760156582539979,0.9955612060562212,0.0935231681580391,-0.004347960471837428,0.009612349000144906
1668680539.0882223,25665,1668680539,87891196,,-0.10053962175858754,-0.616064652452564,0.07776048959996468,0.9955612061336921,0.09352316810765998,-0.0043479562799295084,0.009612343362693475
1668680539.0959914,25666,1668680539,95887480,,-0.10051666486641617,-0.6160542705388207,0.07791763910169032,0.9955612062117606,0.0935231680573155,-0.004347952075529054,0.00961233766866629
1668680539.1042888,25667,1668680539,104195185,,-0.10049213511519373,-0.6160430632464942,0.0780734275304607,0.9955612062904121,0.09352316800701217,-0.0043479478592574235,0.009612331919210956
1668680539.112425,25668,1668680539,112274182,,-0.1004672778791124,-0.6160314847088365,0.0782285231715364,0.9955612063696377,0.0935231679567564,-0.004347943631508074,0.009612326115001712
1668680539.1205628,25669,1668680539,120362378,,-0.10044490831640335,-0.6160201472564573,0.07838550837056109,0.9955612064494421,0.09352316790655571,-0.004347939392131135,0.009612320255582257
1668680539.128452,25670,1668680539,128313586,,-0.1004274225687784,-0.6160093490380344,0.07854692964942935,0.9955612065298262,0.09352316785641755,-0.004347935141097598,0.009612314340777854
1668680539.136488,25671,1668680539,136313871,,-0.1004152914128851,-0.6159992222965321,0.07871354720375712,0.9955612066107712,0.09352316780634698,-0.004347930879186145,0.009612308372132339
1668680539.1433954,25672,1668680539,143286036,,-0.10040775549743332,-0.6159898111076728,0.07888506516905217,0.99556120669225,0.09352316775634884,-0.004347926607525032,0.009612302351909343
1668680539.1519532,25673,1668680539,151733189,,-0.10040415990199528,-0.6159810976524411,0.07906081223387224,0.9955612067742389,0.09352316770642821,-0.0043479223271000325,0.009612296282059592
1668680539.1605566,25674,1668680539,160185495,,-0.10040403062824876,-0.6159730477240256,0.07924013614862208,0.995561206856718,0.09352316765659034,-0.004347918038742878,0.009612290164212693
1668680539.1688564,25675,1668680539,168585160,,-0.10040635879290465,-0.6159659478994868,0.07942214673633116,0.9955612069396701,0.09352316760684061,-0.004347913743186233,0.009612283999762335
1668680539.1760404,25676,1668680539,175922362,,-0.10041006713631528,-0.6159602122834149,0.0796058408822194,0.9955612070230815,0.09352316755718522,-0.00434790944103218,0.009612277789801444
1668680539.1845515,25677,1668680539,184422636,,-0.10041472002594036,-0.6159558942597868,0.0797905737964173,0.9955612071069389,0.09352316750763008,-0.0043479051328553595,0.009612271535399279
1668680539.1926053,25678,1668680539,192403271,,-0.10041995881034707,-0.6159530499531114,0.07997570026745579,0.9955612071912286,0.09352316745818065,-0.004347900819234687,0.009612265237652603
1668680539.2001011,25679,1668680539,199870220,,-0.10042506270494918,-0.6159522845628378,0.08016028655494556,0.9955612072759382,0.09352316740884284,-0.004347896500698981,0.009612258897528649
1668680539.2083344,25680,1668680539,208136505,,-0.1004294107006892,-0.6159542613396555,0.0803434932432505,0.9955612073610556,0.0935231673596225,-0.004347892177789235,0.009612252516021198
1668680539.2163026,25681,1668680539,216143858,,-0.10043296302134506,-0.6159592674298852,0.08052518903280635,0.9955612074465656,0.09352316731052479,-0.004347887851123666,0.009612246094330047
1668680539.2240312,25682,1668680539,223876214,,-0.10043681993689356,-0.6159676727650308,0.08070664545901536,0.9955612075324528,0.09352316726155478,-0.004347883521339769,0.009612239633746005
1668680539.2326953,25683,1668680539,232546729,,-0.10044184336150176,-0.6159795640568475,0.08088873380156478,0.9955612076187023,0.09352316721271757,-0.004347879189035668,0.00961223313549485
1668680539.2406266,25684,1668680539,240459524,,-0.1004483819484689,-0.61599481986356,0.08107168476355588,0.9955612077052995,0.09352316716401829,-0.004347874854786183,0.009612226600718633
1668680539.2480595,25685,1668680539,247833183,,-0.10045710190382004,-0.616013751587827,0.08125641617202532,0.995561207792231,0.09352316711546173,-0.0043478705191666136,0.009612220030583655
1668680539.2555873,25686,1668680539,255475737,,-0.10046830046645251,-0.616036646321006,0.08144350412197798,0.995561207879482,0.09352316706705299,-0.004347866182759189,0.009612213426257541
1668680539.263933,25687,1668680539,263820395,,-0.10048189216916244,-0.6160633248126345,0.0816327675155978,0.9955612079670384,0.09352316701879708,-0.004347861846143003,0.009612206788897591
1668680539.271539,25688,1668680539,271436686,,-0.10049741966223592,-0.6160932954458932,0.08182391340985293,0.9955612080548866,0.09352316697069872,-0.004347857509878885,0.009612200119614125
1668680539.2797136,25689,1668680539,279529023,,-0.10051403703015065,-0.6161260332815992,0.0820167999883288,0.995561208143014,0.0935231669227634,-0.004347853174491098,0.009612193419427045
1668680539.2878568,25690,1668680539,287679493,,-0.10053092455800453,-0.6161611012266651,0.08221111025220396,0.9955612082314085,0.09352316687499598,-0.004347848840482284,0.009612186689305935
1668680539.2956038,25691,1668680539,295381757,,-0.10054745788083551,-0.6161982122276684,0.0824063792945042,0.9955612083200576,0.09352316682740179,-0.0043478445083758865,0.009612179930282093
1668680539.3037775,25692,1668680539,303600514,,-0.1005632804630494,-0.6162371278240356,0.08260210750353583,0.9955612084089476,0.09352316677998534,-0.004347840178712656,0.009612173143435983
1668680539.3116136,25693,1668680539,311472590,,-0.1005782657393993,-0.6162773738710989,0.08279798408673135,0.995561208498065,0.09352316673275136,-0.004347835852056881,0.009612166329923682
1668680539.3199172,25694,1668680539,319810237,,-0.10059225353151473,-0.6163184068167231,0.08299378209855933,0.9955612085873955,0.09352316668570397,-0.004347831528964955,0.009612159490888346
1668680539.3282933,25695,1668680539,328192643,,-0.10060491977456278,-0.6163589614968847,0.08318949473828657,0.9955612086769254,0.09352316663884822,-0.004347827209984185,0.00961215262746114
1668680539.335341,25696,1668680539,335216237,,-0.10061587283935955,-0.6163974701361872,0.08338522229738486,0.9955612087666416,0.09352316659218791,-0.004347822895648763,0.009612145740752748
1668680539.3435588,25697,1668680539,343471461,,-0.10062500772113311,-0.6164334376081871,0.08358074338411876,0.9955612088565304,0.0935231665457279,-0.004347818586485068,0.009612138831857093
1668680539.351656,25698,1668680539,351415591,,-0.10063146574128295,-0.6164663524382813,0.08377594009788812,0.9955612089465778,0.09352316649947248,-0.004347814283057682,0.009612131901933796
1668680539.3598647,25699,1668680539,359706895,,-0.1006339834704228,-0.6164950678138255,0.0839711832623647,0.9955612090367683,0.09352316645342548,-0.004347809986011998,0.00961212495229927
1668680539.3675497,25700,1668680539,367436275,,-0.10063204807733218,-0.6165187331016673,0.08416681609241504,0.9955612091270856,0.09352316640759112,-0.004347805695976242,0.009612117984271897
1668680539.375874,25701,1668680539,375701738,,-0.1006255348609291,-0.6165368725178192,0.08436255875976795,0.9955612092175143,0.0935231663619732,-0.004347801413553264,0.009612110999131365
1668680539.3839586,25702,1668680539,383652842,,-0.10061451580839456,-0.6165497858984355,0.0845577759913985,0.9955612093080396,0.09352316631657573,-0.00434779713933665,0.009612103998142526
1668680539.392137,25703,1668680539,391846279,,-0.10059919577802227,-0.6165581349013477,0.08475200024376132,0.9955612093986456,0.09352316627140199,-0.004347792873941001,0.009612096982615947
1668680539.4001215,25704,1668680539,399933550,,-0.10057980192848034,-0.6165623603061977,0.08494486120132938,0.9955612094893179,0.09352316622645611,-0.004347788617925247,0.009612089953752857
1668680539.4076805,25705,1668680539,407578662,,-0.10055652872038197,-0.6165629771408004,0.08513586817394535,0.9955612095800417,0.09352316618174152,-0.004347784371867816,0.009612082912797705
1668680539.4153028,25706,1668680539,415168588,,-0.10052958659796453,-0.6165603226850865,0.08532455793894612,0.995561209670803,0.09352316613726214,-0.004347780136307093,0.00961207586091414
1668680539.4237864,25707,1668680539,423618785,,-0.1004991931557485,-0.6165546071874495,0.08551066082860632,0.9955612097615887,0.0935231660930214,-0.00434777591174314,0.00961206879918921
1668680539.4316046,25708,1668680539,431461400,,-0.10046555739386971,-0.6165460015135239,0.08569388737157846,0.9955612098523867,0.09352316604902325,-0.004347771698646091,0.00961206172864835
1668680539.4400434,25709,1668680539,439860621,,-0.10042887221965227,-0.6165346813194785,0.08587368296148444,0.9955612099431848,0.09352316600527127,-0.004347767497477215,0.009612054650301268
1668680539.4479065,25710,1668680539,447745664,,-0.10038932218943838,-0.616520789927335,0.08604951503714169,0.9955612100339712,0.09352316596176892,-0.004347763308677505,0.00961204756511712
1668680539.4560072,25711,1668680539,455822864,,-0.10034708187387305,-0.6165044502711016,0.08622105141476655,0.995561210124735,0.09352316591851999,-0.004347759132671365,0.009612040474032864
1668680539.4638531,25712,1668680539,463685854,,-0.10030231576880114,-0.6164857692643169,0.08638814997415295,0.9955612102154651,0.0935231658755278,-0.004347754969869654,0.009612033377959838
1668680539.471992,25713,1668680539,471822202,,-0.10025517758973256,-0.616464844905135,0.08655093147545172,0.9955612103061509,0.09352316583279618,-0.004347750820671576,0.009612026277787681
1668680539.4799407,25714,1668680539,479805732,,-0.10020581024396144,-0.6164417701198694,0.08670956842295642,0.9955612103967816,0.09352316579032846,-0.004347746685469076,0.009612019174393853
1668680539.4881399,25715,1668680539,488025706,,-0.1001539803279964,-0.6164166301919536,0.0868641882770528,0.9955612104873431,0.09352316574812748,-0.004347742564813465,0.00961201206900065
1668680539.495365,25716,1668680539,495242070,,-0.10009927971576496,-0.616389503925942,0.0870148951007373,0.9955612105778143,0.09352316570619577,-0.004347738459510652,0.00961200496338114
1668680539.503787,25717,1668680539,503601570,,-0.10004170186676538,-0.6163604643373803,0.08716173237654083,0.9955612106681808,0.0935231656645364,-0.004347734370108927,0.009611997858761708
1668680539.511649,25718,1668680539,511555777,,-0.0999806337107818,-0.6163294118609278,0.08730477496034843,0.9955612107584232,0.09352316562315137,-0.004347730297349715,0.00961199075678943
1668680539.520649,25719,1668680539,520528704,,-0.0999148400047431,-0.6162956845068182,0.08744442033746615,0.9955612108485056,0.09352316558204167,-0.004347726242642238,0.009611983660556322
1668680539.5287137,25720,1668680539,528407464,,-0.09984363739670436,-0.6162585409990633,0.08758115261485018,0.9955612109384006,0.09352316554120854,-0.004347722207024785,0.009611976572365928
1668680539.5360055,25721,1668680539,535695361,,-0.09976683770264619,-0.616217580976658,0.08771524959941893,0.9955612110280895,0.09352316550065405,-0.004347718191223201,0.009611969493854188
1668680539.5434396,25722,1668680539,543263086,,-0.0996847285168997,-0.6161729541392811,0.08784676875150196,0.9955612111175598,0.09352316546038107,-0.004347714195694456,0.009611962426079474
1668680539.5526156,25723,1668680539,552493339,,-0.09959782289304345,-0.6161250955907441,0.08797562095420995,0.995561211206805,0.09352316542039288,-0.004347710220652336,0.009611955369573813
1668680539.5597632,25724,1668680539,559553243,,-0.09950655396072279,-0.6160743083184956,0.08810174481198901,0.9955612112958191,0.09352316538069247,-0.004347706266291699,0.009611948324829955
1668680539.5675464,25725,1668680539,567419703,,-0.09941217167011485,-0.6160213495891708,0.08822500201558697,0.9955612113846111,0.09352316534128477,-0.004347702332217935,0.009611941291060482
1668680539.5755458,25726,1668680539,575384179,,-0.09931622720932153,-0.6159670585546241,0.08834524293651533,0.9955612114732109,0.09352316530217612,-0.0043476984172022524,0.009611934265665591
1668680539.5839658,25727,1668680539,583855472,,-0.09921930371753461,-0.6159117323841573,0.08846242279493192,0.9955612115616268,0.09352316526337108,-0.004347694520872355,0.00961192724790799
1668680539.5917466,25728,1668680539,591647639,,-0.09912205418038257,-0.6158557742598989,0.08857632092357678,0.9955612116498602,0.09352316522487324,-0.004347690643127945,0.00961192023764505
1668680539.6014209,25729,1668680539,599690121,,-0.09902537599120323,-0.6158020699367117,0.08868619112392914,0.9955612117379088,0.09352316518668591,-0.004347686784023332,0.009611913235074423
1668680539.6075985,25730,1668680539,607505014,,-0.09892968475913033,-0.615754218388318,0.08879129535401128,0.9955612118257332,0.09352316514880837,-0.0043476829450777325,0.00961190624358346
1668680539.6157951,25731,1668680539,615688768,,-0.0988353551007633,-0.6157143112721454,0.08889125329291099,0.9955612119133106,0.09352316511124217,-0.004347679127152249,0.00961189926513201
1668680539.623888,25732,1668680539,623740710,,-0.0987428147626064,-0.6156836155485604,0.08898608964327129,0.9955612120006287,0.0935231650739889,-0.004347675330686653,0.009611892300767042
1668680539.6323867,25733,1668680539,632261783,,-0.09865215585341919,-0.6156619693217977,0.08907609602761905,0.9955612120876829,0.09352316503705163,-0.004347671555825927,0.009611885350897069
1668680539.6404698,25734,1668680539,640284627,,-0.09856334057840056,-0.6156488789856018,0.08916151488552114,0.9955612121744678,0.09352316500043302,-0.00434766780272512,0.009611878415955665
1668680539.6486976,25735,1668680539,648555074,,-0.09847609436593956,-0.6156433798789803,0.08924280893608949,0.9955612122609773,0.09352316496413506,-0.004347664071595339,0.009611871496502023
1668680539.6560686,25736,1668680539,655946638,,-0.09838990452135331,-0.6156439411137977,0.08932049511743584,0.9955612123472019,0.09352316492816039,-0.004347660362740743,0.009611864593300936
1668680539.6647387,25737,1668680539,664601201,,-0.098304526701474,-0.6156496282998648,0.0893948265394626,0.9955612124331353,0.09352316489251092,-0.004347656676377317,0.009611857706928193
1668680539.672481,25738,1668680539,672174125,,-0.09821978424948602,-0.6156572082865722,0.0894660028477532,0.9955612125187918,0.09352316485719132,-0.004347653011877942,0.00961185083612589
1668680539.680535,25739,1668680539,680281794,,-0.09813326196557355,-0.6156623111730233,0.08953496148489032,0.9955612126041625,0.09352316482220265,-0.004347649369552561,0.009611843981681006
1668680539.6878848,25740,1668680539,687720986,,-0.09804161657905741,-0.6156627990382183,0.08960288448994735,0.9955612126891338,0.09352316478753767,-0.004347645753845643,0.009611837153400183
1668680539.6954372,25741,1668680539,695333496,,-0.09794337725019386,-0.6156573101923178,0.08967101771860102,0.9955612127736487,0.09352316475319303,-0.004347642166967162,0.009611830356225823
1668680539.7036452,25742,1668680539,703512933,,-0.09783838861970102,-0.6156453325788053,0.08974011260186636,0.9955612128576878,0.09352316471916984,-0.004347638609629095,0.009611823591837728
1668680539.711854,25743,1668680539,711569249,,-0.09772662496476184,-0.6156256608125916,0.08981134496813602,0.9955612129412522,0.09352316468547049,-0.004347635081738313,0.009611816860160348
1668680539.7196724,25744,1668680539,719564166,,-0.09760778665299255,-0.6155963861372787,0.08988652707434658,0.9955612130243429,0.09352316465209791,-0.004347631583182071,0.009611810161075653
1668680539.7278368,25745,1668680539,727739427,,-0.09748208347146739,-0.6155567271040374,0.08996642331992673,0.9955612131069664,0.09352316461905505,-0.004347628113648714,0.009611803494031679
1668680539.7358825,25746,1668680539,735651118,,-0.09734997127027584,-0.6155064920303286,0.09005125472809092,0.995561213189136,0.09352316458634541,-0.004347624672559087,0.009611796857893184
1668680539.7436445,25747,1668680539,743498527,,-0.09721209507302882,-0.6154466725774111,0.09014065153028722,0.9955612132708573,0.09352316455397175,-0.00434762125963353,0.009611790252181352
1668680539.751838,25748,1668680539,751660399,,-0.09706909129543088,-0.615378498554062,0.09023400435154175,0.9955612133521299,0.09352316452193629,-0.004347617874829765,0.009611783676939845
1668680539.7598655,25749,1668680539,759718943,,-0.09692125236585117,-0.6153037528035926,0.0903295317296755,0.9955612134329378,0.09352316449023977,-0.004347614518713544,0.00961177713354589
1668680539.7687414,25750,1668680539,768280867,,-0.09676877583014198,-0.615224732221857,0.0904249098445134,0.995561213513237,0.09352316445888015,-0.004347611192957918,0.00961177062580477
1668680539.775618,25751,1668680539,775482676,,-0.0966117665612223,-0.615142680329418,0.09051861388799869,0.9955612135930014,0.09352316442785698,-0.004347607898545874,0.00961176415601415
1668680539.7839696,25752,1668680539,783829871,,-0.09645040530147304,-0.6150581007942333,0.09060992203420035,0.9955612136722138,0.09352316439717089,-0.0043476046360842345,0.009611757725649529
1668680539.7917988,25753,1668680539,791599927,,-0.09628538044188263,-0.6149712990311662,0.09069855921418755,0.9955612137508909,0.09352316436682516,-0.004347601404855933,0.009611751333286948
1668680539.7999065,25754,1668680539,799684586,,-0.09611747946245963,-0.6148826534755036,0.09078412689169801,0.9955612138290615,0.09352316433682453,-0.004347598203667901,0.009611744976459582
1668680539.8078635,25755,1668680539,807764416,,-0.09594654751773836,-0.6147923831509489,0.09086655508673841,0.9955612139067176,0.09352316430716985,-0.004347595032754587,0.009611738655834786
1668680539.815655,25756,1668680539,815508988,,-0.09577197873879575,-0.6147006210014737,0.09094593977612231,0.995561213983808,0.09352316427785815,-0.004347591894087017,0.009611732375891269
1668680539.8238895,25757,1668680539,823707810,,-0.09559381898405404,-0.6146074393160241,0.0910223686402602,0.9955612140603176,0.09352316424888979,-0.004347588788183408,0.00961172613792356
1668680539.83232,25758,1668680539,832073511,,-0.09541186648963729,-0.6145128920160886,0.09109630679979584,0.9955612141362351,0.09352316422026541,-0.0043475857154306385,0.009611719942939054
1668680539.840814,25759,1668680539,840665392,,-0.09522560286019952,-0.6144170357132387,0.09116906593201798,0.995561214211513,0.09352316419198226,-0.004347582677641904,0.00961171379507932
1668680539.847662,25760,1668680539,847491940,,-0.09503494263197981,-0.6143199122743164,0.0912419388216664,0.9955612142861303,0.09352316416404009,-0.0043475796755682115,0.009611707696155988
1668680539.8562162,25761,1668680539,856030492,,-0.09483996638009638,-0.6142215547287401,0.091315663600012,0.9955612143600804,0.09352316413643998,-0.004347576709406026,0.009611701646763376
1668680539.8636029,25762,1668680539,863408378,,-0.09464092931844544,-0.6141219902990913,0.09139096904390254,0.9955612144333649,0.0935231641091831,-0.004347573779029946,0.009611695646791658
1668680539.8718994,25763,1668680539,871750363,,-0.09443825488395795,-0.6140212416561177,0.09146809711199767,0.9955612145060014,0.09352316408227304,-0.004347570883660792,0.009611689694695117
1668680539.879643,25764,1668680539,879500756,,-0.09423233863634543,-0.6139193287227148,0.09154702428616525,0.9955612145780085,0.09352316405571225,-0.004347568022520724,0.009611683788933281
1668680539.8877451,25765,1668680539,887595030,,-0.09402352770238774,-0.6138162695462301,0.09162801865647505,0.9955612146494022,0.09352316402950389,-0.004347565194892513,0.00961167792810163
1668680539.8957934,25766,1668680539,895620622,,-0.09381213543955953,-0.6137120797454244,0.09171120580571744,0.9955612147201972,0.09352316400365003,-0.0043475624001350415,0.009611672110964862
1668680539.9034894,25767,1668680539,903336489,,-0.0935981116077338,-0.6136067727939061,0.09179645675629548,0.9955612147903913,0.09352316397815158,-0.004347559638263112,0.009611666337732885
1668680539.9117858,25768,1668680539,911675781,,-0.09338142267083212,-0.6135003602212294,0.09188349331406563,0.9955612148599661,0.09352316395300797,-0.0043475569099280685,0.009611660610017265
1668680539.9199584,25769,1668680539,919816627,,-0.09316149594200324,-0.6133928519265855,0.09197176899262238,0.9955612149288946,0.09352316392821816,-0.004347554216121754,0.009611654930180801
1668680539.927658,25770,1668680539,927539014,,-0.09293732778303904,-0.6132842559343089,0.09206065390206393,0.9955612149970822,0.09352316390377452,-0.00434755156050159,0.009611649306450436
1668680539.9357846,25771,1668680539,935684462,,-0.09270828827800671,-0.6131745791710608,0.09214970228300053,0.9955612150644733,0.09352316387967413,-0.004347548945172678,0.009611643743638772
1668680539.9434235,25772,1668680539,943234626,,-0.09247377127312145,-0.6130638272061086,0.09223884331022215,0.9955612151310054,0.09352316385591228,-0.004347546372527063,0.009611638247189079
1668680539.9517105,25773,1668680539,951579125,,-0.0922338424904777,-0.6129520047027999,0.09232810977645019,0.9955612151966569,0.09352316383248829,-0.004347543843354972,0.009611632819018784
1668680539.959668,25774,1668680539,959559183,,-0.09198881150503022,-0.6128391155853997,0.09241743019910309,0.9955612152614477,0.09352316380940526,-0.004347541356786835,0.009611627457391692
1668680539.9679,25775,1668680539,967729869,,-0.09173865851017153,-0.6127251624852292,0.09250694389477468,0.9955612153253656,0.0935231637866625,-0.004347538913238353,0.009611622163403036
1668680539.975408,25776,1668680539,975255604,,-0.09148347778552789,-0.6126101471357456,0.09259677276653122,0.9955612153884029,0.0935231637642608,-0.0043475365129402544,0.009611616937741435
1668680539.983976,25777,1668680539,983708873,,-0.09122367507748888,-0.6124940706544332,0.09268682319794527,0.9955612154505801,0.09352316374220258,-0.004347534155021048,0.009611611778667808
1668680539.9918964,25778,1668680539,991701235,,-0.0909593781362026,-0.6123769333055188,0.09277716504776516,0.9955612155119116,0.09352316372048994,-0.0043475318388325876,0.009611606684937424
1668680540.0002122,25779,1668680539,999930688,,-0.09069073612923047,-0.6122587344011485,0.0928680823677166,0.9955612155723884,0.09352316369912293,-0.004347529564657348,0.009611601657357527
1668680540.0077195,25780,1668680540,7622469,,-0.09041832295510674,-0.6121394730178289,0.09295968732868178,0.9955612156320572,0.09352316367810613,-0.004347527330597389,0.009611596691931292
1668680540.0153916,25781,1668680540,15262121,,-0.09014275645667988,-0.6120191476492151,0.09305200089402,0.9955612156909674,0.09352316365744362,-0.004347525134627745,0.009611591784385615
1668680540.0237284,25782,1668680540,23586147,,-0.08986459531586605,-0.6118977562452004,0.09314492437777061,0.9955612157491721,0.0935231636371404,-0.0043475229745996635,0.009611586930178398
1668680540.0317285,25783,1668680540,31632541,,-0.08958386438761247,-0.611775189500142,0.0932384526556566,0.995561215806684,0.09352316361719756,-0.004347520849928835,0.009611582128220632
1668680540.0399334,25784,1668680540,39816807,,-0.0893003880221844,-0.6116512903545834,0.09333270009905151,0.9955612158634807,0.09352316359761365,-0.004347518761417165,0.00961157738048313
1668680540.047762,25785,1668680540,47661038,,-0.0890140412808231,-0.6115257130067489,0.09342770558207149,0.995561215919559,0.09352316357838854,-0.004347516709123403,0.009611572687296876
1668680540.055526,25786,1668680540,55372397,,-0.08872472941283091,-0.6113980318445703,0.09352346838370823,0.9955612159749149,0.09352316355952223,-0.004347514693115553,0.00961156804901534
1668680540.063736,25787,1668680540,63601627,,-0.08843271492475098,-0.6112681641180089,0.09361982522955976,0.9955612160295697,0.09352316354101654,-0.004347512712489318,0.009611563463849468
1668680540.0719225,25788,1668680540,71736260,,-0.0881380960694781,-0.6111358646369919,0.09371686414234678,0.9955612160835456,0.09352316352287314,-0.0043475107662859225,0.009611558929892076
1668680540.0797052,25789,1668680540,79512660,,-0.08784069772933838,-0.611000918604032,0.0938146441897388,0.99556121613683,0.09352316350509098,-0.004347508854927201,0.009611554448284279
1668680540.0877397,25790,1668680540,87536274,,-0.08754054819005921,-0.6108634685852948,0.09391288261227854,0.9955612161894126,0.09352316348766915,-0.00434750697874102,0.009611550019959853
1668680540.0955257,25791,1668680540,95374271,,-0.08723796770067709,-0.6107236925237538,0.09401127458132287,0.9955612162413121,0.09352316347060902,-0.004347505136906589,0.009611545643320769
1668680540.1038172,25792,1668680540,103644147,,-0.08693339476648891,-0.610581752291559,0.09410955006479543,0.9955612162925671,0.0935231634539128,-0.00434750332783675,0.009611541315080647
1668680540.1117246,25793,1668680540,111537412,,-0.08662726033553073,-0.6104378293839556,0.09420725063199689,0.9955612163432142,0.09352316343758306,-0.004347501550018084,0.009611537032119501
1668680540.1198232,25794,1668680540,119631811,,-0.08631998679390157,-0.6102921357243722,0.09430380963744334,0.9955612163932892,0.09352316342162154,-0.004347499801950069,0.009611532791350212
1668680540.1282609,25795,1668680540,127985227,,-0.08601177641785603,-0.6101447936711418,0.09439885835936224,0.9955612164428133,0.09352316340602923,-0.0043474980827318465,0.009611528591013873
1668680540.1363583,25796,1668680540,136171923,,-0.08570271546605371,-0.6099958777681942,0.09449213974328004,0.9955612164917882,0.09352316339080548,-0.00434749639220251,0.009611524430986486
1668680540.1434197,25797,1668680540,143305919,,-0.08539276623023186,-0.609845339565419,0.09458389691233415,0.9955612165402146,0.09352316337594982,-0.0043474947302538395,0.009611520311261343
1668680540.1517572,25798,1668680540,151643258,,-0.08508196643209491,-0.6096931297203025,0.09467442271378397,0.9955612165880882,0.0935231633614608,-0.0043474930969749125,0.009611516232269345
1668680540.15975,25799,1668680540,159540891,,-0.08476999120785275,-0.609539077541764,0.09476414710559622,0.9955612166353969,0.0935231633473372,-0.004347491492741836,0.009611512195074695
1668680540.1676505,25800,1668680540,167523762,,-0.08445621760430759,-0.6093829035088593,0.0948537376099162,0.9955612166820706,0.09352316333357334,-0.004347489920233106,0.009611508205822301
1668680540.175715,25801,1668680540,175619156,,-0.08414034015867497,-0.6092243614236743,0.09494366309384117,0.9955612167280813,0.09352316332016682,-0.004347488380452597,0.009611504266957156
1668680540.183365,25802,1668680540,183226474,,-0.08382206667862531,-0.6090632309762086,0.09503438203941654,0.9955612167734029,0.09352316330711577,-0.004347486874332087,0.009611500380763825
1668680540.191698,25803,1668680540,191601550,,-0.08350147217805771,-0.6088995345297911,0.09512595037088248,0.9955612168180299,0.09352316329441841,-0.0043474854020242705,0.009611496547805985
1668680540.1997209,25804,1668680540,199611141,,-0.0831787858975794,-0.6087333508318931,0.0952182783083857,0.995561216861989,0.09352316328207595,-0.004347483962387587,0.009611492765790937
1668680540.2077463,25805,1668680540,207612019,,-0.08285410860662966,-0.6085648277748975,0.09531124711480667,0.9955612169052834,0.09352316327008761,-0.004347482555209193,0.009611489034479536
1668680540.2153432,25806,1668680540,215237556,,-0.08252765101261145,-0.6083942053821869,0.09540456982406023,0.9955612169479245,0.09352316325845332,-0.004347481179972832,0.009611485352962888
1668680540.2239122,25807,1668680540,223774665,,-0.08219971937128838,-0.6082216328545256,0.09549801590262634,0.9955612169899374,0.09352316324717337,-0.004347479835599269,0.00961148171909204
1668680540.2318435,25808,1668680540,231709168,,-0.08186998218066789,-0.608047904434508,0.09559072836462355,0.995561217031288,0.09352316323624475,-0.004347478523349967,0.009611478135886439
1668680540.2398124,25809,1668680540,239642713,,-0.08153747282534339,-0.6078741330938688,0.0956811397163929,0.9955612170718144,0.0935231632256574,-0.004347477249464021,0.009611474617354503
1668680540.248143,25810,1668680540,247965445,,-0.08120162632758852,-0.6077008486691234,0.09576806041826216,0.995561217111412,0.093523163215405,-0.004347476017968506,0.009611471172606637
1668680540.2554529,25811,1668680540,255307827,,-0.08086250291765638,-0.6075282604614766,0.09585122268435238,0.9955612171500637,0.09352316320548579,-0.004347474829453033,0.009611467803155735
1668680540.263741,25812,1668680540,263616952,,-0.08052051225153842,-0.6073563550950847,0.09593080044087851,0.995561217187811,0.09352316319590151,-0.00434747368221775,0.009611464505456493
1668680540.2721934,25813,1668680540,272034484,,-0.08017550425125236,-0.6071848332343008,0.09600749350968409,0.9955612172246671,0.09352316318665238,-0.00434747257565942,0.009611461278388389
1668680540.2803557,25814,1668680540,280043371,,-0.07982701714989061,-0.6070133228036457,0.09608225452127513,0.9955612172605753,0.09352316317773461,-0.0043474715119248735,0.009611458126907207
1668680540.2888613,25815,1668680540,288615550,,-0.07947497384508123,-0.6068413839064856,0.09615581784654409,0.9955612172955352,0.09352316316914772,-0.004347470490960141,0.009611455051101805
1668680540.2960181,25816,1668680540,295896851,,-0.07911949055802182,-0.6066685571661613,0.09622878471307143,0.9955612173295729,0.09352316316089217,-0.004347469511658582,0.009611452048735933
1668680540.304253,25817,1668680540,304136469,,-0.07876094889241707,-0.606494689507982,0.09630128346088024,0.9955612173627371,0.09352316315296995,-0.004347468572044255,0.009611449115654177
1668680540.312495,25818,1668680540,312337973,,-0.07839959997085756,-0.6063193019287314,0.09637361937351399,0.9955612173950827,0.09352316314538278,-0.00434746766989188,0.009611446247155932
1668680540.3206203,25819,1668680540,320502028,,-0.07803489911349805,-0.6061418066124981,0.09644612280537117,0.9955612174265895,0.09352316313812852,-0.004347466805917586,0.009611443445042642
1668680540.328526,25820,1668680540,328322268,,-0.0776661834183572,-0.6059620683060007,0.09651871264734023,0.9955612174571569,0.09352316313120188,-0.004347465983973947,0.009611440718045098
1668680540.3357677,25821,1668680540,335587014,,-0.07729291683096345,-0.6057803143185303,0.09659118914972137,0.9955612174867164,0.09352316312459885,-0.004347465206647525,0.009611438072085993
1668680540.3445892,25822,1668680540,344449380,,-0.07691502384002043,-0.6055968329527838,0.09666334274143937,0.9955612175152053,0.09352316311831634,-0.004347464476332409,0.009611435512656459
1668680540.3525398,25823,1668680540,352408298,,-0.0765319134804428,-0.6054117202417518,0.09673522049817408,0.9955612175425897,0.09352316311235229,-0.004347463794267854,0.009611433042686256
1668680540.360776,25824,1668680540,360601337,,-0.07614239516805792,-0.6052250816714712,0.09680695303211898,0.9955612175686619,0.09352316310669744,-0.004347463168516443,0.00961143068018367
1668680540.367793,25825,1668680540,367646348,,-0.07574580050402617,-0.6050366364143944,0.0968788037002792,0.9955612175933283,0.09352316310134844,-0.004347462602655484,0.009611428433220576
1668680540.3755472,25826,1668680540,375269162,,-0.07534174673112853,-0.6048459240694499,0.09695108986720691,0.9955612176165229,0.09352316309630286,-0.0043474620992011445,0.009611426307511552
1668680540.3841772,25827,1668680540,383994706,,-0.07493071102826732,-0.6046528692839704,0.09702379665311274,0.9955612176382871,0.09352316309156306,-0.00434746165648998,0.00961142429952157
1668680540.391824,25828,1668680540,391650339,,-0.07451304674898458,-0.604457028563323,0.09709733412076006,0.9955612176587013,0.09352316308713285,-0.004347461271320785,0.009611422402315174
1668680540.3997068,25829,1668680540,399609169,,-0.07408834349174603,-0.6042578291606696,0.09717216219517145,0.9955612176777364,0.09352316308301142,-0.004347460944781218,0.00961142061844766
1668680540.4076993,25830,1668680540,407531855,,-0.07365636918833808,-0.6040552224895331,0.09724816113157113,0.9955612176953283,0.0935231630791969,-0.004347460679307686,0.00961141895345161
1668680540.4159327,25831,1668680540,415816782,,-0.07321725061237534,-0.6038494187437726,0.09732506817375557,0.9955612177114784,0.0935231630756903,-0.004347460474802116,0.009611417407243732
1668680540.4238276,25832,1668680540,423669078,,-0.07277151000173873,-0.6036407021925707,0.09740259427265108,0.9955612177262213,0.09352316307249339,-0.0043474603298507344,0.009611415976829225
1668680540.432083,25833,1668680540,431847358,,-0.07232010826989022,-0.6034298684399642,0.09748072831634332,0.9955612177396747,0.09352316306961085,-0.004347460239818351,0.009611414652086883
1668680540.4401538,25834,1668680540,440002222,,-0.07186396662254141,-0.6032179765129245,0.09755956013932247,0.9955612177519291,0.09352316306704553,-0.004347460201117539,0.009611413425226558
1668680540.4479961,25835,1668680540,447859989,,-0.07140339905051976,-0.603004966537189,0.09763936553267703,0.9955612177630541,0.0935231630647998,-0.004347460210979898,0.009611412290278381
1668680540.4557579,25836,1668680540,455619683,,-0.07093841407305801,-0.6027902333021236,0.09772049801300824,0.9955612177730702,0.09352316306287436,-0.004347460268539441,0.009611411245489965
1668680540.4634337,25837,1668680540,463328705,,-0.07046901136052473,-0.602572215373804,0.09780441963922618,0.9955612177820518,0.09352316306127104,-0.0043474603708463355,0.009611410284499043
1668680540.4717412,25838,1668680540,471608370,,-0.06999545597007885,-0.6023497027864892,0.09789226756943141,0.995561217790106,0.09352316305999202,-0.004347460513655951,0.009611409398086685
1668680540.4802232,25839,1668680540,480085897,,-0.06951800971915505,-0.6021213730285419,0.09798511312571616,0.9955612177973506,0.0935231630590398,-0.004347460692312882,0.00961140857613857
1668680540.4877937,25840,1668680540,487631746,,-0.06903666158645672,-0.6018851524024966,0.09808475603841105,0.9955612178038976,0.0935231630584158,-0.004347460902376774,0.009611407809032734
1668680540.4956698,25841,1668680540,495487384,,-0.0685517483109463,-0.6016401967714493,0.09819197475250208,0.995561217809853,0.09352316305812097,-0.004347461139659409,0.009611407087719648
1668680540.503463,25842,1668680540,503339666,,-0.0680637298578545,-0.6013860517984932,0.09830748902933245,0.9955612178153234,0.09352316305815576,-0.004347461399913372,0.009611406403033379
1668680540.5118406,25843,1668680540,511732962,,-0.06757317950801955,-0.6011229031576666,0.09843125748050986,0.9955612178204063,0.09352316305851972,-0.0043474616792593575,0.009611405746638473
1668680540.5197024,25844,1668680540,519584565,,-0.06708067933173427,-0.6008511951942708,0.09856282845729382,0.9955612178251811,0.09352316305921186,-0.004347461974520189,0.009611405111767404
1668680540.5276704,25845,1668680540,527527905,,-0.06658667821250944,-0.6005712428284867,0.09870208060726751,0.995561217829717,0.09352316306023067,-0.004347462282909312,0.0096114044925278
1668680540.5356808,25846,1668680540,535557875,,-0.06609160307140656,-0.6002835909357995,0.09884860804764611,0.9955612178340592,0.09352316306157388,-0.004347462602572595,0.009611403885100907
1668680540.543503,25847,1668680540,543390674,,-0.06559575870469245,-0.5999891396520027,0.09900194089101941,0.9955612178382268,0.09352316306323864,-0.004347462932662455,0.009611403287901563
1668680540.5519004,25848,1668680540,551693580,,-0.06509947089664464,-0.5996887855399055,0.09916146852217125,0.9955612178422131,0.09352316306522133,-0.004347463273354754,0.009611402701612143
1668680540.5597985,25849,1668680540,559628868,,-0.06460264038253556,-0.5993836334892136,0.09932562461564394,0.9955612178459843,0.09352316306751894,-0.004347463625848496,0.009611402129174733
1668680540.567995,25850,1668680540,567823631,,-0.06410486936833824,-0.5990749963881319,0.0994925529256368,0.9955612178493745,0.0935231630701262,-0.004347463996523896,0.009611401584995363
1668680540.5762885,25851,1668680540,576067123,,-0.06360632865492687,-0.5987636887474959,0.0996609981848465,0.9955612178523519,0.09352316307304034,-0.004347464386512418,0.009611401071837566
1668680540.5840912,25852,1668680540,583834396,,-0.06310737311316751,-0.5984494556311039,0.09983073565441902,0.9955612178549856,0.09352316307625932,-0.004347464793039423,0.009611400583814163
1668680540.591787,25853,1668680540,591683682,,-0.06260836343316842,-0.5981319174205365,0.10000185774544852,0.9955612178573713,0.09352316307978097,-0.004347465212313456,0.0096114001127959
1668680540.5998826,25854,1668680540,599747524,,-0.062109678848292334,-0.5978110699355615,0.1001741991014663,0.995561217859576,0.09352316308360267,-0.004347465641623781,0.009611399653059963
1668680540.607834,25855,1668680540,607723943,,-0.06161186529719622,-0.5974862644384166,0.10034843684559856,0.9955612178617144,0.09352316308772139,-0.0043474660764174534,0.009611399194815963
1668680540.6153793,25856,1668680540,615211419,,-0.06111558238305645,-0.5971569424189394,0.10052534930722436,0.9955612178639479,0.09352316309213411,-0.00434746651031938,0.00961139872425607
1668680540.6236103,25857,1668680540,623464516,,-0.06062123184500183,-0.5968232447545565,0.10070481624785048,0.995561217866352,0.09352316309683671,-0.004347466940297391,0.00961139823499423
1668680540.6317232,25858,1668680540,631556185,,-0.06012897409850495,-0.5964847116143106,0.10088697971669787,0.9955612178689641,0.09352316310182464,-0.004347467364779838,0.009611397723887846
1668680540.6397786,25859,1668680540,639647297,,-0.059639039329381804,-0.5961399831806242,0.10107279085474145,0.9955612178718797,0.09352316310709305,-0.00434746777994894,0.009611397182827911
1668680540.647915,25860,1668680540,647739419,,-0.059151777193865177,-0.5957882597211381,0.10126285972283099,0.9955612178752048,0.09352316311263713,-0.004347468181567764,0.009611396602790036
1668680540.6555343,25861,1668680540,655379634,,-0.0586675752443044,-0.5954294128942748,0.10145720471501507,0.9955612178789992,0.09352316311845117,-0.0043474685672051224,0.009611395978760342
1668680540.663658,25862,1668680540,663485214,,-0.05818673375563759,-0.5950638342522021,0.10165539637535342,0.9955612178832982,0.09352316312452992,-0.004347468935360059,0.00961139530778969
1668680540.6718504,25863,1668680540,671703624,,-0.057710027675990254,-0.5946930575047517,0.10185619705635529,0.9955612178881192,0.09352316313086763,-0.004347469285237525,0.009611394588495185
1668680540.6797757,25864,1668680540,679677718,,-0.05723851362763575,-0.5943189388538584,0.10205817565526025,0.9955612178935489,0.0935231631374582,-0.004347469613350197,0.009611393813535667
1668680540.6875966,25865,1668680540,687466718,,-0.056771971299080036,-0.5939431994954533,0.10225926568343828,0.9955612178995069,0.0935231631442966,-0.004347469922697055,0.009611392989928493
1668680540.6958005,25866,1668680540,695653186,,-0.05630956346686724,-0.5935674250199153,0.10245717230971885,0.995561217905744,0.09352316315138012,-0.0043474702228407,0.009611392139201787
1668680540.7036896,25867,1668680540,703542508,,-0.0558517778218525,-0.5931925736524103,0.10265078510697778,0.9955612179122278,0.09352316315870446,-0.004347470514918395,0.009611391264206435
1668680540.7119136,25868,1668680540,711788948,,-0.055399319113879804,-0.5928190891890988,0.10283977028348516,0.9955612179190841,0.09352316316626337,-0.004347470793955673,0.009611390354260238
1668680540.720162,25869,1668680540,720022177,,-0.054952759697302074,-0.592447467812857,0.10302367199923873,0.9955612179263402,0.09352316317405122,-0.004347471058777695,0.009611389407105637
1668680540.7280886,25870,1668680540,727937178,,-0.054512980432627596,-0.5920783808579855,0.1032018438660356,0.9955612179341093,0.09352316318206197,-0.0043474713048734775,0.009611388413104128
1668680540.7360787,25871,1668680540,735932548,,-0.05408059753434075,-0.5917122299537994,0.10337401453131377,0.9955612179424466,0.09352316319028928,-0.004347471529995046,0.009611387367636913
1668680540.7433305,25872,1668680540,743220333,,-0.05365545783022032,-0.5913482362026388,0.10354053540822994,0.9955612179513723,0.09352316319872724,-0.004347471733236319,0.00961138626905665
