Time,header.seq,header.stamp.secs,header.stamp.nsecs,header.frame_id,twist.linear.x,twist.linear.y,twist.linear.z,twist.angular.x,twist.angular.y,twist.angular.z
1668680538.2324412,25558,1668680538,232262761,,-1.6972631941387615e-05,1.6223242033521018e-09,-1.1169478459743496e-10,-1.7262441196187198e-06,1.3252957395302305e-07,3.514484462417808e-09
1668680538.2404413,25559,1668680538,240333580,,-1.5717360012400004e-05,1.5855054594029686e-09,-1.0863774605631987e-10,-1.6839951640572005e-06,1.1509215144798628e-07,3.2969214033610973e-09
1668680538.248365,25560,1668680538,248174091,,-1.453026750182929e-05,1.5485193249145735e-09,-1.0561271161276425e-10,-1.6418659453427258e-06,9.777838515500574e-08,3.080663016494982e-09
1668680538.2558248,25561,1668680538,255706341,,-1.3408308974712002e-05,1.5114462794464821e-09,-1.0262249073385292e-10,-1.5998609056961403e-06,8.058950958509095e-08,2.865726623446722e-09
1668680538.2645457,25562,1668680538,264442075,,-1.234855114309588e-05,1.4743612536141298e-09,-9.966975752748837e-11,-1.5579844362063478e-06,6.352673348384337e-08,2.6521292441710983e-09
1668680538.272074,25563,1668680538,271922129,,-1.134816979120391e-05,1.437333776274944e-09,-9.675695891689406e-11,-1.5162408766614536e-06,4.659123988287127e-08,2.4398875965065694e-09
1668680538.2806058,25564,1668680538,280466456,,-1.0404446728160093e-05,1.400428278209216e-09,-9.388622694045547e-11,-1.4746345154094072e-06,2.9784186150333403e-08,2.2290180911066243e-09
1668680538.288593,25565,1668680538,288438498,,-9.514766772700356e-06,1.3637041563535243e-09,-9.105947279126159e-11,-1.433169589211931e-06,1.3106704046354511e-08,2.019536825918823e-09
1668680538.296151,25566,1668680538,295993976,,-8.676614772555462e-06,1.3272163017390055e-09,-8.827847694332644e-11,-1.3918502831113744e-06,-3.440100224915863e-09,1.811459592578201e-09
1668680538.3040316,25567,1668680538,303845594,,-7.887572662326343e-06,1.2910150683410255e-09,-8.5544770348583e-11,-1.3506807303054378e-06,-1.9855145947910003e-08,1.604801888811219e-09
1668680538.3117824,25568,1668680538,311665320,,-7.145316562189209e-06,1.25514660331149e-09,-8.285979564266131e-11,-1.3096650120190932e-06,-3.613737783688755e-08,1.3995788976834566e-09
1668680538.319844,25569,1668680538,319727839,,-6.447613919967717e-06,1.219652934565217e-09,-8.022468261592507e-11,-1.268807157413713e-06,-5.2285765963699577e-08,1.1958054981553364e-09
1668680538.3279507,25570,1668680538,327745720,,-5.792320699022742e-06,1.1845724371979138e-09,-7.764046612209457e-11,-1.2281111434706069e-06,-6.829930569925295e-08,9.93496269984751e-10
1668680538.3355062,25571,1668680538,335372716,,-5.177378613670169e-06,1.1499397174552746e-09,-7.510801635671158e-11,-1.1875808949025748e-06,-8.417701763200538e-08,7.926654909369362e-10
1668680538.3436387,25572,1668680538,343475193,,-4.600812413871359e-06,1.11578611044616e-09,-7.262803987049347e-11,-1.147220284048488e-06,-9.991794749950322e-08,5.933271287291878e-10
1668680538.3528411,25573,1668680538,352660010,,-4.060727220565377e-06,1.0821396746520132e-09,-7.020113878997121e-11,-1.107033130813392e-06,-1.1552116611495774e-07,3.9549485647481347e-10
1668680538.363353,25574,1668680538,363079033,,-3.555305913319895e-06,1.0490253530159657e-09,-6.782776276978326e-11,-1.0670232025857214e-06,-1.3098576927917e-07,1.9918204286856157e-10
1668680538.3677616,25575,1668680538,367571606,,-3.082806570649304e-06,1.0164652870895272e-09,-6.550819911266897e-11,-1.0271942141810468e-06,-1.4631087769954455e-07,4.4017615192306096e-12
1668680538.3757765,25576,1668680538,375613869,,-2.6415599644978943e-06,9.84478943372833e-10,-6.324268355508619e-11,-9.875498277619801e-07,-1.6149563691499793e-07,-1.8883322384714954e-10
1668680538.3834965,25577,1668680538,383396420,,-2.2299671091539477e-06,9.530831488624562e-10,-6.103130039458385e-11,-9.480936528121911e-07,-1.7653921719742843e-07,-3.805104461041469e-10
1668680538.3916366,25578,1668680538,391445920,,-1.846496865318387e-06,9.222923440832684e-10,-5.887404810468499e-11,-9.088292460707728e-07,-1.9144081346847813e-07,-5.706177297901135e-10
1668680538.3997602,25579,1668680538,399614611,,-1.489683599672132e-06,8.921188170896133e-10,-5.677084161947972e-11,-8.697601115141266e-07,-2.0619964520345444e-07,-7.591432005945308e-10
1668680538.40769,25580,1668680538,407585406,,-1.1581249000807666e-06,8.625727829783847e-10,-5.472150082577945e-11,-8.308897003127253e-07,-2.2081495634515577e-07,-9.46075274790003e-10
1668680538.4154305,25581,1668680538,415289175,,-8.504793468070599e-07,8.336623485569278e-10,-5.272575716418546e-11,-7.922214108088875e-07,-2.352860151952828e-07,-1.131402677331234e-09
1668680538.423916,25582,1668680538,423771182,,-5.654643392201253e-07,8.05393864017816e-10,-5.078328714734054e-11,-7.537585885105541e-07,-2.496121143215641e-07,-1.3151144176328492e-09
1668680538.4321554,25583,1668680538,432022400,,-3.0185397838641807e-07,7.777720009507739e-10,-4.8893637186741236e-11,-7.155045260773833e-07,-2.6379257045545154e-07,-1.4971998045317033e-09
1668680538.439839,25584,1668680538,439698662,,-5.847700514753587e-08,7.507997975075453e-10,-4.7056390607824774e-11,-6.774624633057564e-07,-2.778267243919241e-07,-1.6776484349366918e-09
1668680538.4476693,25585,1668680538,447531411,,1.65785206753882e-07,7.244788101598797e-10,-4.5270962060892166e-11,-6.396355871582636e-07,-2.917139408740461e-07,-1.8564502087316273e-09
1668680538.4553318,25586,1668680538,455193564,,3.720006028182259e-07,6.98809308708128e-10,-4.353677458381618e-11,-6.020270317604088e-07,-3.054536084921985e-07,-2.0335953087309e-09
1668680538.4641342,25587,1668680538,463925393,,5.611883456187605e-07,6.737901825158931e-10,-4.1853196698777314e-11,-5.646398784157309e-07,-3.190451395677259e-07,-2.2090742017172375e-09
1668680538.4720392,25588,1668680538,471897945,,7.343206588024462e-07,6.494193201566388e-10,-4.02195496133325e-11,-5.274771556343532e-07,-3.3248797004818535e-07,-2.382877658443185e-09
1668680538.4795613,25589,1668680538,479416142,,8.923246182932705e-07,6.256933569097912e-10,-3.8635103619007686e-11,-4.905418391669514e-07,-3.45781559385239e-07,-2.5549967261100976e-09
1668680538.4875958,25590,1668680538,487432560,,1.0360838906170982e-06,6.026080177732261e-10,-3.709916379505099e-11,-4.5383685203699047e-07,-3.5892539042060724e-07,-2.7254227398598687e-09
1668680538.4960935,25591,1668680538,495934611,,1.166440419775757e-06,5.801581049249146e-10,-3.561087856074094e-11,-4.1736506459519663e-07,-3.719189692614996e-07,-2.8941473202159914e-09
1668680538.5035498,25592,1668680538,503300731,,1.284196063104426e-06,5.583376507947223e-10,-3.416943315102158e-11,-3.811292945612654e-07,-3.8476182516680515e-07,-3.0611623747150497e-09
1668680538.5125985,25593,1668680538,512128737,,1.3901141768880656e-06,5.371398949580363e-10,-3.277400179926127e-11,-3.451323070793236e-07,-3.9745351042199147e-07,-3.2264600956144353e-09
1668680538.5202355,25594,1668680538,520044054,,1.484921152727767e-06,5.165574000470522e-10,-3.142371062277684e-11,-3.093768147871408e-07,-4.0999360021479487e-07,-3.3900329524318935e-09
1668680538.528143,25595,1668680538,527916708,,1.5693079052435297e-06,4.965820765209743e-10,-3.01176787908724e-11,-2.7386547788236656e-07,-4.223816925014937e-07,-3.5518736937844313e-09
1668680538.5353534,25596,1668680538,535166618,,1.6439313123716528e-06,4.772053973166596e-10,-2.885498456518234e-11,-2.3860090420870207e-07,-4.346174078810915e-07,-3.7119753550702714e-09
1668680538.5437312,25597,1668680538,543615594,,1.7094156091063364e-06,4.584181575359302e-10,-2.7634729898251708e-11,-2.0358564931733592e-07,-4.4670038947126963e-07,-3.870331236630225e-09
1668680538.5517442,25598,1668680538,551521564,,1.76635373510091e-06,4.4021085579860587e-10,-2.6455956167239108e-11,-1.6882221656630856e-07,-4.586303027672922e-07,-4.026934935182355e-09
1668680538.5598824,25599,1668680538,559707767,,1.8153086380679219e-06,4.2257355250709134e-10,-2.5317771987391343e-11,-1.3431305721882264e-07,-4.704068355080461e-07,-4.181780303252062e-09
1668680538.567795,25600,1668680538,567672575,,1.8568145328732183e-06,4.0549606809963326e-10,-2.4219193644387434e-11,-1.0006057053259216e-07,-4.82029697541036e-07,-4.334861480678324e-09
1668680538.5757103,25601,1668680538,575554698,,1.8913781181541173e-06,3.88967837077758e-10,-2.315933708451533e-11,-6.606710387226064e-08,-4.934986206891273e-07,-4.486172868497126e-09
1668680538.583297,25602,1668680538,583158599,,1.9194797508450234e-06,3.729781023345873e-10,-2.2137231836536108e-11,-3.233495281450753e-08,-5.048133586019202e-07,-4.63570914408387e-09
1668680538.5920796,25603,1668680538,591920155,,1.9415745800616e-06,3.575158202916365e-10,-2.1151916749385727e-11,1.1336387234824245e-09,-5.159736866209237e-07,-4.783465255972923e-09
1668680538.5997226,25604,1668680538,599561430,,1.9580936409701947e-06,3.425697653452273e-10,-2.0202473334419475e-11,3.4336478369723056e-08,-5.269794016328004e-07,-4.92943642510614e-09
1668680538.6077237,25605,1668680538,607502079,,1.969444909930837e-06,3.281287355477518e-10,-1.928790931164933e-11,6.727142516293617e-08,-5.378303219201186e-07,-5.073618132276027e-09
1668680538.615458,25606,1668680538,615277578,,1.9760143216268306e-06,3.141813312742648e-10,-1.8407362881794195e-11,9.993638943853995e-08,-5.48526287031015e-07,-5.216006122877594e-09
1668680538.6238713,25607,1668680538,623677102,,1.9781667493467943e-06,3.007159706643057e-10,-1.755985266057425e-11,1.3232933265166798e-07,-5.590671576098862e-07,-5.356596402926456e-09
1668680538.631834,25608,1668680538,631624485,,1.976246949423293e-06,2.8772120502105046e-10,-1.674453012343389e-11,1.644482672730349e-07,-5.694528152657036e-07,-5.495385246307312e-09
1668680538.6397798,25609,1668680538,639643061,,1.9705804705978925e-06,2.7518554364073956e-10,-1.5960439636756418e-11,1.9629125660978092e-07,-5.796831624087164e-07,-5.632369182267086e-09
1668680538.6481075,25610,1668680538,647922662,,1.9614745295854882e-06,2.6309742958246573e-10,-1.5206687797437242e-11,2.2785641466371074e-07,-5.897581221058545e-07,-5.767545009169469e-09
1668680538.6555643,25611,1668680538,655378845,,1.9492188534990816e-06,2.514452995407785e-10,-1.4482366542754033e-11,2.591419059622737e-07,-5.996776379173216e-07,-5.90090976647549e-09
1668680538.6642413,25612,1668680538,664111555,,1.9340864901949495e-06,2.402177484603592e-10,-1.3786612452227018e-11,2.9014594540043837e-07,-6.094416737514908e-07,-6.0324607585870756e-09
1668680538.6715262,25613,1668680538,671371757,,1.91633458767081e-06,2.2940337988738204e-10,-1.3118538123636413e-11,3.208667980599641e-07,-6.190502137031533e-07,-6.162195544349765e-09
1668680538.6797996,25614,1668680538,679692067,,1.896205143007992e-06,2.1899088731637672e-10,-1.2477316188444964e-11,3.513027790496719e-07,-6.285032619021934e-07,-6.290111933313911e-09
1668680538.6876924,25615,1668680538,687476664,,1.8739257222127913e-06,2.0896907430352935e-10,-1.1862112890944238e-11,3.8145225330203806e-07,-6.378008423397385e-07,-6.4162079778936936e-09
1668680538.6953595,25616,1668680538,695181815,,1.8497101514851027e-06,1.993268182362811e-10,-1.1272071472298893e-11,4.1131363540231534e-07,-6.469429987209689e-07,-6.5404819891575076e-09
1668680538.7038012,25617,1668680538,703547929,,1.8237591811188458e-06,1.900532286477924e-10,-1.0706382436268266e-11,4.4088538939115307e-07,-6.559297942951648e-07,-6.662932513163982e-09
1668680538.711674,25618,1668680538,711453418,,1.7962611226734798e-06,1.811374369969291e-10,-1.0164317401988527e-11,4.7016602858163373e-07,-6.647613116984269e-07,-6.783558353789517e-09
1668680538.7196624,25619,1668680538,719521555,,0.00022204411932859883,4.993688074369908e-10,-1.8413825945235496e-11,4.991473315271305e-07,-6.734323669945768e-07,-6.902359203674654e-09
1668680538.7275543,25620,1668680538,727438067,,0.0005409837331774095,2.5313347844814176e-09,-7.181718541005721e-11,5.277852465800908e-07,-6.819297501005774e-07,-7.01933791072331e-09
1668680538.7356548,25621,1668680538,735526421,,0.0006750446619115121,3.881363373562125e-09,-1.0518026463466079e-10,5.561411620190604e-07,-6.90279146080388e-07,-7.134488578044995e-09
1668680538.7438116,25622,1668680538,743630412,,0.00079718131538072,5.293308001270117e-09,-1.3967970081206224e-10,5.841956074752703e-07,-6.984721495136584e-07,-7.2478125623560985e-09
1668680538.7524574,25623,1668680538,752156009,,0.0008241775866640774,5.28820403310842e-09,-1.3544273648402264e-10,6.119892675831072e-07,-7.065246833686988e-07,-7.359306295005169e-09
1668680538.7599065,25624,1668680538,759782857,,-0.00032311859304579987,-0.00046544448474937006,0.0012143615982956948,6.397647004566537e-07,-7.145358423185114e-07,-7.468949230306828e-09
1668680538.7676895,25625,1668680538,767562526,,-0.002515885956741721,-0.0007991580444582745,0.0036479044178850764,6.659195832483156e-07,-7.219582631468204e-07,-7.576876052354381e-09
1668680538.7754781,25626,1668680538,775241259,,-0.005132000122010948,-0.0010550101738160433,0.006578939797882657,6.88309692303612e-07,-7.280456834986206e-07,-7.683271483448217e-09
1668680538.7839706,25627,1668680538,783847406,,-0.007531249957655915,-0.0012882797775018277,0.009265478066981029,7.075251471404866e-07,-7.329903209899054e-07,-7.788101072034315e-09
1668680538.7920134,25628,1668680538,791786000,,-0.009968360535133884,-0.001348497200671828,0.012342271981688769,7.229118609488477e-07,-7.365732714088467e-07,-7.8914463783053e-09
1668680538.8002944,25629,1668680538,800012064,,-0.011764294742894987,-0.0013209269092734443,0.015217263524108182,7.385695490265718e-07,-7.401923302340378e-07,-7.992974063869562e-09
1668680538.8081229,25630,1668680538,807930430,,-0.013168203698316979,-0.0012504086670003327,0.017869781531098014,7.548293646272137e-07,-7.439660309043481e-07,-8.092660697817111e-09
1668680538.8159719,25631,1668680538,815841141,,-0.013873256773383162,-0.001160846942904947,0.019876235074759954,7.750658146571691e-07,-7.490492353972016e-07,-8.19017787964671e-09
1668680538.8234975,25632,1668680538,823299654,,-0.01419800099956497,-0.001064415037979021,0.02147260303511265,7.977480666992965e-07,-7.549209183676056e-07,-8.285639459260086e-09
1668680538.8316882,25633,1668680538,831552591,,-0.01446908806087155,-0.0009735504729770612,0.02290046131017798,8.205255411010165e-07,-7.607788208220017e-07,-8.379264501007233e-09
1668680538.8396802,25634,1668680538,839562169,,-0.013964143422828217,-0.0008823801241004862,0.02343625475929498,8.492613549774327e-07,-7.686250858289132e-07,-8.470412048849907e-09
1668680538.8479826,25635,1668680538,847865217,,-0.013087452181722114,-0.000793828345543962,0.02332851263059244,8.803695132534965e-07,-7.772331498190951e-07,-8.559417688513982e-09
1668680538.8556306,25636,1668680538,855451764,,-0.012051001011740226,-0.0007091685550936903,0.02288968051685336,9.118364941098245e-07,-7.859146723948455e-07,-8.646491418684565e-09
1668680538.8636546,25637,1668680538,863510375,,-0.011072680388914643,-0.0006297628229127554,0.022440374163362416,9.419892051847414e-07,-7.94099500649344e-07,-8.731832947667106e-09
1668680538.871654,25638,1668680538,871485075,,-0.010042293322885792,-0.0005545135292049502,0.021866609521533204,9.715750875425027e-07,-8.020431795171417e-07,-8.815366844480699e-09
1668680538.8798726,25639,1668680538,879753405,,-0.009016543624892015,-0.0004833985315903623,0.021645827245836226,1.0002033661792676e-06,-8.096133775241181e-07,-8.897150877151816e-09
1668680538.8877277,25640,1668680538,887612788,,-0.008023925284699326,-0.0004165718775078185,0.02158535947776396,1.0277495585238398e-06,-8.167688325701997e-07,-8.977212593089257e-09
1668680538.8955493,25641,1668680538,895408641,,-0.00728259346589738,-0.0002934118568019413,0.02188657314751574,1.0532591660853801e-06,-8.231881414767382e-07,-9.055687344092234e-09
1668680538.903421,25642,1668680538,903260306,,-0.006685260318796754,-0.00014722604901896164,0.02233217074143433,1.077556770729459e-06,-8.291531322570799e-07,-9.132482874096848e-09
1668680538.9124095,25643,1668680538,912217568,,-0.00612195625698485,-1.2327590380301262e-05,0.02269849673033515,1.1012427076386024e-06,-8.348680618849456e-07,-9.207529294563699e-09
1668680538.919643,25644,1668680538,919539387,,-0.0058356920040412725,8.143955952465835e-05,0.023320043550570567,1.1235573536622691e-06,-8.400785434034964e-07,-9.280935636332699e-09
1668680538.9280174,25645,1668680538,927876640,,-0.005555516094134058,0.00013867005037907057,0.023998236770309777,1.145536169895161e-06,-8.451344979440553e-07,-9.352570603388122e-09
1668680538.9356282,25646,1668680538,935510813,,-0.005283904575405231,0.00017575650970917033,0.02465579211364406,1.1671502577255302e-06,-8.500268421143538e-07,-9.422443245782341e-09
1668680538.9436526,25647,1668680538,943428488,,-0.005004334076082395,0.00020140525735641272,0.025232336449049392,1.1884406855468203e-06,-8.547699694620248e-07,-9.490553218305386e-09
1668680538.9517307,25648,1668680538,951621414,,-0.004737000904023887,0.00022458070710973345,0.025713538614273456,1.2093357265701555e-06,-8.593404926536031e-07,-9.55691599816011e-09
1668680538.9607627,25649,1668680538,960533504,,-0.0042270469211452095,0.00024091250237012128,0.025802449865741366,1.2305177592551476e-06,-8.639664398537444e-07,-9.621440508894574e-09
1668680538.9682677,25650,1668680538,968119077,,-0.0036144550107622244,0.0002530604902374882,0.02567282729427357,1.2514655125643468e-06,-8.684729720711144e-07,-9.684205133121682e-09
1668680538.9764826,25651,1668680538,976360879,,-0.002971948837237076,0.0002624152994687723,0.025327198602829497,1.2719330633383056e-06,-8.727782083730554e-07,-9.745251348079742e-09
1668680538.9833882,25652,1668680538,983209312,,-0.002336661953465813,0.0002698758130311229,0.02496032070115852,1.2918305760300367e-06,-8.768530033773878e-07,-9.804599075766834e-09
1668680538.9917412,25653,1668680538,991528036,,-0.0017469661329028118,0.0002762165885245025,0.024573195309406454,1.3111215675116875e-06,-8.806866436567875e-07,-9.862260711215876e-09
1668680538.999677,25654,1668680538,999557375,,-0.0011804805144263665,0.0002811766203478345,0.024168935892556056,1.3298739696762877e-06,-8.843025085776836e-07,-9.91823343680226e-09
1668680539.0076969,25655,1668680539,7507886,,-0.000679050637185907,0.0002850837463381339,0.023863454503366813,1.3480887174876795e-06,-8.877028777341414e-07,-9.972524038547384e-09
1668680539.01533,25656,1668680539,15223298,,-0.00022792841121389994,0.0002880565949019436,0.02359560985680486,1.3658286283359644e-06,-8.909095924205166e-07,-1.002513027106855e-08
1668680539.0235403,25657,1668680539,23435457,,0.00018799396979632123,0.00029021835950596186,0.023302382824389532,1.38313518768502e-06,-8.939371221423107e-07,-1.0076053026555724e-08
1668680539.0317457,25658,1668680539,31519942,,0.0005975731085026873,0.00029161575299127166,0.02304931009758896,1.4000295216822977e-06,-8.9679247781799e-07,-1.012529628858453e-08
1668680539.0397973,25659,1668680539,39678808,,0.0009878007865063766,0.00039485026584502,0.022653840756184672,1.4165372608179483e-06,-8.994866739957904e-07,-1.017286337719886e-08
1668680539.0479653,25660,1668680539,47749216,,0.0013527549603647756,0.0005432261202580202,0.022183117223119254,1.4326853233502922e-06,-9.020291793135259e-07,-1.0218757651473884e-08
1668680539.0553923,25661,1668680539,55245451,,0.0016901756406172803,0.0007047283714537321,0.021657897120595786,1.4484901839720434e-06,-9.044260167773803e-07,-1.0262984154792848e-08
1668680539.0638294,25662,1668680539,63584094,,0.0019976038975480994,0.000852090551189033,0.02113146304642676,1.4639618116767975e-06,-9.066810221401239e-07,-1.0305549053880869e-08
1668680539.0718315,25663,1668680539,71710577,,0.002278904416099329,0.0009926391309581198,0.020576059483699206,1.4791106534796692e-06,-9.087983792794072e-07,-1.0346458602632919e-08
1668680539.0802007,25664,1668680539,79830486,,0.00253459860699249,0.0011234473072404573,0.02000871965274969,1.4939451023127158e-06,-9.107815535605064e-07,-1.0385719533944487e-08
1668680539.0882375,25665,1668680539,87891196,,0.0027657303584297708,0.0012433224098161164,0.019722199289383176,1.508471983053877e-06,-9.126334704465973e-07,-1.0423338968855445e-08
1668680539.096011,25666,1668680539,95887480,,0.002973479040960338,0.0013521305117028732,0.01956515751290134,1.5226970072655335e-06,-9.143566770817755e-07,-1.0459324357135757e-08
1668680539.1042962,25667,1668680539,104195185,,0.0031589441011906257,0.0014496635712660645,0.01938193174043668,1.5366247873344112e-06,-9.159533412453569e-07,-1.0493683471647641e-08
1668680539.1124341,25668,1668680539,112274182,,0.0030553669877523624,0.0014449711263250255,0.019391981122701216,1.5506159442071074e-06,-9.175561755780367e-07,-1.0526373194104377e-08
1668680539.1205714,25669,1668680539,120362378,,0.0025370572871974326,0.0013894605729078326,0.019854347486661744,1.5648206774997708e-06,-9.192225802728392e-07,-1.055738152499e-08
1668680539.128461,25670,1668680539,128313586,,0.0018344266209201763,0.0013101965575748622,0.020501013700859057,1.5787342044510838e-06,-9.207720922860182e-07,-1.0586789794212598e-08
1668680539.136499,25671,1668680539,136313871,,0.0011984094825225502,0.0012216000777541894,0.021153418054890207,1.5920365663654812e-06,-9.220866807470382e-07,-1.0614652258501486e-08
1668680539.1434033,25672,1668680539,143286036,,0.0006856108483572059,0.0011313007993066194,0.02172611306452897,1.6047922739449645e-06,-9.231871295629331e-07,-1.0640968638891447e-08
1668680539.1519573,25673,1668680539,151733189,,0.00021332380758905402,0.0010471550792406764,0.022210689240393596,1.6171093135692694e-06,-9.241141488369959e-07,-1.0665732732851587e-08
1668680539.1605608,25674,1668680539,160185495,,-0.00018097490729509691,0.0009654082352812917,0.022620321711721934,1.6290289853821376e-06,-9.248810982560387e-07,-1.068894818782775e-08
1668680539.1688662,25675,1668680539,168585160,,-0.00040104607284264317,0.0008096052960582106,0.022882356218515393,1.6406523288381553e-06,-9.255187901398575e-07,-1.0710610555365527e-08
1668680539.1760511,25676,1668680539,175922362,,-0.0005260267906510673,0.0006243379143104589,0.023041208204174282,1.6520056013313702e-06,-9.260402285290694e-07,-1.073072565852505e-08
1668680539.184561,25677,1668680539,184422636,,-0.0006371867008047432,0.00045519580211484436,0.023142043743936826,1.663059064143451e-06,-9.264393166610906e-07,-1.074930733031658e-08
1668680539.1926131,25678,1668680539,192403271,,-0.0006725074083569822,0.0002558896243666158,0.023139594131302153,1.6738517799500388e-06,-9.267271709059763e-07,-1.0766360104006237e-08
1668680539.2001052,25679,1668680539,199870220,,-0.0006034716308160758,-6.455392216699106e-05,0.023007001098625763,1.684404745988418e-06,-9.269093186861218e-07,-1.078189112979893e-08
1668680539.2083595,25680,1668680539,208136505,,-0.00048353653560101613,-0.0004296655420080934,0.022794692642484966,1.6946573305481418e-06,-9.26968458505059e-07,-1.0795919018458631e-08
1668680539.2163107,25681,1668680539,216143858,,-0.00040454812066429525,-0.0008218712084344293,0.022629280260489885,1.7045724906507893e-06,-9.268961051368883e-07,-1.0808459160804385e-08
1668680539.224043,25682,1668680539,223876214,,-0.0005596658839756469,-0.0012794192557167418,0.022734873040667486,1.7141550285678275e-06,-9.267012851820967e-07,-1.081952098419092e-08
1668680539.2327073,25683,1668680539,232546729,,-0.000696179301541059,-0.0016933718396185625,0.02278725129241003,1.723442349485848e-06,-9.263893486723299e-07,-1.082911005399062e-08
1668680539.2406406,25684,1668680539,240459524,,-0.000938449364470918,-0.0021205234503994404,0.02295053526130837,1.7324260268534449e-06,-9.259619471127098e-07,-1.0837238017245322e-08
1668680539.248075,25685,1668680539,247833183,,-0.001241512505422768,-0.0026123217945154416,0.02323237453450316,1.7411052146484382e-06,-9.254169656600065e-07,-1.0843915838193441e-08
1668680539.2555969,25686,1668680539,255475737,,-0.0015580994059664385,-0.0031112671172437187,0.023539672033502677,1.7494800641255147e-06,-9.247539855888923e-07,-1.0849154380323904e-08
1668680539.2639432,25687,1668680539,263820395,,-0.0018398032387975521,-0.0035582766019867586,0.02377622605222448,1.7575586275145825e-06,-9.239752702854639e-07,-1.0852963495239752e-08
1668680539.2715502,25688,1668680539,271436686,,-0.002042047381059567,-0.003934306879265092,0.024010290559862316,1.7653606874416094e-06,-9.23086710681056e-07,-1.0855351481641254e-08
1668680539.2797291,25689,1668680539,279529023,,-0.0021122727553625196,-0.004250089334941358,0.024211389043122825,1.7729167183033584e-06,-9.220971476617673e-07,-1.085632522182696e-08
1668680539.2878618,25690,1668680539,287679493,,-0.0021095899207005412,-0.004516847833007328,0.02436620448835995,1.7802042632433672e-06,-9.210015553010033e-07,-1.0855899051551675e-08
1668680539.29561,25691,1668680539,295381757,,-0.002023724730734252,-0.004760871024035393,0.024451076160523198,1.787220852601668e-06,-9.19798873269158e-07,-1.085408468431883e-08
1668680539.3038065,25692,1668680539,303600514,,-0.0019319093433919781,-0.004968010533274497,0.024480989595567847,1.7939349822811331e-06,-9.184820408398381e-07,-1.0850897919230905e-08
1668680539.311624,25693,1668680539,311472590,,-0.0018144016336689957,-0.005093494134056252,0.024488162613487043,1.8003504528304826e-06,-9.170527567668377e-07,-1.0846349742948968e-08
1668680539.3199322,25694,1668680539,319810237,,-0.0016825421337663437,-0.005164746081456258,0.02446134080302425,1.8064696969243503e-06,-9.155124718997188e-07,-1.0840451419554323e-08
1668680539.3283043,25695,1668680539,328192643,,-0.0014840195218369595,-0.004973938746647991,0.02446680547111805,1.8122978702464494e-06,-9.138643167062794e-07,-1.0833213858634817e-08
1668680539.335349,25696,1668680539,335216237,,-0.001254252219213169,-0.004653245669878276,0.0244650612967259,1.817840470936091e-06,-9.121102859440454e-07,-1.0824648078821934e-08
1668680539.343568,25697,1668680539,343471461,,-0.0010294775583462093,-0.004338655936537089,0.024415183698369744,1.8230992116080699e-06,-9.102510478751218e-07,-1.0814765702871383e-08
1668680539.3516755,25698,1668680539,351415591,,-0.0005850358814436542,-0.0038900915865186843,0.024383956974050713,1.8280161412361089e-06,-9.08260237890196e-07,-1.0803587253320826e-08
1668680539.3598764,25699,1668680539,359706895,,-4.440438869376702e-05,-0.0032887843645970256,0.024426786958987107,1.832589411314188e-06,-9.06142945996546e-07,-1.0791124736841962e-08
1668680539.3675673,25700,1668680539,367436275,,0.0005282418936660456,-0.0026275674494992958,0.024481365324235782,1.8368212405969269e-06,-9.03901728581745e-07,-1.0777389779659946e-08
1668680539.3759377,25701,1668680539,375701738,,0.0011000413186231,-0.0019073327334525728,0.02445423220779838,1.8407380750171966e-06,-9.015475032474139e-07,-1.0762390628433344e-08
1668680539.3839753,25702,1668680539,383652842,,0.0016546977108031489,-0.0013210634354895584,0.024350010200191997,1.8442961017087764e-06,-8.990636705128515e-07,-1.0746145688144554e-08
1668680539.392144,25703,1668680539,391846279,,0.002175282088105705,-0.0007662413072312231,0.024205986235199747,1.8475504607965237e-06,-8.96471825240634e-07,-1.0728659200192475e-08
1668680539.4001455,25704,1668680539,399933550,,0.0026731498640361544,-0.000290167527310465,0.024009189947204718,1.8504740045883275e-06,-8.937620244827733e-07,-1.07099472302849e-08
1668680539.4076905,25705,1668680539,407578662,,0.0031451173443581724,0.00013589266667125404,0.023742491030238254,1.853088720945796e-06,-8.909428686106204e-07,-1.0690018894393694e-08
1668680539.4153106,25706,1668680539,415168588,,0.0035903756373643152,0.0005276505091051438,0.023429889473305352,1.8554132153228816e-06,-8.880215102396977e-07,-1.0668883894393577e-08
1668680539.4238107,25707,1668680539,423618785,,0.004007945969954881,0.0009011525692081309,0.023095773551581135,1.8574708057286036e-06,-8.850067281074942e-07,-1.0646551393961312e-08
1668680539.4316142,25708,1668680539,431461400,,0.004400952775378374,0.0012501887424237127,0.022710803899575128,1.859262203856382e-06,-8.818990465519209e-07,-1.062303379029822e-08
1668680539.4400482,25709,1668680539,439860621,,0.004770294138654827,0.0015797701728221657,0.022238034982216437,1.860798776828609e-06,-8.787028972416597e-07,-1.0598342096296287e-08
1668680539.4479172,25710,1668680539,447745664,,0.005117164926553799,0.0018929841286956977,0.021719926825891248,1.8620894538793863e-06,-8.754218307297239e-07,-1.057248774812003e-08
1668680539.4560194,25711,1668680539,455822864,,0.005442864362057919,0.002191833733695487,0.02116411233195416,1.8631413130441578e-06,-8.720587379622085e-07,-1.0545482512398785e-08
1668680539.4638624,25712,1668680539,463685854,,0.00574861372526051,0.0024783262117894344,0.020610475319064472,1.8639608628360054e-06,-8.686163136052455e-07,-1.0517338328366876e-08
1668680539.472002,25713,1668680539,471822202,,0.006035885778771539,0.002752680206475473,0.020084851476288374,1.8645514062573117e-06,-8.650961114855908e-07,-1.0488067626185371e-08
1668680539.4799614,25714,1668680539,479805732,,0.006305907493058555,0.003015938509596618,0.019574339899700564,1.864916842380934e-06,-8.614999082667504e-07,-1.0457682827341719e-08
1668680539.48815,25715,1668680539,488025706,,0.0066515280017457705,0.0032689751160277026,0.019080579379690876,1.8647779012929359e-06,-8.577284627385039e-07,-1.0426232609911379e-08
1668680539.4953752,25716,1668680539,495242070,,0.007023581762659825,0.00351252937824458,0.01859608406736907,1.864266012397095e-06,-8.538294134938457e-07,-1.0393712073300532e-08
1668680539.5037904,25717,1668680539,503601570,,0.007370838365479735,0.0037473087374660405,0.01811319480434367,1.8635458641707512e-06,-8.498618967793211e-07,-1.0360112942878197e-08
1668680539.5116591,25718,1668680539,511555777,,0.007896152668876848,0.004015765119528272,0.017647405508450682,1.8619529670558003e-06,-8.455904375532564e-07,-1.0325529965771185e-08
1668680539.5206563,25719,1668680539,520528704,,0.008552219917420877,0.004416048457243328,0.01726387806280206,1.8596961437741469e-06,-8.410905582250771e-07,-1.0289947244973563e-08
1668680539.5288043,25720,1668680539,528407464,,0.009248374634193984,0.00486981568333012,0.016919124079001514,1.8569740078920176e-06,-8.364335020150907e-07,-1.0253351277397793e-08
1668680539.5360243,25721,1668680539,535695361,,0.00995148842680341,0.005370186762442031,0.016605048899418936,1.8539095797514676e-06,-8.316632041353465e-07,-1.0215738758395654e-08
1668680539.5434487,25722,1668680539,543263086,,0.010575751122650759,0.0057865187646472995,0.016274676529717244,1.850707669568972e-06,-8.268520696137001e-07,-1.0177097961236448e-08
1668680539.5526264,25723,1668680539,552493339,,0.011150599209159399,0.006178115387553431,0.015938315169284623,1.8473669539085955e-06,-8.219997086841326e-07,-1.0137442231147875e-08
1668680539.55977,25724,1668680539,559553243,,0.011666581377871188,0.006518698853183262,0.01559259763038611,1.8439215593163145e-06,-8.171182731872128e-07,-1.0096781114313225e-08
1668680539.5675552,25725,1668680539,567419703,,0.011928955407546174,0.006720961330250647,0.01522167418956356,1.8413045588395988e-06,-8.125353476752528e-07,-1.0055028381097952e-08
1668680539.5755568,25726,1668680539,575384179,,0.012057133395226708,0.006851765546282363,0.01483853912614053,1.8390573298628424e-06,-8.08089969048199e-07,-1.001225329207156e-08
1668680539.5839746,25727,1668680539,583855472,,0.012173714298459046,0.006979746106063551,0.014456409701648418,1.8366471226036863e-06,-8.035956002897492e-07,-9.968528006526478e-09
1668680539.5917544,25728,1668680539,591647639,,0.012138655075409316,0.0070097378663815275,0.01401812261453454,1.8346756965552228e-06,-7.992636747415497e-07,-9.923806646230937e-09
1668680539.6014388,25729,1668680539,599690121,,0.012030902394660516,0.006416279089294603,0.013449503816693286,1.831676456540146e-06,-7.945803102008594e-07,-9.878249112790782e-09
1668680539.607608,25730,1668680539,607505014,,0.011891929535984684,0.005546539750528541,0.01282665549719376,1.8280920164590785e-06,-7.897011258651654e-07,-9.831820652755896e-09
1668680539.615804,25731,1668680539,615688768,,0.011690525500887254,0.004430167243241895,0.012162946045971741,1.8241517432336483e-06,-7.847069705495236e-07,-9.784510590638007e-09
1668680539.6239097,25732,1668680539,623740710,,0.011444610676238445,0.0032436978275758414,0.011546249901064797,1.8201097487298586e-06,-7.796872715970147e-07,-9.736308547586559e-09
1668680539.632397,25733,1668680539,632261783,,0.01122016647376004,0.0021678008924206956,0.010955429989317153,1.8159551087643442e-06,-7.746385523184872e-07,-9.68722956018464e-09
1668680539.6404934,25734,1668680539,640284627,,0.01098370626908513,0.0011047314524116323,0.010399354170079634,1.8116905484326856e-06,-7.695621206307152e-07,-9.63728747152559e-09
1668680539.6487057,25735,1668680539,648555074,,0.010827890215208252,0.00027000656291327317,0.009924203134622285,1.8072123570548514e-06,-7.644220380847587e-07,-9.586504565867182e-09
1668680539.6560793,25736,1668680539,655946638,,0.010719606894810222,-0.0004103465551530043,0.00949737174623571,1.8025680103958601e-06,-7.592352822081289e-07,-9.534890359902404e-09
1668680539.6647477,25737,1668680539,664601201,,0.01062488048371464,-0.00101147855040166,0.00908550460522538,1.7978099915525733e-06,-7.540205674767039e-07,-9.482454581960509e-09
1668680539.6724846,25738,1668680539,672174125,,0.010560714234534804,-0.000883551796966196,0.008708562033909389,1.7942616934878467e-06,-7.492410643152405e-07,-9.429118333348363e-09
1668680539.6805472,25739,1668680539,680281794,,0.011069814071653077,-0.0003921540518622976,0.008531071058891147,1.7876841448716832e-06,-7.434148323144847e-07,-9.375192483451755e-09
1668680539.6880095,25740,1668680539,687720986,,0.011841475088400309,0.000270231104541018,0.008449643107346782,1.7795139244792646e-06,-7.370451098459834e-07,-9.320571859455784e-09
1668680539.695446,25741,1668680539,695333496,,0.012718286555435106,0.0011020511387263554,0.008583613704091402,1.7706829113024638e-06,-7.304583854141544e-07,-9.265198722824275e-09
1668680539.7036533,25742,1668680539,703512933,,0.013528799162318191,0.0018924231324537282,0.00869005207768872,1.761871074753207e-06,-7.238923278101664e-07,-9.209041283014807e-09
1668680539.711861,25743,1668680539,711569249,,0.014412018428998448,0.003025623010784993,0.009117950857779104,1.7530827423402231e-06,-7.173485154610246e-07,-9.152113445570764e-09
1668680539.719683,25744,1668680539,719564166,,0.015297451632956385,0.004293169199201627,0.009677458517906086,1.7443427226360804e-06,-7.108357202857923e-07,-9.094428325001624e-09
1668680539.7278476,25745,1668680539,727739427,,0.016128230865982047,0.005621721902802678,0.010296459487522313,1.7359408982355951e-06,-7.044550432602054e-07,-9.035987427047365e-09
1668680539.7358932,25746,1668680539,735651118,,0.016899706911377682,0.006937182991600397,0.010911229659870552,1.7277506636232266e-06,-6.981625572133354e-07,-8.97681454864463e-09
1668680539.743656,25747,1668680539,743498527,,0.017569246146995475,0.008017805561820128,0.011437819983487835,1.7195134516561532e-06,-6.918685161086792e-07,-8.916936803521347e-09
1668680539.7518473,25748,1668680539,751660399,,0.01818160636587299,0.009025819927787523,0.011900232205282149,1.711340206327083e-06,-6.856117894453819e-07,-8.85636462777395e-09
1668680539.7598743,25749,1668680539,759718943,,0.018778046045277927,0.009660706192554842,0.01198151015735653,1.70196613764187e-06,-6.789528442451248e-07,-8.79515128782149e-09
1668680539.7687547,25750,1668680539,768280867,,0.01934101533067213,0.010094508855222463,0.011862947612564576,1.6920314562390046e-06,-6.721146555204935e-07,-8.7332797313322e-09
1668680539.7756307,25751,1668680539,775482676,,0.019911229356716527,0.010418523070160524,0.011563012181800461,1.6814300465482171e-06,-6.650606861918111e-07,-8.670759162748842e-09
1668680539.7839816,25752,1668680539,783829871,,0.020429016895275726,0.010726415969366406,0.011263976773140364,1.67101823145071e-06,-6.580886834019369e-07,-8.607580592734365e-09
1668680539.7918036,25753,1668680539,791599927,,0.0208271405039214,0.010974060932398447,0.01089528474043803,1.661342393469991e-06,-6.513885489944698e-07,-8.54375434289345e-09
1668680539.7999103,25754,1668680539,799684586,,0.021148054589587757,0.011187353436772785,0.010496609610610252,1.6521212148831732e-06,-6.448628423028719e-07,-8.479307304909423e-09
1668680539.8078737,25755,1668680539,807764416,,0.021584873455995066,0.01138027264704834,0.010110414660816486,1.641471413382973e-06,-6.378582494161438e-07,-8.414264823092266e-09
1668680539.8156629,25756,1668680539,815508988,,0.022057260736953143,0.011560318249563255,0.009735734462484786,1.6301919106702129e-06,-6.30652258361091e-07,-8.348622591858312e-09
1668680539.8238964,25757,1668680539,823707810,,0.022482621592047416,0.011735153070320112,0.009371460377921722,1.619168977718766e-06,-6.235525221935222e-07,-8.28239208813808e-09
1668680539.8323352,25758,1668680539,832073511,,0.023005438796660727,0.01190174433459029,0.00911305342936801,1.6068479349262916e-06,-6.160202028470405e-07,-8.21557123720229e-09
1668680539.840824,25759,1668680539,840665392,,0.023560405429226175,0.012062421466606861,0.009076694439533675,1.5938996575982933e-06,-6.082881238018674e-07,-8.148165628329984e-09
1668680539.8476756,25760,1668680539,847491940,,0.024104590242917546,0.012218533330317518,0.00914148906088236,1.5807992084368385e-06,-6.005211262952344e-07,-8.080189749931632e-09
1668680539.8562298,25761,1668680539,856030492,,0.02463941269477434,0.012370952448068412,0.00928966330744785,1.56754389539764e-06,-5.927184702532321e-07,-8.011654228923248e-09
1668680539.8636122,25762,1668680539,863408378,,0.025119798672566977,0.012520251935389292,0.009536652370003538,1.5546898076467864e-06,-5.850729296947221e-07,-7.94258910724599e-09
1668680539.8719106,25763,1668680539,871750363,,0.025548759584257633,0.012666996940592562,0.009745322182124209,1.5422425873068434e-06,-5.77586671705009e-07,-7.873014941373047e-09
1668680539.8796525,25764,1668680539,879500756,,0.025930256632540772,0.01281131943800437,0.009986428532311256,1.5301868616403042e-06,-5.702546196825189e-07,-7.802951784707801e-09
1668680539.8877542,25765,1668680539,887595030,,0.02627243529157592,0.01295355397359962,0.010262120544198975,1.5184478291011894e-06,-5.630511524490041e-07,-7.732416582029167e-09
1668680539.8958035,25766,1668680539,895620622,,0.026575592411994725,0.013093969672852711,0.01053462427659916,1.5070430765211482e-06,-5.559826322746588e-07,-7.661430094507704e-09
1668680539.9034984,25767,1668680539,903336489,,0.026930321542349697,0.013232850402884943,0.010778070698977604,1.4948099950893895e-06,-5.486470893892965e-07,-7.589936908136696e-09
1668680539.911802,25768,1668680539,911675781,,0.027241871904830014,0.013370365923676387,0.010981028864914977,1.4829832361207469e-06,-5.414717509414323e-07,-7.518023439900823e-09
1668680539.9199688,25769,1668680539,919816627,,0.027739747958288444,0.013506810601480594,0.011087850160146866,1.4685025298600304e-06,-5.333984189823116e-07,-7.445473536316083e-09
1668680539.9276872,25770,1668680539,927539014,,0.02830222058232338,0.013642300666061032,0.011133337504514333,1.4529218674473815e-06,-5.249643624074315e-07,-7.372379810799412e-09
1668680539.935794,25771,1668680539,935684462,,0.028957572583750448,0.013777020561752956,0.011128717723797189,1.4357920858084445e-06,-5.160143635100489e-07,-7.2986919910644765e-09
1668680539.9434545,25772,1668680539,943234626,,0.029671588609588424,0.013911117630019131,0.011156495768273253,1.4175223809063573e-06,-5.066898537852598e-07,-7.224429929286735e-09
1668680539.9517198,25773,1668680539,951579125,,0.030310523274731133,0.014044641954141592,0.011160080493449182,1.400047884609235e-06,-4.976594785366861e-07,-7.14978283522516e-09
1668680539.9596791,25774,1668680539,959559183,,0.030947138442940697,0.014177773873126819,0.011169984439651462,1.382338048522573e-06,-4.885674143831516e-07,-7.074663001260806e-09
1668680539.9679048,25775,1668680539,967729869,,0.03159102412349297,0.014310643659276734,0.01120839689503403,1.3642492704842002e-06,-4.793641409062913e-07,-6.999058860257534e-09
1668680539.975431,25776,1668680539,975255604,,0.0322040731245239,0.014443332527541621,0.011248778959490018,1.3463873897588317e-06,-4.702589060258779e-07,-6.9230491409055794e-09
1668680539.983987,25777,1668680539,983708873,,0.03274652632134163,0.014575912240003814,0.01126378985062248,1.3294334094270002e-06,-4.6148696960525946e-07,-6.846740958910136e-09
1668680539.991901,25778,1668680539,991701235,,0.03332762676728799,0.014708562622170887,0.011321629978284292,1.3116351041702516e-06,-4.5244379925555266e-07,-6.769917335058828e-09
1668680540.0002275,25779,1668680539,999930688,,0.0338328010034371,0.014841287884372755,0.011407657747677956,1.2949045574067253e-06,-4.437892473334315e-07,-6.692856040213524e-09
1668680540.0077283,25780,1668680540,7622469,,0.034270425540457124,0.014974168651099247,0.01149354185618652,1.2791583624546321e-06,-4.3549492167104745e-07,-6.615580687430178e-09
1668680540.0154014,25781,1668680540,15262121,,0.03462114169903794,0.015107265739946946,0.011584810746419505,1.2647793246329912e-06,-4.2769332080539076e-07,-6.53819066942507e-09
1668680540.0237386,25782,1668680540,23586147,,0.03491909122160152,0.015240664286403775,0.011646024320776868,1.2512119931971043e-06,-4.201933888573362e-07,-6.460635006144688e-09
1668680540.0317373,25783,1668680540,31632541,,0.035263579470809304,0.015401115446525377,0.011736000675997931,1.2368746816530073e-06,-4.1244992818095707e-07,-6.382656826675603e-09
1668680540.0399654,25784,1668680540,39816807,,0.03560544854705259,0.015573765175980171,0.011825812960137797,1.222546912710645e-06,-4.047317479809664e-07,-6.304398308953907e-09
1668680540.0477734,25785,1668680540,47661038,,0.0359811588369786,0.01582067860585503,0.011925493324951394,1.2079473820518537e-06,-3.9694199595828854e-07,-6.225815432636672e-09
1668680540.055533,25786,1668680540,55372397,,0.036346725956211225,0.016099718129745595,0.012015136021810181,1.1936213630927878e-06,-3.892687877319256e-07,-6.147026977709746e-09
1668680540.063745,25787,1668680540,63601627,,0.03665682084475432,0.016367304854433204,0.012074009389453766,1.1801490218216692e-06,-3.819124334656244e-07,-6.0681780919558115e-09
1668680540.0719464,25788,1668680540,71736260,,0.03699780411999361,0.016707671543344002,0.012185632282265256,1.1664613446511025e-06,-3.7450479416722103e-07,-5.989061413469443e-09
1668680540.0797138,25789,1668680540,79512660,,0.0373516911425275,0.017028944079553167,0.012259297822834206,1.1523209247721409e-06,-3.669640989661504e-07,-5.909627329159228e-09
1668680540.0877495,25790,1668680540,87536274,,0.03768560711717722,0.017333661371420866,0.012300231293422677,1.1383635509523379e-06,-3.5950952038152177e-07,-5.8300306943204205e-09
1668680540.0955362,25791,1668680540,95374271,,0.03795943886152816,0.017610436602947168,0.012297694431924381,1.1252917559491935e-06,-3.523834472057494e-07,-5.750465797982329e-09
1668680540.1038265,25792,1668680540,103644147,,0.03818372570980291,0.01787469006329555,0.012271115203104345,1.113016757605409e-06,-3.4555576075893067e-07,-5.670945185665133e-09
1668680540.111737,25793,1668680540,111537412,,0.03834982342851694,0.018106084161297546,0.012153980089315994,1.1015861794326726e-06,-3.390433378094946e-07,-5.591515306324624e-09
1668680540.1198373,25794,1668680540,119631811,,0.03846851160620906,0.018317362461519698,0.011985734074839272,1.0908797877979843e-06,-3.328052297414154e-07,-5.512177617128522e-09
1668680540.128276,25795,1668680540,127985227,,0.03858403309396956,0.018518179556587668,0.011776414458286697,1.0801033638013335e-06,-3.2656816158064574e-07,-5.4327340404114466e-09
1668680540.136374,25796,1668680540,136171923,,0.03868115887811854,0.01871081917412079,0.011543903722038493,1.0695702784370756e-06,-3.2044024379437874e-07,-5.3532881322260195e-09
1668680540.1434307,25797,1668680540,143305919,,0.038806098754324794,0.018923767820464323,0.01139534946517231,1.0585629112797252e-06,-3.141744160113213e-07,-5.2736374295259125e-09
1668680540.1517677,25798,1668680540,151643258,,0.038893805690734896,0.01912871957058245,0.011236065553987165,1.0481739141467768e-06,-3.081471377406556e-07,-5.1941268924826645e-09
1668680540.1597621,25799,1668680540,159540891,,0.03909993275121973,0.019384391146975086,0.011194972913314333,1.035727708227044e-06,-3.014368426465519e-07,-5.1139122242416235e-09
1668680540.167661,25800,1668680540,167523762,,0.03934339262688615,0.01965919694833173,0.011202583972452216,1.022610781689756e-06,-2.945205340035631e-07,-5.033412645016888e-09
1668680540.1757274,25801,1668680540,175619156,,0.03962588199065377,0.019976420807537712,0.011278700713937571,1.0089355549389536e-06,-2.8743678506240253e-07,-4.95265894268071e-09
1668680540.1833813,25802,1668680540,183226474,,0.03994239416441185,0.020306300447491057,0.011400940718513448,9.946023859709499e-07,-2.801511470018874e-07,-4.87161062878716e-09
1668680540.1917078,25803,1668680540,191601550,,0.04020614638445417,0.020617904651845258,0.011491054658869602,9.81151509990585e-07,-2.731940400382306e-07,-4.790819338462704e-09
1668680540.1997306,25804,1668680540,199611141,,0.040465339461427795,0.020928113223194347,0.011590840979787683,9.677301308472133e-07,-2.6627216014952007e-07,-4.710002145247305e-09
1668680540.2077541,25805,1668680540,207612019,,0.040703905876840786,0.021202735577908787,0.011651283586468646,9.5444254347946e-07,-2.594215338469572e-07,-4.629209938988854e-09
1668680540.2153528,25806,1668680540,215237556,,0.04091042265372688,0.021452935915381832,0.01167932579316576,9.416021185355491e-07,-2.527502361991847e-07,-4.548579443652834e-09
1668680540.2239335,25807,1668680540,223774665,,0.0410724258512203,0.02169025543118393,0.011682132188278141,9.295489358866998e-07,-2.463756676250161e-07,-4.468270288493503e-09
1668680540.2318542,25808,1668680540,231709168,,0.041361811799774446,0.02174192541329422,0.011495979659023612,9.135757991263248e-07,-2.3867716452958924e-07,-4.386378114895617e-09
1668680540.2398314,25809,1668680540,239642713,,0.04176545843255003,0.021701004347262375,0.011106891026931234,8.945261411166046e-07,-2.2994361195335933e-07,-4.303152785489761e-09
1668680540.2481587,25810,1668680540,247965445,,0.04219609810621341,0.021620200351628722,0.010623334493255096,8.745336851231043e-07,-2.2090849238613243e-07,-4.219430915775035e-09
1668680540.255474,25811,1668680540,255307827,,0.0425846965084983,0.021526941356835035,0.010167284724455576,8.552547922393542e-07,-2.1214167760159365e-07,-4.13592159131948e-09
1668680540.2637577,25812,1668680540,263616952,,0.04291292072110123,0.0214494765876444,0.00972720412299053,8.373178967070651e-07,-2.0385978553145133e-07,-4.052936514176153e-09
1668680540.2722359,25813,1668680540,272034484,,0.04333900728289321,0.021431104226712183,0.009446082099684113,8.175739355393012e-07,-1.949794356617164e-07,-3.9690701350569846e-09
1668680540.2803729,25814,1668680540,280043371,,0.043782688679664936,0.021446630478318067,0.009244174576237196,7.975875935340771e-07,-1.86038391098136e-07,-3.885011159998619e-09
1668680540.2888663,25815,1668680540,288615550,,0.044228046456710086,0.02153823052480826,0.009146633143132969,7.780224231075856e-07,-1.772648850052825e-07,-3.801077896881111e-09
1668680540.2960265,25816,1668680540,295896851,,0.04464268279916075,0.021668587083326297,0.009095047462039938,7.593638852808728e-07,-1.6882613358758063e-07,-3.717528847257956e-09
1668680540.3042724,25817,1668680540,304136469,,0.04499265107902774,0.02179844115078121,0.009029606849060838,7.421366790184999e-07,-1.609030734798459e-07,-3.634663611751243e-09
1668680540.312504,25818,1668680540,312337973,,0.04534447662236703,0.02204857862861299,0.009054300609287923,7.257162683215411e-07,-1.532814883061038e-07,-3.5522137106780427e-09
1668680540.3206394,25819,1668680540,320502028,,0.04583060655174183,0.02232541957360646,0.00907147571567436,7.062831092343011e-07,-1.4464768757077584e-07,-3.4682043348333025e-09
1668680540.3285298,25820,1668680540,328322268,,0.046348177690532365,0.02260933806168705,0.00907590079295304,6.860755569379441e-07,-1.3577024326094818e-07,-3.38374293862298e-09
1668680540.335784,25821,1668680540,335587014,,0.04696832061731846,0.022829369584517815,0.009043156748731117,6.628030934876681e-07,-1.2586085564102005e-07,-3.2975529945522553e-09
1668680540.3446,25822,1668680540,344449380,,0.04750479280971554,0.023041157601524666,0.008995179110372453,6.413894149257708e-07,-1.1661147074305475e-07,-3.212287533194136e-09
1668680540.3525493,25823,1668680540,352408298,,0.04827262308289761,0.023237283339709543,0.008974191866596155,6.139696068405663e-07,-1.0531805915564574e-07,-3.123523439896303e-09
1668680540.3607857,25824,1668680540,360601337,,0.04910676889903223,0.02342264814953338,0.00895887336836486,5.845326504278132e-07,-9.334931650416267e-08,-3.0333746348087942e-09
1668680540.367805,25825,1668680540,367646348,,0.05004167545158472,0.023689000890780305,0.009003694604659353,5.528407494659955e-07,-8.062228940486013e-08,-2.9416244023972027e-09
1668680540.375556,25826,1668680540,375269162,,0.05097153704563801,0.0239894273397914,0.009067736451259748,5.212117660670476e-07,-6.793242837916172e-08,-2.8495915349591172e-09
1668680540.3841834,25827,1668680540,383994706,,0.051787178335013145,0.024274575513879012,0.009108858653545266,4.92219715416103e-07,-5.6164223716237416e-08,-2.7588659134991644e-09
1668680540.391829,25828,1668680540,391650339,,0.05262864853322976,0.024685936786466463,0.009275357796746535,4.63357558439805e-07,-4.445707729380799e-08,-2.667958090563083e-09
1668680540.3997252,25829,1668680540,399609169,,0.053546900130357344,0.02511428027569373,0.009431501959198504,4.322428450334419e-07,-3.19920273033486e-08,-2.5753325028077256e-09
1668680540.4077094,25830,1668680540,407531855,,0.05444640971379426,0.025537752551075415,0.009568075199629792,4.013274314409272e-07,-1.9610084427395397e-08,-2.482508296153263e-09
1668680540.4159422,25831,1668680540,415816782,,0.05533297591642724,0.025913545647987722,0.009658545572516991,3.700796421113447e-07,-7.128360280739612e-09,-2.3891296996314537e-09
1668680540.4238422,25832,1668680540,423669078,,0.05610194276806065,0.026265912585147273,0.009722851741537213,3.418379719818997e-07,4.306683121886243e-09,-2.297462969869102e-09
1668680540.4321017,25833,1668680540,431847358,,0.056748316793879525,0.02644279095882374,0.009810584807224014,3.1547310286566665e-07,1.508149595746272e-08,-2.2068376154260605e-09
1668680540.4401658,25834,1668680540,440002222,,0.05728696213507727,0.026530410783931833,0.00989732701983178,2.914299167859017e-07,2.504233627951581e-08,-2.117645586663386e-09
1668680540.4480085,25835,1668680540,447859989,,0.05785476796752143,0.026722326199688833,0.010053937759908,2.6739825562268303e-07,3.4981426933530096e-08,-2.028303885959204e-09
1668680540.4557664,25836,1668680540,455619683,,0.058391307791590095,0.0269612197066849,0.010229083341745047,2.447138453329353e-07,4.4440176775713616e-08,-1.9398013056948216e-09
1668680540.4634573,25837,1668680540,463328705,,0.05895911658836659,0.0275435502729047,0.010751079030070694,2.2429795665539123e-07,5.3101472453345386e-08,-1.8528910350479322e-09
1668680540.4717493,25838,1668680540,471608370,,0.059429504296417975,0.028084844464782082,0.011210678241892168,2.0653449086019925e-07,6.083209405996493e-08,-1.7679677721815779e-09
1668680540.4802325,25839,1668680540,480085897,,0.05993173926720366,0.028997900121631056,0.012000323035216467,1.913542210988219e-07,6.765410614909852e-08,-1.6850950634861306e-09
1668680540.4878023,25840,1668680540,487631746,,0.06040494674024575,0.030057573325887862,0.012909944269156426,1.7851276923515087e-07,7.364970696852047e-08,-1.6041941941491444e-09
1668680540.4956925,25841,1668680540,495487384,,0.06082302301958426,0.031181646065546235,0.013894229658428042,1.6805300761385793e-07,7.880258353254628e-08,-1.5254073559844983e-09
1668680540.503473,25842,1668680540,503339666,,0.06118124626017078,0.032354903434838114,0.014983790647052948,1.599808403990365e-07,8.310905138500697e-08,-1.4488495542197555e-09
1668680540.5118492,25843,1668680540,511732962,,0.06145603878494641,0.0334325233174249,0.015957808840107265,1.536385218375326e-07,8.679327374904247e-08,-1.3740765608671879e-09
1668680540.519711,25844,1668680540,519584565,,0.06166872395606069,0.03449471533147841,0.016934415592658226,1.49119150013601e-07,8.982206674409618e-08,-1.3012502880771493e-09
1668680540.5276797,25845,1668680540,527527905,,0.06183130329338511,0.03549360319532248,0.017878119529742144,1.4555620950131454e-07,9.249167106902337e-08,-1.2296997031757684e-09
1668680540.5356798,25846,1668680540,535557875,,0.061937261378912624,0.036419568683840386,0.018753266759193827,1.4306561690804066e-07,9.476164163427225e-08,-1.1595751026050038e-09
1668680540.5435126,25847,1668680540,543390674,,0.0620236492692624,0.03719343210242782,0.019579530903640077,1.3967810969547738e-07,9.730743039137492e-08,-1.0891498120058074e-09
1668680540.551906,25848,1668680540,551693580,,0.062048153322072315,0.03789523891830238,0.020302003129410513,1.3755827124920482e-07,9.938655014642486e-08,-1.0203755618221066e-09
1668680540.5598083,25849,1668680540,559628868,,0.06215933795293224,0.038392911300295936,0.02073676217496498,1.306274029999827e-07,1.0308534459033125e-07,-9.476427698107415e-10
1668680540.5680008,25850,1668680540,567823631,,0.06228329575293209,0.03876648002729009,0.020995131004211413,1.220932453144339e-07,1.0730605011109381e-07,-8.73781130783513e-10
1668680540.5763028,25851,1668680540,576067123,,0.062351790972673,0.03906050229051502,0.021116053450852552,1.1461615740228706e-07,1.1113649761996906e-07,-8.012827623637975e-10
1668680540.5841208,25852,1668680540,583834396,,0.062386983915526564,0.03949785542463815,0.02131811005681363,1.0961972448861323e-07,1.1408722546367434e-07,-7.31588747915346e-10
1668680540.591796,25853,1668680540,591683682,,0.06236535059320776,0.03988674186233804,0.021462238926865936,1.0600746293981406e-07,1.1653296459052109e-07,-6.637256577679551e-10
1668680540.5998936,25854,1668680540,599747524,,0.06230571150166588,0.04032516401576978,0.02162290202392922,1.0409551265844891e-07,1.1836424057684244e-07,-5.980766021318473e-10
1668680540.6078446,25855,1668680540,607723943,,0.062147603272909205,0.040876229616386914,0.02193626694350251,1.0641786254896729e-07,1.1870985448087477e-07,-5.373080730342039e-10
1668680540.6153975,25856,1668680540,615211419,,0.061923069778229096,0.04145427450338189,0.022291563212145888,1.1104708664178183e-07,1.1822850447761567e-07,-4.796138208806866e-10
1668680540.6236205,25857,1668680540,623464516,,0.06166453215344002,0.04197011433804098,0.0225749235889792,1.1605497455841746e-07,1.1758064905422784e-07,-4.2307260472718156e-10
1668680540.6317334,25858,1668680540,631556185,,0.06139984414446895,0.04266316957360501,0.022965594016443016,1.2276288129109414e-07,1.1631245472147611e-07,-3.69109839915005e-10
1668680540.6397877,25859,1668680540,639647297,,0.06108378026507979,0.04351894766339834,0.023486741627223084,1.323985140281106e-07,1.1400124114223191e-07,-3.1912526787802875e-10
1668680540.64792,25860,1668680540,647739419,,0.06073169660435868,0.044411920011176796,0.024029998868976027,1.4322927634419572e-07,1.1123994436766475e-07,-2.713510249829909e-10
1668680540.6555474,25861,1668680540,655379634,,0.06031876028789567,0.04529976495925838,0.0245557719327191,1.5558870057423829e-07,1.079133606007518e-07,-2.2620652573301925e-10
1668680540.6636808,25862,1668680540,663485214,,0.059891606208182874,0.04609485147061576,0.02499171819554001,1.6720973322408798e-07,1.0479915639981241e-07,-1.8121321110342592e-10
1668680540.6718645,25863,1668680540,671703624,,0.05928501605371941,0.04659916584868783,0.025208210618254116,1.8138641106973073e-07,1.0076686923527096e-07,-1.4007586757180945e-10
1668680540.6797903,25864,1668680540,679677718,,0.05859365489679915,0.046930261905311875,0.025286308635757405,1.9619334870634494e-07,9.647618187365661e-08,-1.006855154805919e-10
1668680540.6876056,25865,1668680540,687466718,,0.05804206963233971,0.04700432834423784,0.024986247057849124,2.0430900151888459e-07,9.444174295771338e-08,-5.456221585653509e-11
1668680540.695824,25866,1668680540,695653186,,0.05756002357209557,0.04693903358951922,0.024490554020771597,2.0902566556172796e-07,9.35377766357777e-08,-5.304659489446806e-12
1668680540.7036982,25867,1668680540,703542508,,0.05688660034275447,0.046773460160388663,0.023912860810529582,2.1830492191472067e-07,9.103211641697112e-08,3.7768510541269507e-11
1668680540.7119226,25868,1668680540,711788948,,0.05622828554837342,0.046597317393050716,0.023333651891042185,2.2681305238212834e-07,8.875400104527836e-08,8.088109348936001e-11
1668680540.7201734,25869,1668680540,720022177,,0.05541184330237736,0.046307609913195824,0.022642073886898796,2.3861946576439e-07,8.530628990937976e-08,1.191295950775384e-10
1668680540.7281113,25870,1668680540,727937178,,0.054533273269007136,0.04596368609168056,0.021901223025016948,2.5136218344880843e-07,8.149843372341412e-08,1.5528571484235698e-10
1668680540.7360961,25871,1668680540,735932548,,0.05356278596922692,0.04557356607596347,0.021141798711512852,2.6584025499150604e-07,7.705559637583015e-08,1.8833040682508795e-10
1668680540.743345,25872,1668680540,743220333,,0.052722398627906,0.04542448658611981,0.020488634477581764,2.781609009473371e-07,7.331448121272906e-08,2.2306899383206513e-10
1668680540.7522876,25873,1668680540,752179068,,0.051920207284054616,0.045267674351799056,0.01984665955607952,2.8898372319749975e-07,7.005027561159984e-08,2.587525332886642e-10
1668680540.7605815,25874,1668680540,760462869,,0.051199290626573316,0.04522549843684036,0.01926309589518816,2.98143943451264e-07,6.73209399723769e-08,2.956479783211563e-10
1668680540.7686584,25875,1668680540,768442740,,0.05051578133881434,0.04522913947127329,0.01874291295348073,3.063293915610038e-07,6.489150230722975e-08,3.329334030688358e-10
1668680540.7758923,25876,1668680540,775761812,,0.049866350103447483,0.04524617094717776,0.01825601586429155,3.1342769957296446e-07,6.280150625643903e-08,3.7079064124645456e-10
1668680540.7836525,25877,1668680540,783461359,,0.049247029562834874,0.045243806213808746,0.0177715996848447,3.193505452512278e-07,6.108227901388194e-08,4.093742012045709e-10
1668680540.7917929,25878,1668680540,791622911,,0.04877155144539409,0.04509685508047923,0.017089791719078727,3.20527878900636e-07,6.096181602447195e-08,4.5342628957056874e-10
1668680540.7998607,25879,1668680540,799665321,,0.04829289267708224,0.04493029416757319,0.016287205686930793,3.2153108407332416e-07,6.087194992033043e-08,4.970330536036016e-10
1668680540.8076427,25880,1668680540,807522647,,0.04782307034774473,0.04475315492659705,0.015441290226456699,3.2213557886662985e-07,6.089019300554131e-08,5.405007899583758e-10
1668680540.815469,25881,1668680540,815352160,,0.047391427376620644,0.04467080744116436,0.014624071035655698,3.2234784658397627e-07,6.101476454959363e-08,5.838335023766739e-10
1668680540.8237762,25882,1668680540,823634338,,0.046979260070022684,0.04457944655469392,0.013842569808765078,3.219390077781759e-07,6.132477474028904e-08,6.273547792368106e-10
1668680540.8322814,25883,1668680540,832102229,,0.046571132062095094,0.044620850055714485,0.013168844780170483,3.2219573647539624e-07,6.137852367831508e-08,6.693221601961064e-10
1668680540.8397057,25884,1668680540,839568523,,0.0461749638138401,0.04471797383777704,0.012561364163927722,3.2241384403806006e-07,6.141792350633328e-08,7.106868149531209e-10
1668680540.847742,25885,1668680540,847540185,,0.04583887556094674,0.04482090220841096,0.012009111856954715,3.2117894520594225e-07,6.192940184735103e-08,7.53415843601779e-10
1668680540.8560958,25886,1668680540,855869421,,0.04554048109563773,0.04491615305631655,0.01149351348525579,3.1895902689551463e-07,6.275308576681599e-08,7.968984361284015e-10
1668680540.8642397,25887,1668680540,863669703,,0.045305915079813096,0.04501494933574187,0.010962874450259057,3.1526380531702756e-07,6.405823340803647e-08,8.418552868705298e-10
1668680540.8719456,25888,1668680540,871702021,,0.045081379345901944,0.04509134608529863,0.010452558264317978,3.111739138634173e-07,6.547434317177685e-08,8.867963932623901e-10
