Time,header.seq,header.stamp.secs,header.stamp.nsecs,header.frame_id,wrench.force.x,wrench.force.y,wrench.force.z,wrench.torque.x,wrench.torque.y,wrench.torque.z
1668680538.2325041,25558,1668680538,232262761,,-1.6719774698013153e-133,-6.7074193260145544e-136,2.884710518185635e-290,5e-324,-1.201088006844143e-309,0.0
1668680538.2405326,25559,1668680538,240333580,,-8.846061751955136e-134,-3.548746716140431e-136,1.5262363184485387e-290,5e-324,-6.3546901019776e-310,0.0
1668680538.2483869,25560,1668680538,248174091,,-4.680254963525466e-134,-1.8775631346729023e-136,8.074977662633702e-291,5e-324,-3.362125511375e-310,0.0
1668680538.2559042,25561,1668680538,255706341,,-4.680254963525466e-134,-1.8775631346729023e-136,8.074977662633702e-291,5e-324,-3.362125511375e-310,0.0
1668680538.2646778,25562,1668680538,264442075,,-2.476219038236243e-134,-9.933769881770379e-137,4.272291483557159e-291,5e-324,-1.77882599667933e-310,0.0
1668680538.2722332,25563,1668680538,271922129,,-1.310112541540871e-134,-5.255737196883112e-137,2.260374614401333e-291,5e-324,-9.411373596128e-311,0.0
1668680538.2807014,25564,1668680538,280466456,,-6.931514720625164e-135,-2.780693916958128e-137,1.1959140468514846e-291,5e-324,-4.979348915028e-311,0.0
1668680538.288636,25565,1668680538,288438498,,-3.667310616363905e-135,-1.4712034430476304e-137,6.327315827847812e-292,5e-324,-2.6344630105634e-311,0.0
1668680538.296315,25566,1668680538,295993976,,-3.667310616363905e-135,-1.4712034430476304e-137,6.327315827847812e-292,5e-324,-2.6344630105634e-311,0.0
1668680538.3040826,25567,1668680538,303845594,,-1.9402926631428125e-135,-7.783810931635862e-138,3.347642390415472e-292,5e-324,-1.393835915591e-311,0.0
1668680538.3119357,25568,1668680538,311665320,,-1.0265657896135666e-135,-4.118241627680341e-138,1.7711632987851802e-292,5e-324,-7.37447651306e-312,0.0
1668680538.3199208,25569,1668680538,319727839,,-5.431331780113829e-136,-2.1788702542900656e-138,9.370831962055152e-293,5e-324,-3.901671870653e-312,0.0
1668680538.3280659,25570,1668680538,327745720,,-2.873597114197522e-136,-1.152791898639551e-138,4.9578992361293814e-293,5e-324,-2.064288001906e-312,0.0
1668680538.3355567,25571,1668680538,335372716,,-2.873597114197522e-136,-1.152791898639551e-138,4.9578992361293814e-293,5e-324,-2.064288001906e-312,0.0
1668680538.3437114,25572,1668680538,343475193,,-1.520356463024114e-136,-6.099166111210149e-139,2.6231144614636124e-293,5e-324,-1.092168971683e-312,0.0
1668680538.3529308,25573,1668680538,352660010,,-8.043868652424844e-137,-3.226933438379912e-139,1.3878316501065689e-293,5e-324,-5.778423658e-313,0.0
1668680538.3634098,25574,1668680538,363079033,,-4.2558323966184777e-137,-1.707298871003911e-139,7.34270927682978e-294,5e-324,-3.0572357242e-313,0.0
1668680538.3678923,25575,1668680538,367571606,,-2.2516664767577277e-137,-9.032939447287282e-140,3.884864530932268e-294,5e-324,-1.61751557634e-313,0.0
1668680538.3758307,25576,1668680538,375613869,,-2.2516664767577277e-137,-9.032939447287282e-140,3.884864530932268e-294,5e-324,-1.61751557634e-313,0.0
1668680538.3835614,25577,1668680538,383396420,,-1.1913067644729122e-137,-4.779127804985924e-140,2.055395611442708e-294,5e-324,-8.55791596e-314,0.0
1668680538.391693,25578,1668680538,391445920,,-6.302939719218556e-138,-2.528530464493345e-140,1.0874642052252297e-294,5e-324,-4.5278034193e-314,0.0
1668680538.3998828,25579,1668680538,399614611,,-3.3347455322878087e-138,-1.3377893562923378e-140,5.753531782701793e-295,5e-324,-2.395560309e-314,0.0
1668680538.4078083,25580,1668680538,407585406,,-1.7643398573534562e-138,-7.077946605510545e-141,3.0440659853906205e-295,5e-324,-1.267437798e-314,0.0
1668680538.4155955,25581,1668680538,415289175,,-1.7643398573534562e-138,-7.077946605510545e-141,3.0440659853906205e-295,5e-324,-1.267437798e-314,0.0
1668680538.4239933,25582,1668680538,423771182,,-9.334730647679754e-139,-3.744784477079576e-141,1.6105477597728335e-295,5e-324,-6.705732124e-315,0.0
1668680538.4321876,25583,1668680538,432022400,,-4.938798831844061e-139,-1.9812823635682994e-141,8.521050788511218e-296,5e-324,-3.547854054e-315,0.0
1668680538.4399471,25584,1668680538,439698662,,-2.6130088614273075e-139,-1.0482525304762342e-141,4.508298875323573e-296,5e-324,-1.877090847e-315,0.0
1668680538.447742,25585,1668680538,447531411,,-1.3824850013881304e-139,-5.5460715133547336e-142,2.3852408879720923e-296,5e-324,-9.9312711e-316,0.0
1668680538.4554143,25586,1668680538,455193564,,-1.3824850013881304e-139,-5.5460715133547336e-142,2.3852408879720923e-296,5e-324,-9.9312711e-316,0.0
1668680538.4641995,25587,1668680538,463925393,,-7.314421344974491e-140,-2.9343033607818444e-142,1.2619780211988614e-296,5e-324,-5.25441517e-316,0.0
1668680538.4721737,25588,1668680538,471897945,,-3.8698980139458444e-140,-1.552474790915108e-142,6.676845655379472e-297,5e-324,-2.77999445e-316,0.0
1668680538.4796474,25589,1668680538,479416142,,-2.047477159438129e-140,-8.21379959768276e-143,3.532570865490122e-297,5e-324,-1.4708334e-316,0.0
1668680538.487702,25590,1668680538,487432560,,-1.0832747279937739e-140,-4.3457390886924e-143,1.8690048510639704e-297,5e-324,-7.781853e-317,0.0
1668680538.4961452,25591,1668680538,495934611,,-5.73136618838773e-141,-2.2992341123488005e-143,9.888489902426906e-298,5e-324,-4.1172056e-317,0.0
1668680538.5036032,25592,1668680538,503300731,,-5.73136618838773e-141,-2.2992341123488005e-143,9.888489902426906e-298,5e-324,-4.1172056e-317,0.0
1668680538.5126424,25593,1668680538,512128737,,-3.0323386613319844e-141,-1.2164737448559153e-143,5.231780564653659e-298,5e-324,-2.178322e-317,0.0
1668680538.5203087,25594,1668680538,520044054,,-1.604343092863045e-141,-6.43609262743612e-144,2.7680189944846925e-298,5e-324,-1.152502e-317,0.0
1668680538.5281816,25595,1668680538,527916708,,-8.488223272814595e-142,-3.4051937811320325e-144,1.4644974228454217e-298,5e-324,-6.097635e-318,0.0
1668680538.5354035,25596,1668680538,535166618,,-8.488223272814595e-142,-3.4051937811320325e-144,1.4644974228454217e-298,5e-324,-6.097635e-318,0.0
1668680538.5438683,25597,1668680538,543615594,,-4.490930565267929e-142,-1.8016124624482583e-144,7.748330866928025e-299,5e-324,-3.226125e-318,0.0
1668680538.551778,25598,1668680538,551521564,,-2.3760517005545375e-142,-9.531931729799621e-145,4.0994699128075215e-299,5e-324,-1.706873e-318,0.0
1668680538.559941,25599,1668680538,559707767,,-1.25711622606022e-142,-5.043133548160067e-145,2.1689385565277274e-299,5e-324,-9.0307e-319,0.0
1668680538.5681098,25600,1668680538,567672575,,-6.651122976217481e-143,-2.6682100444620155e-145,1.1475372577550756e-299,5e-324,-4.7779e-319,0.0
1668680538.575762,25601,1668680538,575554698,,-3.5189615667763212e-143,-1.4116907223219197e-145,6.071364972386226e-300,5e-324,-2.5279e-319,0.0
1668680538.5833473,25602,1668680538,583158599,,-3.5189615667763212e-143,-1.4116907223219197e-145,6.071364972386226e-300,5e-324,-2.5279e-319,0.0
1668680538.592194,25603,1668680538,591920155,,-1.861804473128412e-143,-7.468942333179774e-146,3.2122244727836036e-300,5e-324,-1.33744e-319,0.0
1668680538.5998068,25604,1668680538,599561430,,-9.850394300658459e-144,-3.9516516397168603e-146,1.6995166837243305e-300,5e-324,-7.076e-320,0.0
1668680538.607777,25605,1668680538,607502079,,-5.211625027165369e-144,-2.090731188578999e-146,8.991765621393186e-301,5e-324,-3.7435e-320,0.0
1668680538.6154954,25606,1668680538,615277578,,-5.211625027165369e-144,-2.090731188578999e-146,8.991765621393186e-301,5e-324,-3.7435e-320,0.0
1668680538.62392,25607,1668680538,623677102,,-2.7573551468859304e-144,-1.106159474930374e-146,4.757343647423878e-301,5e-324,-1.9807e-320,0.0
1668680538.63185,25608,1668680538,631624485,,-1.4588554177301673e-144,-5.852444305907512e-147,2.517004950155459e-301,5e-324,-1.048e-320,0.0
1668680538.6398478,25609,1668680538,639643061,,-7.718480269921884e-145,-3.096398406378534e-147,1.3316914624272906e-301,5e-324,-5.543e-321,0.0
1668680538.6481795,25610,1668680538,647922662,,-4.0836766243680285e-145,-1.6382356823704633e-147,7.045684002298862e-302,5e-324,-2.935e-321,0.0
1668680538.6556516,25611,1668680538,655378845,,-4.0836766243680285e-145,-1.6382356823704633e-147,7.045684002298862e-302,5e-324,-2.935e-321,0.0
1668680538.6643305,25612,1668680538,664111555,,-2.1605826780948205e-145,-8.667541442545625e-148,3.727715049683327e-302,5e-324,-1.55e-321,0.0
1668680538.6716177,25613,1668680538,671371757,,-1.1431163479076415e-145,-4.585803829491804e-148,1.972251308333107e-302,5e-324,-8.2e-322,0.0
1668680538.6798844,25614,1668680538,679692067,,-6.04797491945993e-146,-2.426247039253311e-148,1.0434743995660536e-302,5e-324,-4.35e-322,0.0
1668680538.6877449,25615,1668680538,687476664,,-3.1998493148460927e-146,-1.2836734658442238e-148,5.5207914830589873e-303,5e-324,-2.3e-322,0.0
1668680538.6954243,25616,1668680538,695181815,,-3.1998493148460927e-146,-1.2836734658442238e-148,5.5207914830589873e-303,5e-324,-2.3e-322,0.0
1668680538.7038507,25617,1668680538,703547929,,-1.6929692622857852e-146,-6.7916314384030955e-149,2.920928257760029e-303,5e-324,-1.24e-322,0.0
1668680538.7117677,25618,1668680538,711453418,,0.2753459655366966,-3.5933014759925563e-149,1.545398320722971e-303,5e-324,-6.4e-323,0.0
1668680538.719712,25619,1668680538,719521555,,0.4210117183403548,-1.90113606936336e-149,8.176359564287481e-304,5e-324,-3.5e-323,0.0
1668680538.7276368,25620,1668680538,727438067,,0.222747957194548,-1.0058489047975036e-149,4.325930397882156e-304,5e-324,-2e-323,0.0
1668680538.735739,25621,1668680538,735526421,,0.222747957194548,-1.0058489047975036e-149,4.325930397882156e-304,5e-324,-2e-323,0.0
1668680538.7438846,25622,1668680538,743630412,,0.11785100098860679,-5.321723339987652e-150,2.2887537736302633e-304,5e-324,-1e-323,0.0
1668680538.7525976,25623,1668680538,752156009,,-1.3453260771768611,-0.5818177179909504,1.5179437191046858,5e-324,-5e-324,0.0
1668680538.7599974,25624,1668680538,759782857,,-2.766289448715999,-0.4644973848664471,3.1647838853630414,5e-324,-5e-324,0.0
1668680538.7677715,25625,1668680538,767562526,,-3.518297553553344,-0.4025615542285593,4.0358750022745085,5e-324,-5e-324,0.0
1668680538.7755215,25626,1668680538,775241259,,-3.518297553553344,-0.4025615542285593,4.0358750022745085,5e-324,-5e-324,0.0
1668680538.7840674,25627,1668680538,783847406,,-3.821275579652915,-0.21298638480409923,4.8117466440139065,5e-324,-5e-324,0.0
1668680538.7920952,25628,1668680538,791786000,,-3.2851964053425213,-0.11268636966302131,4.893759998552298,5e-324,-5e-324,0.0
1668680538.8003788,25629,1668680538,800012064,,-3.001627533041611,-0.059619857482959136,4.937119158745904,5e-324,-5e-324,0.0
1668680538.8081918,25630,1668680538,807930430,,-2.2991726127578467,-0.03154354352631876,4.4356794360224825,5e-324,-5e-324,0.0
1668680538.816093,25631,1668680538,815841141,,-1.927605312579147,-0.01668898887390264,4.170329040005557,5e-324,-5e-324,0.0
1668680538.8235474,25632,1668680538,823299654,,-1.927605312579147,-0.01668898887390264,4.170329040005557,5e-324,-5e-324,0.0
1668680538.831735,25633,1668680538,831552591,,-1.019853193984618,-0.008829773655609028,3.2529769172940184,5e-324,-5e-324,0.0
1668680538.8398077,25634,1668680538,839562169,,-0.5395816926282312,-0.004671637293209813,2.5594346373515404,5e-324,-5e-324,0.0
1668680538.848077,25635,1668680538,847865217,,-0.2854806993171394,-0.0024716596201132634,2.19253575938564,5e-324,-5e-324,0.0
1668680538.8557088,25636,1668680538,855451764,,-0.2854806993171394,-0.0024716596201132634,2.19253575938564,5e-324,-5e-324,0.0
1668680538.863704,25637,1668680538,863510375,,-0.15104150269745245,-0.0013077002545933887,2.047942816877538,5e-324,-5e-324,0.0
1668680538.8717115,25638,1668680538,871485075,,-0.07991270720463338,-0.0006918751845714295,2.48634084976352,5e-324,-5e-324,0.0
1668680538.8799515,25639,1668680538,879753405,,-0.04228003998056869,-0.00036605580624788676,2.7182660328374517,5e-324,-5e-324,0.0
1668680538.8878334,25640,1668680538,887612788,,-0.27821478875371547,0.0753096556297151,3.2175548346830984,5e-324,-5e-324,0.0
1668680538.8956327,25641,1668680538,895408641,,-0.4029806405774852,0.1153924285343629,3.4817266887960883,5e-324,-5e-324,0.0
1668680538.9034595,25642,1668680538,903260306,,-0.4029806405774852,0.1153924285343629,3.4817266887960883,5e-324,-5e-324,0.0
1668680538.9124932,25643,1668680538,912217568,,-0.7087957763486743,0.0770222947994227,3.8928258700006166,5e-324,-5e-324,0.0
1668680538.919747,25644,1668680538,919539387,,-0.7025371493561463,0.04075078692022995,4.0824992927789445,5e-324,-5e-324,0.0
1668680538.928134,25645,1668680538,927876640,,-0.6992662692129556,0.02156033702894076,4.18285410258221,5e-324,-5e-324,0.0
1668680538.9358785,25646,1668680538,935510813,,-0.6755013117620077,0.011407095860785673,4.207341885428791,5e-324,-5e-324,0.0
1668680538.9437532,25647,1668680538,943428488,,-0.6755013117620077,0.011407095860785673,4.207341885428791,5e-324,-5e-324,0.0
1668680538.9518356,25648,1668680538,951621414,,-0.3573927535090232,0.00603524127672444,3.8280040905316914,5e-324,-5e-324,0.0
1668680538.960809,25649,1668680538,960533504,,-0.189088574717325,0.0031931122270563352,3.6272921914613487,5e-324,-5e-324,0.0
1668680538.968396,25650,1668680538,968119077,,-0.10004256867991221,0.001689404818643873,3.407830009859031,5e-324,-5e-324,0.0
1668680538.976645,25651,1668680538,976360879,,-0.052930302970642336,0.0008938265987250512,3.4095838168809447,5e-324,-5e-324,0.0
1668680538.9834445,25652,1668680538,983209312,,-0.052930302970642336,0.0008938265987250512,3.4095838168809447,5e-324,-5e-324,0.0
1668680538.991822,25653,1668680538,991528036,,-0.028004248686654645,0.00047290381782485465,3.4105218302300995,5e-324,-5e-324,0.0
1668680538.999762,25654,1668680538,999557375,,-0.05631178908891374,0.00025020291545621847,3.5536366556081345,5e-324,-5e-324,0.0
1668680539.0077357,25655,1668680539,7507886,,-0.07135652410584573,0.00013237681013177354,3.6293410214349136,5e-324,-5e-324,0.0
1668680539.0154111,25656,1668680539,15223298,,-0.07135652410584573,0.00013237681013177354,3.6293410214349136,5e-324,-5e-324,0.0
1668680539.0237212,25657,1668680539,23435457,,-0.03775315337952468,7.003763256999288e-05,3.7080219870734528,5e-324,-5e-324,0.0
1668680539.0317998,25658,1668680539,31519942,,-0.019974355645234563,0.12833346317217226,3.561925662030112,5e-324,-5e-324,0.0
1668680539.039855,25659,1668680539,39678808,,-0.010567988306340969,0.19597906658511294,3.4846826748586217,5e-324,-5e-324,0.0
1668680539.048019,25660,1668680539,47749216,,-0.005591288090917936,0.22840828671450458,3.4247763418088377,5e-324,-5e-324,0.0
1668680539.0554879,25661,1668680539,55245451,,-0.005591288090917936,0.22840828671450458,3.4247763418088377,5e-324,-5e-324,0.0
1668680539.0639222,25662,1668680539,63584094,,-0.0029582264485363517,0.23655259626758068,3.3886709912195725,5e-324,-5e-324,0.0
1668680539.0719051,25663,1668680539,71710577,,-0.0015651319657512595,0.24070025871316125,3.369622634660608,5e-324,-5e-324,0.0
1668680539.0802462,25664,1668680539,79830486,,-0.0008280765900894486,0.24254164376988815,3.7139030566770304,5e-324,-5e-324,0.0
1668680539.0882802,25665,1668680539,87891196,,-0.00043811694736234537,0.24353153412142364,3.8960599026167246,5e-324,-5e-324,0.0
1668680539.0961015,25666,1668680539,95887480,,-0.00043811694736234537,0.24353153412142364,3.8960599026167246,5e-324,-5e-324,0.0
1668680539.1044166,25667,1668680539,104195185,,-0.33569647081727433,0.128847130317042,4.16727136971675,5e-324,-5e-324,0.0
1668680539.1125019,25668,1668680539,112274182,,-0.8569265314104779,0.06817015730972786,4.781378251839444,5e-324,-5e-324,0.0
1668680539.1206322,25669,1668680539,120362378,,-1.1325574543020918,0.03606731741869755,5.106328965313013,5e-324,-5e-324,0.0
1668680539.128561,25670,1668680539,128313586,,-1.1148946292465451,0.019082417249981214,5.227915269071056,5e-324,-5e-324,0.0
1668680539.136563,25671,1668680539,136313871,,-1.0219297413428516,0.010096083495070485,5.244886448426339,5e-324,-5e-324,0.0
1668680539.1434999,25672,1668680539,143286036,,-1.0219297413428516,0.010096083495070485,5.244886448426339,5e-324,-5e-324,0.0
1668680539.1520286,25673,1668680539,151733189,,-0.9727350489582782,0.005341613727659949,5.253847548401562,5e-324,-5e-324,0.0
1668680539.1607227,25674,1668680539,160185495,,-0.7969790531221312,-0.09535657386628477,5.165589171150792,5e-324,-5e-324,0.0
1668680539.1689267,25675,1668680539,168585160,,-0.7039772333536574,-0.1484928076296797,5.118925182161784,5e-324,-5e-324,0.0
1668680539.1761625,25676,1668680539,175922362,,-0.7039772333536574,-0.1484928076296797,5.118925182161784,5e-324,-5e-324,0.0
1668680539.18465,25677,1668680539,184422636,,-0.6258391126286291,-0.20560874746407146,5.056852976939741,5e-324,-5e-324,0.0
1668680539.1926537,25678,1668680539,192403271,,-0.5051356024814435,-0.3803644209845658,4.9509759606082335,5e-324,-5e-324,0.0
1668680539.2001553,25679,1668680539,199870220,,-0.44127631077750706,-0.4727736372788981,4.89497180380887,5e-324,-5e-324,0.0
1668680539.2084115,25680,1668680539,208136505,,-0.4874206332977239,-0.5490777952116712,4.988814628578846,5e-324,-5e-324,0.0
1668680539.2163823,25681,1668680539,216143858,,-0.7794055665243789,-0.677467674484346,5.3669527498405305,5e-324,-5e-324,0.0
1668680539.2241218,25682,1668680539,223876214,,-0.7794055665243789,-0.677467674484346,5.3669527498405305,5e-324,-5e-324,0.0
1668680539.2328336,25683,1668680539,232546729,,-0.9338838379362303,-0.7457684073616262,5.56691869207264,5e-324,-5e-324,0.0
1668680539.2407515,25684,1668680539,240459524,,-1.0436931249493748,-0.8812122041830399,5.787787012751393,5e-324,-5e-324,0.0
1668680539.248202,25685,1668680539,247833183,,-1.1016270975533033,-0.9527596243816774,5.904726571749655,5e-324,-5e-324,0.0
1668680539.2556965,25686,1668680539,255475737,,-1.1016270975533033,-0.9527596243816774,5.904726571749655,5e-324,-5e-324,0.0
1668680539.264076,25687,1668680539,263820395,,-1.04366164073206,-0.9254268002568993,5.983630109863203,5e-324,-5e-324,0.0
1668680539.271691,25688,1668680539,271436686,,-0.9131325516306514,-0.9058541184915344,6.024774517586971,5e-324,-5e-324,0.0
1668680539.27978,25689,1668680539,279529023,,-0.8441054473149727,-0.8955917627532429,6.046510071868976,5e-324,-5e-324,0.0
1668680539.2879262,25690,1668680539,287679493,,-0.7555115822233851,-0.9144486619327963,6.034480394815557,5e-324,-5e-324,0.0
1668680539.2957163,25691,1668680539,295381757,,-0.7555115822233851,-0.9144486619327963,6.034480394815557,5e-324,-5e-324,0.0
1668680539.30385,25692,1668680539,303600514,,-0.7305103203755983,-0.855821966528117,6.06940039433022,5e-324,-5e-324,0.0
1668680539.3117068,25693,1668680539,311472590,,-0.7173413967214743,-0.824176142240977,6.08801973867313,5e-324,-5e-324,0.0
1668680539.3200493,25694,1668680539,319810237,,-0.6375217264488928,-0.5280225318924581,6.186097425277174,5e-324,-5e-324,0.0
1668680539.3284097,25695,1668680539,328192643,,-0.595388812755931,-0.37119460581871294,6.237990252722434,5e-324,-5e-324,0.0
1668680539.3353992,25696,1668680539,335216237,,-0.595388812755931,-0.37119460581871294,6.237990252722434,5e-324,-5e-324,0.0
1668680539.3436575,25697,1668680539,343471461,,-0.315007008120037,-0.1963908284873706,6.316620617717121,5e-324,-5e-324,0.0
1668680539.351743,25698,1668680539,351415591,,-0.16666321744512588,0.01570020296188422,6.466266649835518,5e-324,-5e-324,0.0
1668680539.3599255,25699,1668680539,359706895,,-0.08817780980471619,0.12788210696893146,6.5454427711264,5e-324,-5e-324,0.0
1668680539.3676028,25700,1668680539,367436275,,-0.04665292234932847,0.24610874136624783,6.509112017315969,5e-324,-5e-324,0.0
1668680539.3759716,25701,1668680539,375701738,,-0.024683025905867552,0.13021067347758533,6.470356416444808,5e-324,-5e-324,0.0
1668680539.385749,25702,1668680539,383652842,,-0.024683025905867552,0.13021067347758533,6.470356416444808,5e-324,-5e-324,0.0
1668680539.3922706,25703,1668680539,391846279,,-0.013059241247692137,0.06889157773658658,6.449840168035278,5e-324,-5e-324,0.0
1668680539.4001923,25704,1668680539,399933550,,-0.006909354736968561,0.03644900495697954,6.402222526959983,5e-324,-5e-324,0.0
1668680539.40779,25705,1668680539,407578662,,-0.003655586260779621,0.019284359656178553,6.37704151851332,5e-324,-5e-324,0.0
1668680539.4153504,25706,1668680539,415168588,,-0.003655586260779621,0.019284359656178553,6.37704151851332,5e-324,-5e-324,0.0
1668680539.423853,25707,1668680539,423618785,,-0.0019340895667869279,0.010202926740737688,6.337419608266702,5e-324,-5e-324,0.0
1668680539.4316566,25708,1668680539,431461400,,-0.0010232838689891216,0.005398142117905764,6.245649206628045,5e-324,-5e-324,0.0
1668680539.440104,25709,1668680539,439860621,,-0.0005413967866404928,0.0028560372004593324,6.19710955582174,5e-324,-5e-324,0.0
1668680539.4479873,25710,1668680539,447745664,,-0.0002864410252789467,0.0015110659023501421,6.152354053572882,5e-324,-5e-324,0.0
1668680539.456093,25711,1668680539,455822864,,-0.0002864410252789467,0.0015110659023501421,6.152354053572882,5e-324,-5e-324,0.0
1668680539.4639463,25712,1668680539,463685854,,-0.00015154958985254808,0.0007994714357635209,6.183496206867422,5e-324,-5e-324,0.0
1668680539.4720585,25713,1668680539,471822202,,-8.018152484306035e-05,0.00042298259500642317,6.199985370986367,5e-324,-5e-324,0.0
1668680539.4799871,25714,1668680539,479805732,,0.1145399022572989,0.0002237907043013975,6.218763457566722,5e-324,-5e-324,0.0
1668680539.4881926,25715,1668680539,488025706,,0.17553662235127515,0.00011840269534247623,6.2286192793304975,5e-324,-5e-324,0.0
1668680539.4954178,25716,1668680539,495242070,,0.17553662235127515,0.00011840269534247623,6.2286192793304975,5e-324,-5e-324,0.0
1668680539.5038617,25717,1668680539,503601570,,0.42705489743851316,0.05240064949528091,6.246984354801505,5e-324,-5e-324,0.0
1668680539.5117567,25718,1668680539,511555777,,0.6378409164969083,0.23087872883015098,6.347377372753471,5e-324,-5e-324,0.0
1668680539.5207598,25719,1668680539,520528704,,0.749335357618585,0.3250103780193356,6.400557067356779,5e-324,-5e-324,0.0
1668680539.5288775,25720,1668680539,528407464,,0.8246105949489797,0.4164977790292136,6.446595924922299,5e-324,-5e-324,0.0
1668680539.5360727,25721,1668680539,535695361,,0.7945375771713177,0.3501016010728272,6.436109130924992,5e-324,-5e-324,0.0
1668680539.5436037,25722,1668680539,543263086,,0.7945375771713177,0.3501016010728272,6.436109130924992,5e-324,-5e-324,0.0
1668680539.5527227,25723,1668680539,552493339,,0.7787710741469833,0.3153288626213916,6.430465355543424,5e-324,-5e-324,0.0
1668680539.559875,25724,1668680539,559553243,,0.5145028663583655,0.16683350351928367,6.403175873924698,5e-324,-5e-324,0.0
1668680539.567602,25725,1668680539,567419703,,0.37464297395247065,0.0882679043876101,6.388763823637313,5e-324,-5e-324,0.0
1668680539.5756133,25726,1668680539,575384179,,0.37464297395247065,0.0882679043876101,6.388763823637313,5e-324,-5e-324,0.0
1668680539.5840573,25727,1668680539,583855472,,0.19821528354167942,-0.03104185163206946,6.3164112442691,5e-324,-5e-324,0.0
1668680539.5918758,25728,1668680539,591647639,,0.10487130778139946,-0.8172333480322131,6.144484599064594,5e-324,-5e-324,0.0
1668680539.60152,25729,1668680539,599690121,,0.05548508167115392,-1.2330014229538087,6.053601734057916,5e-324,-5e-324,0.0
1668680539.6077385,25730,1668680539,607505014,,-0.03683268069684512,-1.6415973850574201,5.972576054039516,5e-324,-5e-324,0.0
1668680539.615924,25731,1668680539,615688768,,-0.11387444859855603,-1.8571260187236118,5.995811694036192,5e-324,-5e-324,0.0
1668680539.6239896,25732,1668680539,623740710,,-0.11387444859855603,-1.8571260187236118,5.995811694036192,5e-324,-5e-324,0.0
1668680539.6324809,25733,1668680539,632261783,,-0.15466792683166214,-1.971485271631866,6.007954901488243,5e-324,-5e-324,0.0
1668680539.6405241,25734,1668680539,640284627,,-0.08183136773741026,-1.8182810188712812,6.079928126418258,5e-324,-5e-324,0.0
1668680539.6488032,25735,1668680539,648555074,,-0.043295160690060085,-1.7374780552119349,6.117927475670802,5e-324,-5e-324,0.0
1668680539.6562243,25736,1668680539,655946638,,-0.043295160690060085,-1.7374780552119349,6.117927475670802,5e-324,-5e-324,0.0
1668680539.6648448,25737,1668680539,664601201,,-0.021238881154926472,-0.9192610813648178,6.14342742809386,5e-324,-5e-324,0.0
1668680539.6725585,25738,1668680539,672174125,,0.6814811216601016,-0.48636063815432606,6.37704345244263,5e-324,-5e-324,0.0
1668680539.6805918,25739,1668680539,680281794,,1.0531799034889144,-0.2573226204623879,6.500666940105621,5e-324,-5e-324,0.0
1668680539.687993,25740,1668680539,687720986,,1.2554656092662944,-0.012154954764639223,6.782754832376735,5e-324,-5e-324,0.0
1668680539.6955266,25741,1668680539,695333496,,1.2554656092662944,-0.012154954764639223,6.782754832376735,5e-324,-5e-324,0.0
1668680539.7036896,25742,1668680539,703512933,,1.4242793057710126,0.4654713675710301,7.216641027276342,5e-324,-5e-324,0.0
1668680539.7119095,25743,1668680539,711569249,,1.5138114684336608,0.7187549278216079,7.446001604658438,5e-324,-5e-324,0.0
1668680539.7197628,25744,1668680539,719564166,,1.5341578254992907,0.8963428491128191,7.599588779456601,5e-324,-5e-324,0.0
1668680539.7279422,25745,1668680539,727739427,,1.5448449956359689,0.9901810056616502,7.680899565029299,5e-324,-5e-324,0.0
1668680539.7359302,25746,1668680539,735651118,,1.4977476383966555,0.8083912658224327,7.658257805021485,5e-324,-5e-324,0.0
1668680539.743753,25747,1668680539,743498527,,1.4977476383966555,0.8083912658224327,7.658257805021485,5e-324,-5e-324,0.0
1668680539.7519083,25748,1668680539,751660399,,1.5446772312826131,0.4277018791441129,7.256668521798044,5e-324,-5e-324,0.0
1668680539.7599564,25749,1668680539,759718943,,1.5691083222495807,0.22628757280955905,7.044323883727754,5e-324,-5e-324,0.0
1668680539.7688272,25750,1668680539,768280867,,1.6420668210529228,0.11972373306030708,6.835075406142237,5e-324,-5e-324,0.0
1668680539.7757223,25751,1668680539,775482676,,1.6420668210529228,0.11972373306030708,6.835075406142237,5e-324,-5e-324,0.0
1668680539.7840319,25752,1668680539,783829871,,1.5536153867911076,0.06334317028517868,6.746191522498965,5e-324,-5e-324,0.0
1668680539.7918487,25753,1668680539,791599927,,1.5069315482728518,0.03351346570321227,6.6991316510316565,5e-324,-5e-324,0.0
1668680539.7999682,25754,1668680539,799684586,,1.6943904221912518,0.017731230981711466,6.701236044426128,5e-324,-5e-324,0.0
1668680539.8079777,25755,1668680539,807764416,,1.793455910120179,0.009381200825692868,6.702411292588154,5e-324,-5e-324,0.0
1668680539.8157167,25756,1668680539,815508988,,1.793455910120179,0.009381200825692868,6.702411292588154,5e-324,-5e-324,0.0
1668680539.8240967,25757,1668680539,823707810,,1.9700297352285048,0.004963385171777051,6.821892858563864,5e-324,-5e-324,0.0
1668680539.8323789,25758,1668680539,832073511,,2.075384006311614,0.002626016948272379,7.096435204679416,5e-324,-5e-324,0.0
1668680539.8408904,25759,1668680539,840665392,,2.1311375851400927,0.0013893672914658771,7.241681060643717,5e-324,-5e-324,0.0
1668680539.847764,25760,1668680539,847491940,,2.18846990850086,0.000735083401447646,7.374858329443782,5e-324,-5e-324,0.0
1668680539.8562832,25761,1668680539,856030492,,2.1893625912924652,0.00038891631493191236,7.535929295252322,5e-324,-5e-324,0.0
1668680539.8636532,25762,1668680539,863408378,,2.1893625912924652,0.00038891631493191236,7.535929295252322,5e-324,-5e-324,0.0
1668680539.8719342,25763,1668680539,871750363,,2.1898157888355056,0.0002057669915037405,7.621115766958283,5e-324,-5e-324,0.0
1668680539.8797228,25764,1668680539,879500756,,2.1962328026009548,0.00010886674887864474,7.7127880095568155,5e-324,-5e-324,0.0
1668680539.8878632,25765,1668680539,887595030,,2.1995106838019645,5.759898088994729e-05,7.761332235872475,5e-324,-5e-324,0.0
1668680539.8958702,25766,1668680539,895620622,,2.3124873378670214,3.0474342567708483e-05,7.777901632484859,5e-324,-5e-324,0.0
1668680539.903576,25767,1668680539,903336489,,2.3124873378670214,3.0474342567708483e-05,7.777901632484859,5e-324,-5e-324,0.0
1668680539.911931,25768,1668680539,911675781,,2.5954923543063884,1.6123298374123353e-05,7.704855567382017,5e-324,-5e-324,0.0
1668680539.9200075,25769,1668680539,919816627,,2.745447605980952,8.530479365827924e-06,7.6660752342020455,5e-324,-5e-324,0.0
1668680539.9277153,25770,1668680539,927539014,,2.938063534321172,4.513287326345379e-06,7.635387415321973,5e-324,-5e-324,0.0
1668680539.935886,25771,1668680539,935684462,,3.09821029922744,2.3878801667053602e-06,7.702881624378884,5e-324,-5e-324,0.0
1668680539.9435596,25772,1668680539,943234626,,3.09821029922744,2.3878801667053602e-06,7.702881624378884,5e-324,-5e-324,0.0
1668680539.9517646,25773,1668680539,951579125,,3.182878887472423,1.2633744050064665e-06,7.738654522804279,5e-324,-5e-324,0.0
1668680539.9597914,25774,1668680539,959559183,,3.280408137590113,6.684233612223754e-07,7.802817878200588,5e-324,-5e-324,0.0
1668680539.967959,25775,1668680539,967729869,,3.3321256505030794,3.5364796695048714e-07,7.83670925046941,5e-324,-5e-324,0.0
1668680539.975468,25776,1668680539,975255604,,3.3321256505030794,3.5364796695048714e-07,7.83670925046941,5e-324,-5e-324,0.0
1668680539.9842181,25777,1668680539,983708873,,3.462616710015668,1.8710729125250423e-07,7.9195156800572795,5e-324,-5e-324,0.0
1668680539.9919484,25778,1668680539,991701235,,3.4546240158549226,9.899431556678774e-08,7.9883781138933,5e-324,-5e-324,0.0
1668680540.0002804,25779,1668680539,999930688,,3.4503851000881243,5.237569551104061e-08,8.024817847726153,5e-324,-5e-324,0.0
1668680540.007839,25780,1668680540,7622469,,3.4158774559613625,2.771081818747963e-08,8.068364661594064,5e-324,-5e-324,0.0
1668680540.0154793,25781,1668680540,15262121,,3.4158774559613625,2.771081818747963e-08,8.068364661594064,5e-324,-5e-324,0.0
1668680540.0237694,25782,1668680540,23586147,,3.5351179599562963,0.03325834781040919,8.139112614061968,5e-324,-5e-324,0.0
1668680540.0318558,25783,1668680540,31632541,,3.5978635367598235,0.050632352589077015,8.176742753041898,5e-324,-5e-324,0.0
1668680540.040036,25784,1668680540,39816807,,3.706349613118787,0.14673914871006746,8.227172576327337,5e-324,-5e-324,0.0
1668680540.047869,25785,1668680540,47661038,,3.76361913656515,0.19773253035311286,8.253900816027691,5e-324,-5e-324,0.0
1668680540.0556076,25786,1668680540,55372397,,3.76361913656515,0.19773253035311286,8.253900816027691,5e-324,-5e-324,0.0
1668680540.0637927,25787,1668680540,63601627,,3.866467258910359,0.3020078521728451,8.355500654900148,5e-324,-5e-324,0.0
1668680540.0719757,25788,1668680540,71736260,,3.950213453443519,0.29908581017416963,8.349107848536399,5e-324,-5e-324,0.0
1668680540.0797734,25789,1668680540,79512660,,3.9945330713434175,0.297840669859257,8.3456776793677,5e-324,-5e-324,0.0
1668680540.0878367,25790,1668680540,87536274,,3.9870716223965514,0.2810896401192774,8.32567497137933,5e-324,-5e-324,0.0
1668680540.0955815,25791,1668680540,95374271,,3.9870716223965514,0.2810896401192774,8.32567497137933,5e-324,-5e-324,0.0
1668680540.1038966,25792,1668680540,103644147,,3.971451156753851,0.2546792510338627,8.240057729111381,5e-324,-5e-324,0.0
1668680540.1118164,25793,1668680540,111537412,,3.9635122709809485,0.24107189577040133,8.194534129246705,5e-324,-5e-324,0.0
1668680540.1198757,25794,1668680540,119631811,,4.006050988092918,0.23759017383130968,8.15610939178173,5e-324,-5e-324,0.0
1668680540.128407,25795,1668680540,127985227,,4.029054493380475,0.23600600256248744,8.135469005967417,5e-324,-5e-324,0.0
1668680540.136492,25796,1668680540,136171923,,4.107813080191767,0.26919722143074487,8.24595693030701,5e-324,-5e-324,0.0
1668680540.1437,25797,1668680540,143305919,,4.107813080191767,0.26919722143074487,8.24595693030701,5e-324,-5e-324,0.0
1668680540.1518714,25798,1668680540,151643258,,4.298564423992863,0.34169322249641976,8.405759807444735,5e-324,-5e-324,0.0
1668680540.1598198,25799,1668680540,159540891,,4.39964524030796,0.38001847693687296,8.490221361169487,5e-324,-5e-324,0.0
1668680540.1677136,25800,1668680540,167523762,,4.506686599145901,0.4495792908412843,8.604292096161027,5e-324,-5e-324,0.0
1668680540.1758273,25801,1668680540,175619156,,4.611545040133624,0.4864970986837891,8.697307116239056,5e-324,-5e-324,0.0
1668680540.1834087,25802,1668680540,183226474,,4.611545040133624,0.4864970986837891,8.697307116239056,5e-324,-5e-324,0.0
1668680540.1921697,25803,1668680540,191601550,,4.666809470226522,0.5060767702534086,8.74663691847871,5e-324,-5e-324,0.0
1668680540.1998255,25804,1668680540,199611141,,4.701694813546794,0.4831543270152767,8.735849603821494,5e-324,-5e-324,0.0
1668680540.2078378,25805,1668680540,207612019,,4.720391828109504,0.4709354498476526,8.730014254815082,5e-324,-5e-324,0.0
1668680540.2154715,25806,1668680540,215237556,,4.720391828109504,0.4709354498476526,8.730014254815082,5e-324,-5e-324,0.0
1668680540.223998,25807,1668680540,223774665,,4.930831219216572,0.2537526531696133,8.522681098640387,5e-324,-5e-324,0.0
1668680540.2319088,25808,1668680540,231709168,,5.137744847131453,0.13425489758110182,8.27883523568071,0.0005584979881587779,-5e-324,0.0
1668680540.2398713,25809,1668680540,239642713,,5.247362542424927,0.07103128696141862,8.149643251260526,0.0008673851547291524,-5e-324,0.0
1668680540.2482145,25810,1668680540,247965445,,5.273923457007827,0.03758107762398393,8.162451837916992,0.0004589142365880704,-5e-324,0.0
1668680540.2555528,25811,1668680540,255307827,,5.273923457007827,0.03758107762398393,8.162451837916992,0.0004589142365880704,-5e-324,0.0
1668680540.2638502,25812,1668680540,263616952,,5.466227042532813,0.09245672964118541,8.341784628612762,0.025258031533912147,-5e-324,0.0
1668680540.272511,25813,1668680540,272034484,,5.568399516987219,0.12131811654444682,8.436386079102839,0.03836351490787286,-5e-324,0.0
1668680540.2804637,25814,1668680540,280043371,,5.653067275171251,0.205874474751085,8.569798400128551,0.052107165205094015,-5e-324,0.0
1668680540.2889075,25815,1668680540,288615550,,5.698008983335243,0.25115946822497837,8.640209223744723,0.05938581580184786,-5e-324,0.0
1668680540.2961707,25816,1668680540,295896851,,5.698008983335243,0.25115946822497837,8.640209223744723,0.05938581580184786,-5e-324,0.0
1668680540.3043444,25817,1668680540,304136469,,5.775300771758495,0.4018850208006589,8.768821133161897,0.07485270957703236,-5e-324,0.0
1668680540.3125784,25818,1668680540,312337973,,6.018780490432896,0.4475956316116961,8.784228522395297,0.1129078481170018,-5e-324,0.0
1668680540.3207078,25819,1668680540,320502028,,6.14761717551408,0.4718014720454977,8.79236433676424,0.1330330892514615,-5e-324,0.0
1668680540.328576,25820,1668680540,328322268,,6.369298951450046,0.408221564965482,8.768659606894449,0.16670435856953697,-5e-324,0.0
1668680540.335824,25821,1668680540,335587014,,6.369298951450046,0.408221564965482,8.768659606894449,0.16670435856953697,-5e-324,0.0
1668680540.3456821,25822,1668680540,344449380,,6.755894208930152,0.39786273230165214,8.819862020642564,0.22451651231393777,-5e-324,0.0
1668680540.352626,25823,1668680540,352408298,,6.960376421412997,0.3923502150676359,8.847003620139269,0.25510430620084296,-5e-324,0.0
1668680540.360896,25824,1668680540,360601337,,7.216158698149774,0.5004336748755185,8.942871085598684,0.29476424373013843,-5e-324,0.0
1668680540.3678827,25825,1668680540,367646348,,7.351392502048636,0.5582656701505604,8.993568223390149,0.3157593684260759,-5e-324,0.0
1668680540.3765955,25826,1668680540,375269162,,7.351392502048636,0.5582656701505604,8.993568223390149,0.3157593684260759,-5e-324,0.0
1668680540.3842254,25827,1668680540,383994706,,7.516932772161921,0.7336891199336952,9.176994645103342,0.343917625855787,-5e-324,0.0
1668680540.3919852,25828,1668680540,391650339,,7.7503043059881005,0.7856160487040027,9.203397936358677,0.3766951012654825,-5e-324,0.0
1668680540.3998017,25829,1668680540,399609169,,7.873588129135662,0.8126874195400373,9.217605214127854,0.394043474535231,-5e-324,0.0
1668680540.4077492,25830,1668680540,407531855,,8.004009869004202,0.7864149698392231,9.196994389949978,0.4100469579345407,-5e-324,0.0
1668680540.416024,25831,1668680540,415816782,,8.004009869004202,0.7864149698392231,9.196994389949978,0.4100469579345407,-5e-324,0.0
1668680540.4240084,25832,1668680540,423669078,,7.987467582779123,0.594541200250132,9.256405553020768,0.40358670119373924,-5e-324,0.0
1668680540.4321682,25833,1668680540,431847358,,7.97861986257764,0.493121319952855,9.287908845224594,0.4001697367838526,-5e-324,0.0
1668680540.4403486,25834,1668680540,440002222,,8.131389493804035,0.624387749437673,9.408364714752855,0.42363582878169076,-5e-324,0.0
1668680540.4481227,25835,1668680540,447859989,,8.212370510112248,0.6944901314453122,9.471849710149279,0.43604776299332537,-5e-324,0.0
1668680540.4558578,25836,1668680540,455619683,,8.369607962746343,1.1397852942413025,9.948475654899354,0.46957339042983937,-5e-324,0.0
1668680540.4635525,25837,1668680540,463328705,,8.369607962746343,1.1397852942413025,9.948475654899354,0.46957339042983937,-5e-324,0.0
1668680540.4719074,25838,1668680540,471608370,,8.522735405450872,1.6523058281127088,10.434674043253763,0.4991666886319832,-5e-324,0.0
1668680540.480338,25839,1668680540,480085897,,8.603469225124982,1.9221385002480849,10.692497737277595,0.5148233147868033,-5e-324,0.0
1668680540.4878914,25840,1668680540,487631746,,8.649333329123069,2.1059614480258646,10.907664946334787,0.5241806533093233,-5e-324,0.0
1668680540.4957693,25841,1668680540,495487384,,8.68441254708642,2.2795046171106574,11.170900194160922,0.5292264087289662,-5e-324,0.0
1668680540.5035594,25842,1668680540,503339666,,8.68441254708642,2.2795046171106574,11.170900194160922,0.5292264087289662,-5e-324,0.0
1668680540.5119507,25843,1668680540,511732962,,8.703140311818736,2.372508615758959,11.30971025827408,0.5318941465124685,-5e-324,0.0
1668680540.5198193,25844,1668680540,519584565,,8.730790622694368,2.4063787774039804,11.40673117626546,0.5352671405655411,-5e-324,0.0
1668680540.5277407,25845,1668680540,527527905,,8.745296816131974,2.424075322866752,11.458220180693566,0.5370523368151959,-5e-324,0.0
1668680540.535769,25846,1668680540,535557875,,8.80031737551769,2.3374538408622736,11.529568468313572,0.5448455490001215,-5e-324,0.0
1668680540.5436118,25847,1668680540,543390674,,8.80031737551769,2.3374538408622736,11.529568468313572,0.5448455490001215,-5e-324,0.0
1668680540.5519545,25848,1668680540,551693580,,8.979604648815815,2.166464992337622,11.290912052681268,0.5666974066151094,-5e-324,0.0
1668680540.5598588,25849,1668680540,559628868,,9.074886522867228,2.0762553135873825,11.164220831213022,0.5782518580260001,-5e-324,0.0
1668680540.5680575,25850,1668680540,567823631,,9.085963499595994,2.0301055273256985,11.06949856803685,0.5773388332902643,-5e-324,0.0
1668680540.5763834,25851,1668680540,576067123,,9.119172031266878,2.254848808118808,11.23520192636915,0.5838990764587701,-5e-324,0.0
1668680540.5842564,25852,1668680540,583834396,,9.119172031266878,2.254848808118808,11.23520192636915,0.5838990764587701,-5e-324,0.0
1668680540.5918863,25853,1668680540,591683682,,9.1366850544559,2.373052718968359,11.32311678941834,0.5873697560509455,-5e-324,0.0
1668680540.5999646,25854,1668680540,599747524,,9.07424697171573,2.5757547327163666,11.58343755460471,0.5829673094304422,-5e-324,0.0
1668680540.607941,25855,1668680540,607723943,,9.041289556437698,2.683499509444574,11.720959905690325,0.5806372367527866,-5e-324,0.0
1668680540.6154346,25856,1668680540,615211419,,9.041289556437698,2.683499509444574,11.720959905690325,0.5806372367527866,-5e-324,0.0
1668680540.6236634,25857,1668680540,623464516,,9.071868257784923,2.9773295905457906,11.939127184895046,0.5892472154126374,-5e-324,0.0
1668680540.631776,25858,1668680540,631556185,,9.04414688764507,3.2719410802540576,12.197807728414187,0.5895075094703277,-5e-324,0.0
1668680540.639878,25859,1668680540,639647297,,9.029264938307243,3.4275085225426523,12.33493365671297,0.5896546628631838,-5e-324,0.0
1668680540.647983,25860,1668680540,647739419,,8.978425618385618,3.5357453827978773,12.425990147918137,0.5841675910641736,-5e-324,0.0
1668680540.6555984,25861,1668680540,655379634,,8.978425618385618,3.5357453827978773,12.425990147918137,0.5841675910641736,-5e-324,0.0
1668680540.6637328,25862,1668680540,663485214,,8.768702104763722,3.281043500470643,12.25566867091581,0.5485886581870953,-5e-324,0.0
1668680540.6718936,25863,1668680540,671703624,,8.65785514363412,3.1452142268380134,12.165800583173564,0.5297627395415878,-5e-324,0.0
1668680540.679878,25864,1668680540,679677718,,8.817458251907516,2.8877685497568466,11.762493599414764,0.5494442177762504,-5e-324,0.0
1668680540.6877625,25865,1668680540,687466718,,8.901248324073268,2.7518130685384854,11.549568533967344,0.5598653720642663,-5e-324,0.0
1668680540.695907,25866,1668680540,695653186,,8.66382618374681,2.650733805044895,11.458231172307148,0.5215641149566626,-5e-324,0.0
1668680540.703757,25867,1668680540,703542508,,8.66382618374681,2.650733805044895,11.458231172307148,0.5215641149566626,-5e-324,0.0
1668680540.712007,25868,1668680540,711788948,,8.446461694391994,2.520480948761573,11.317803797846448,0.4835912587426421,-5e-324,0.0
1668680540.7203119,25869,1668680540,720022177,,8.331189930225632,2.4519228541209563,11.24361164169858,0.4635042457071403,-5e-324,0.0
1668680540.7282357,25870,1668680540,727937178,,8.169920518278953,2.3868459293726176,11.201131039190495,0.4390877524693344,-5e-324,0.0
1668680540.7361763,25871,1668680540,735932548,,8.274691639514364,2.674478436407987,11.311612484620866,0.459428559186975,-5e-324,0.0
1668680540.7433922,25872,1668680540,743220333,,8.274691639514364,2.674478436407987,11.311612484620866,0.459428559186975,-5e-324,0.0
1668680540.7523699,25873,1668680540,752179068,,8.330020231471696,2.8258221867496007,11.37041266890547,0.47019060044540084,-5e-324,0.0
1668680540.7606945,25874,1668680540,760462869,,8.3362485940779,2.9020900010023256,11.439624023553497,0.47240864930532933,-5e-324,0.0
1668680540.7687163,25875,1668680540,768442740,,8.339883401796815,2.9420336259456485,11.476118740497515,0.47357795185037477,-5e-324,0.0
1668680540.7759886,25876,1668680540,775761812,,8.339883401796815,2.9420336259456485,11.476118740497515,0.47357795185037477,-5e-324,0.0
1668680540.783704,25877,1668680540,783461359,,8.483169233902807,2.7832262752581993,11.225017058638741,0.49289534772386834,-5e-324,0.0
1668680540.7918434,25878,1668680540,791622911,,8.455163550604134,2.7657666547904176,11.048746296321706,0.48859102865906784,-5e-324,0.0
1668680540.8002315,25879,1668680540,799665321,,8.440275758713577,2.7568557132655775,10.955438255467538,0.4863132717672408,-5e-324,0.0
1668680540.8078067,25880,1668680540,807522647,,8.46143694545666,2.877739801458536,10.946019930001096,0.4923382540939749,-5e-324,0.0
1668680540.8155777,25881,1668680540,815352160,,8.46143694545666,2.877739801458536,10.946019930001096,0.4923382540939749,-5e-324,0.0
1668680540.8238313,25882,1668680540,823634338,,8.44266907294811,3.0534658591365726,11.037969602442885,0.4921446081587014,-5e-324,0.0
1668680540.8323362,25883,1668680540,832102229,,8.432754227395991,3.1457870094781244,11.086834732772807,0.49204551348409814,-5e-324,0.0
1668680540.8398068,25884,1668680540,839568523,,8.482813914461106,3.1810790965928084,11.126891573016856,0.5029499989401308,-5e-324,0.0
1668680540.8478146,25885,1668680540,847540185,,8.509548971546888,3.2000435332006028,11.147787821908885,0.5087164896973289,-5e-324,0.0
1668680540.8561783,25886,1668680540,855869421,,8.571561179841712,3.2321471722785544,11.106406915880978,0.5182761032496567,-5e-324,0.0
1668680540.864298,25887,1668680540,863669703,,8.571561179841712,3.2321471722785544,11.106406915880978,0.5182761032496567,-5e-324,0.0
1668680540.8720355,25888,1668680540,871702021,,8.695817749911487,3.3254363105859897,11.167503723489759,0.5386796451724174,-5e-324,0.0
1668680540.8801367,25889,1668680540,879897271,,8.761614588597453,3.374835653874058,11.199768867314091,0.5494733161501512,-5e-324,0.0
1668680540.8878026,25890,1668680540,887495366,,8.786424762954095,3.5656042881918495,11.425772938792221,0.5569730237883065,-5e-324,0.0
1668680540.8959196,25891,1668680540,895658305,,8.786424762954095,3.5656042881918495,11.425772938792221,0.5569730237883065,-5e-324,0.0
1668680540.90381,25892,1668680540,903468818,,8.995453275782753,4.225201830625968,11.994438934429809,0.5982620390181301,-5e-324,0.0
1668680540.911971,25893,1668680540,911716180,,9.106070562158237,4.573970727983472,12.29538046803654,0.6200833032587516,-5e-324,0.0
1668680540.91981,25894,1668680540,919557167,,9.166634484771178,4.855926111948266,12.541936638299052,0.6328325486626815,-5e-324,0.0
1668680540.9280658,25895,1668680540,927819793,,9.197870325912984,5.005563536340674,12.672775821482542,0.6395775080916809,-5e-324,0.0
1668680540.9355564,25896,1668680540,935313593,,9.197870325912984,5.005563536340674,12.672775821482542,0.6395775080916809,-5e-324,0.0
1668680540.9439585,25897,1668680540,943726590,,9.274145162415204,5.132026235847547,12.862823817340049,0.64973864982408,-5e-324,0.0
1668680540.9519892,25898,1668680540,951763496,,9.257312244102545,5.149713265756435,13.02637060966637,0.6445614569460516,-5e-324,0.0
1668680540.9603817,25899,1668680540,960131477,,9.248319385440247,5.158638817282174,13.113149880946514,0.6418256531882105,-5e-324,0.0
1668680540.9679878,25900,1668680540,967637927,,9.118323880833804,5.069441816880772,13.241891829963034,0.617697709605529,-5e-324,0.0
1668680540.9754736,25901,1668680540,975274122,,9.118323880833804,5.069441816880772,13.241891829963034,0.617697709605529,-5e-324,0.0
1668680540.9843884,25902,1668680540,983955356,,9.260669663846546,5.418084853366361,13.597043257735272,0.639583041038408,-5e-324,0.0
1668680540.9918687,25903,1668680540,991643967,,9.336471243472928,5.602447601547769,13.784649607558414,0.65117186827636,-5e-324,0.0
1668680540.9997275,25904,1668680540,999487563,,9.084929845086364,5.997914401467268,14.31331239861828,0.6175809056096879,-5e-324,0.0
1668680541.008039,25905,1668680541,7826110,,8.951479568455722,6.2074564601471,14.593096510818597,0.599773688913821,-5e-324,0.0
1668680541.016227,25906,1668680541,15766533,,8.983266414372537,6.899806394743081,15.350730477210183,0.6177599004107075,-5e-324,0.0
1668680541.0237572,25907,1668680541,23404666,,8.983266414372537,6.899806394743081,15.350730477210183,0.6177599004107075,-5e-324,0.0
1668680541.0326905,25908,1668680541,32353071,,9.19190633236045,7.709991124180265,16.02422211819356,0.6622016657234455,-5e-324,0.0
1668680541.0399637,25909,1668680541,39624780,,9.303059232405335,8.13775140495384,16.38058405244453,0.6857581375598292,-5e-324,0.0
1668680541.0478747,25910,1668680541,47599168,,8.987493419400632,8.772704905652951,17.10568129444149,0.6592017243802857,0.027346144632668077,0.0
1668680541.0559514,25911,1668680541,55717204,,8.900863662076215,8.803936219472325,16.458076819679267,0.6885341760900466,0.01446823826682452,0.0
1668680541.0636861,25912,1668680541,63458210,,8.900863662076215,8.803936219472325,16.458076819679267,0.6885341760900466,0.01446823826682452,0.0
1668680541.0718896,25913,1668680541,71654592,,8.855476966117049,8.819927408052433,16.11549481601525,0.7040665698601166,0.007654823791706894,0.0
1668680541.0797904,25914,1668680541,79559632,,8.784643359757599,8.835730828553,15.712457290655106,0.7061620659224158,0.004049997394391999,0.0
1668680541.0878956,25915,1668680541,87685118,,8.747003727746133,8.844044439384,15.499345317007926,0.7072608315945212,0.0021427637449149576,0.0
1668680541.0958953,25916,1668680541,95627860,,8.853950599580937,8.63689748196424,14.551452829085086,0.7524895978780837,0.0011336887457951705,0.0
1668680541.1033235,25917,1668680541,103146462,,8.853950599580937,8.63689748196424,14.551452829085086,0.7524895978780837,0.0011336887457951705,0.0
1668680541.1119072,25918,1668680541,111682952,,8.97017285299552,8.564651313419343,13.887426103643934,0.7954102933252061,0.0005998095568831066,0.0
1668680541.1198597,25919,1668680541,119631602,,9.03129326347117,8.52651599335566,13.53630934428277,0.8181066951484417,0.0003173459257337555,0.0
1668680541.1277478,25920,1668680541,127537613,,8.955732786482134,8.557138362048518,13.076758781338127,0.8341225913300963,0.00016790068684991087,0.0
1668680541.1355991,25921,1668680541,135318232,,8.955732786482134,8.557138362048518,13.076758781338127,0.8341225913300963,0.00016790068684991087,0.0
1668680541.1438677,25922,1668680541,143516071,,9.087764783738496,8.742754507975839,12.7502147863637,0.8795544906866084,8.883252740519821e-05,0.0
1668680541.1519656,25923,1668680541,151752653,,9.158500600655557,8.8400442734205,12.577454762186505,0.9036118254153482,4.6999318902425804e-05,0.0
1668680541.1603348,25924,1668680541,159702825,,9.139149527717208,8.909103299745317,12.410080155283023,0.9181034823528129,2.4866296634971786e-05,0.0
1668680541.168346,25925,1668680541,167963229,,9.128419215950466,8.944993141250194,12.322391649400593,0.9257595029084607,1.3156205723366235e-05,0.0
1668680541.175618,25926,1668680541,175307333,,9.128419215950466,8.944993141250194,12.322391649400593,0.9257595029084607,1.3156205723366235e-05,0.0
1668680541.1841702,25927,1668680541,183958078,,9.112510458573297,9.018736897819625,12.251282327528557,0.9374980832809909,6.960656489238043e-06,0.0
1668680541.1918228,25928,1668680541,191596011,,9.107571007975825,9.039764030523003,12.242466392843934,0.9475914919411542,3.682728879430653e-06,0.0
1668680541.2001832,25929,1668680541,199928713,,9.105190133603184,9.051223941657131,12.237369860722644,0.9529410564125491,1.948450123973463e-06,0.0
1668680541.2101042,25930,1668680541,208249338,,9.033621344751907,8.996812628045358,12.250599840139726,0.941401438870619,1.0308817211108769e-06,0.0
1668680541.216712,25931,1668680541,216473374,,8.970884035893793,8.794824693178292,12.257041965298509,0.9206457524562738,5.454166415886135e-07,0.0
1668680541.223741,25932,1668680541,223481793,,8.970884035893793,8.794824693178292,12.257041965298509,0.9206457524562738,5.454166415886135e-07,0.0
1668680541.2325182,25933,1668680541,232271215,,8.937330907922593,8.688043251721194,12.260657238985603,0.9096630549302221,2.8856784132445253e-07,0.0
1668680541.240542,25934,1668680541,240278063,,9.021246613996503,8.574295311255668,12.263170217472226,0.9118482102977656,1.5267484102449295e-07,0.0
1668680541.2487228,25935,1668680541,248469554,,9.064854048364122,8.5132674392458,12.265705006170702,0.9130135191924797,8.077687026686365e-08,0.0
1668680541.256742,25936,1668680541,256480284,,9.175305118398473,8.346784360394642,12.145846604091219,0.9182383487267991,4.273724947951942e-08,0.0
1668680541.2639802,25937,1668680541,263720258,,9.175305118398473,8.346784360394642,12.145846604091219,0.9182383487267991,4.273724947951942e-08,0.0
1668680541.2726696,25938,1668680541,272409887,,9.226354510315343,8.240999619647363,11.998474204166797,0.918436435590777,2.2611330286015546e-08,0.0
1668680541.2805898,25939,1668680541,280314785,,9.25315762158362,8.185411456860932,11.920397532959493,0.9185172886633453,1.196315306974297e-08,0.0
1668680541.2885437,25940,1668680541,288371896,,9.139014320356022,7.972435427299777,11.841137904522611,0.8949936239189393,6.329438806111041e-09,0.0
1668680541.2966993,25941,1668680541,296440006,,8.721858413296353,7.556751500266907,12.08607597176791,0.8089188221639942,3.3487656111019807e-09,0.0
1668680541.3039134,25942,1668680541,303717854,,8.721858413296353,7.556751500266907,12.08607597176791,0.8089188221639942,3.3487656111019807e-09,0.0
1668680541.3125453,25943,1668680541,312215343,,8.50073627758342,7.3377841954130965,12.215371669668727,0.7633431293567161,1.7717575699241993e-09,0.0
1668680541.3204877,25944,1668680541,320245840,,8.343649995121918,7.370208642768347,12.940368427075366,0.7031407495136166,9.37397611877264e-10,0.0
1668680541.3292298,25945,1668680541,328943517,,8.260873174317954,7.387461179194341,13.323685027727162,0.6713300025503155,4.959562739674321e-10,0.0
1668680541.336517,25946,1668680541,336325331,,7.865131349431918,7.693429657247959,14.996790512225267,0.5525995246514459,2.6239945842732143e-10,0.0
1668680541.3439975,25947,1668680541,343754876,,7.865131349431918,7.693429657247959,14.996790512225267,0.5525995246514459,2.6239945842732143e-10,0.0
1668680541.3527586,25948,1668680541,352512929,,7.384969263783253,7.5175671826634405,15.923222751265083,0.4402815376530109,1.3882973035536794e-10,0.0
1668680541.360669,25949,1668680541,360446495,,7.1314109031255235,7.425610150575189,16.41266181506215,0.38088310607498654,7.345172945881876e-11,0.0
1668680541.3686347,25950,1668680541,368390440,,7.33537235502811,7.19542360331918,16.37629134048664,0.3940747443245004,3.8861680035546474e-11,0.0
1668680541.3760033,25951,1668680541,375726031,,7.33537235502811,7.19542360331918,16.37629134048664,0.3940747443245004,3.8861680035546474e-11,0.0
1668680541.3840904,25952,1668680541,383778103,,7.765538127171132,7.238339264049664,16.233570024331634,0.4489809530074036,2.0560852498808933e-11,0.0
1668680541.391776,25953,1668680541,391512618,,7.9924463841084386,7.26081342323352,16.158541628279906,0.4780321659712814,1.0878290776186019e-11,0.0
1668680541.399822,25954,1668680541,399583487,,8.216576278148873,7.246651863279356,16.001221377953396,0.511605709575133,5.75546224156362e-12,0.0
1668680541.4079685,25955,1668680541,407667398,,8.335816502058726,7.24076158290303,15.916832247196604,0.5293857471483533,3.045087348334187e-12,0.0
1668680541.4160283,25956,1668680541,415750581,,8.335816502058726,7.24076158290303,15.916832247196604,0.5293857471483533,3.045087348334187e-12,0.0
1668680541.4246325,25957,1668680541,424401498,,8.485870639732706,7.299238163478497,15.753269225616709,0.5527816089722453,1.6110881402404616e-12,0.0
1668680541.4343033,25958,1668680541,432152795,,8.611712653786727,7.386413423832279,15.632287348733563,0.5718889423760762,8.523909821645652e-13,0.0
1668680541.4404194,25959,1668680541,440105652,,8.678199213368003,7.4322514635988215,15.568480187257776,0.5820039292578192,4.5098115263081045e-13,0.0
1668680541.4483185,25960,1668680541,448069957,,8.832699372806053,7.791196850429305,16.0403708903971,0.6139419054384971,2.386041198039662e-13,0.0
1668680541.4562812,25961,1668680541,455760935,,8.822758944029344,8.274409035142742,16.51577752451279,0.6242893917087953,1.2624014474953459e-13,0.0
1668680541.463914,25962,1668680541,463556072,,8.822758944029344,8.274409035142742,16.51577752451279,0.6242893917087953,1.2624014474953459e-13,0.0
1668680541.472011,25963,1668680541,471741779,,8.817751727087446,8.529115876810643,16.767684256916265,0.6297855662121863,6.679085909948541e-14,0.0
1668680541.4798272,25964,1668680541,479542644,,8.945616087074509,8.60614074584284,16.920905207276917,0.653619480010169,3.5337561344674864e-14,0.0
1668680541.4876885,25965,1668680541,487458255,,9.012748823227613,8.646270150912487,17.00259311457721,0.6662119889408795,1.8696319505767222e-14,0.0
1668680541.4968116,25966,1668680541,495643659,,9.720523500922068,8.420364050886608,15.831379948364141,0.8207653977047873,9.89180774678463e-15,0.0
1668680541.5039024,25967,1668680541,503664675,,9.720523500922068,8.420364050886608,15.831379948364141,0.8207653977047873,9.89180774678463e-15,0.0
1668680541.5117745,25968,1668680541,511522037,,10.194407519963267,8.30122345366351,15.149470990789556,0.9219873855110945,5.233535962474617e-15,0.0
1668680541.5200055,25969,1668680541,519801998,,10.445586098018254,8.237222700364079,14.788915322786542,0.9755519614925863,2.7689477365164433e-15,0.0
1668680541.5278301,25970,1668680541,527618394,,10.812110169807525,8.172724482416335,13.947673884503809,1.0641143915061795,1.4649887996440265e-15,0.0
1668680541.5356405,25971,1668680541,535422715,,10.812110169807525,8.172724482416335,13.947673884503809,1.0641143915061795,1.4649887996440265e-15,0.0
1668680541.5440586,25972,1668680541,543778983,,11.032014747770027,8.346366592972377,13.295164424446988,1.119626428684338,7.750930632524419e-16,0.0
1668680541.5519178,25973,1668680541,551689213,,11.148582281856509,8.438292428160745,12.949696986215859,1.1489944787262405,4.100845391091271e-16,0.0
1668680541.5598655,25974,1668680541,559647841,,11.238974691437832,8.374286484085182,12.55656032709691,1.1875881110200313,2.1696662915634136e-16,0.0
1668680541.567984,25975,1668680541,567763293,,11.28668526896299,8.340147429460615,12.34886274545865,1.2080040746250011,1.147922286212756e-16,0.0
1668680541.575827,25976,1668680541,575617843,,11.333104298960514,8.571499803820224,12.265595715816808,1.239629686997085,6.07340207251133e-17,0.0
1668680541.5836775,25977,1668680541,583400400,,11.333104298960514,8.571499803820224,12.265595715816808,1.239629686997085,6.07340207251133e-17,0.0
1668680541.5922458,25978,1668680541,591992862,,11.569834994073979,8.894127849075588,12.334380131843506,1.2925546421832994,3.2133022572530154e-17,0.0
1668680541.6000426,25979,1668680541,599833209,,11.695229490471416,9.065442868273179,12.37015918616881,1.3205546365678567,1.700086915569192e-17,0.0
1668680541.6080275,25980,1668680541,607764806,,11.672911711414725,9.152127934176876,12.569060385959613,1.3206687559421333,8.994782591540024e-18,0.0
1668680541.6158133,25981,1668680541,615557110,,11.672911711414725,9.152127934176876,12.569060385959613,1.3206687559421333,8.994782591540024e-18,0.0
1668680541.6240935,25982,1668680541,623842028,,11.694868561830784,9.252763788352379,12.724593010897266,1.3306696450411708,4.758939859376777e-18,0.0
1668680541.6323662,25983,1668680541,631979848,,11.706500844537825,9.307025206713245,12.806109031340318,1.335944047335129,2.5178494704770296e-18,0.0
1668680541.6399627,25984,1668680541,639679542,,11.738334479542832,9.345500754271054,12.826007154119129,1.3431873422114768,1.3321382793880647e-18,0.0
1668680541.6476793,25985,1668680541,647490223,,11.755295831249914,9.366499716813212,12.83594317288743,1.3470179910050264,7.048048011681894e-19,0.0
1668680541.6557233,25986,1668680541,655528029,,11.909156631762158,9.472283310913834,12.828732856722224,1.3708355118272049,3.728965794586426e-19,0.0
1668680541.6637063,25987,1668680541,663511252,,11.909156631762158,9.472283310913834,12.828732856722224,1.3708355118272049,3.728965794586426e-19,0.0
1668680541.671806,25988,1668680541,671586221,,12.123137111271202,9.664783058089187,12.911715243681634,1.402541755793794,1.9729130497051403e-19,0.0
1668680541.6799757,25989,1668680541,679691901,,12.236688185179286,9.766743564470556,12.955208203470558,1.4193311385118283,1.0438245122408092e-19,0.0
1668680541.6878273,25990,1668680541,687576633,,12.272299404877497,9.880685433593897,13.056327155289853,1.435770544948764,5.522643851525052e-20,0.0
1668680541.6956303,25991,1668680541,695350261,,12.272299404877497,9.880685433593897,13.056327155289853,1.435770544948764,5.522643851525052e-20,0.0
1668680541.703818,25992,1668680541,703597265,,12.239088114401596,9.7353250100246,13.147625419365676,1.4345851120205777,2.9219083048081585e-20,0.0
1668680541.7119157,25993,1668680541,711670276,,12.221253323233064,9.658097379354086,13.196411217808866,1.4339555303322373,1.5459168418671944e-20,0.0
1668680541.7198586,25994,1668680541,719672515,,12.290563292220803,9.633167397625778,13.2493936794009,1.4332172129639362,8.179102944592743e-21,0.0
1668680541.7281954,25995,1668680541,727966936,,12.326824121667524,9.620100905671952,13.277716658633384,1.4328088510628858,4.327381859521309e-21,0.0
1668680541.735565,25996,1668680541,735314203,,12.326824121667524,9.620100905671952,13.277716658633384,1.4328088510628858,4.327381859521309e-21,0.0
1668680541.7437217,25997,1668680541,743530270,,12.191905006398589,9.439313053217301,13.278649831961683,1.401035895615962,2.289521709773091e-21,0.0
1668680541.7517953,25998,1668680541,751615563,,12.170495814926284,9.409825378658248,13.26806585010429,1.3904480301340203,1.2113351281881449e-21,0.0
1668680541.7618716,25999,1668680541,761434857,,12.159893078537536,9.394403680263343,13.26166729916823,1.3848602578052853,6.408905346994999e-22,0.0
1668680541.767815,26000,1668680541,767552125,,11.928265189055757,9.190989727671063,13.301184600894276,1.3446654966552658,3.390809594383484e-22,0.0
