Time,header.seq,header.stamp.secs,header.stamp.nsecs,header.frame_id,pose.position.x,pose.position.y,pose.position.z,pose.orientation.x,pose.orientation.y,pose.orientation.z,pose.orientation.w
1668680538.2324412,25558,1668680538,232262761,,-0.09879818042605837,-0.6160097982720756,0.07088206676343922,0.9955612156868469,0.09352316526210465,-0.004347595386304483,0.009611544820768937
1668680538.2405174,25559,1668680538,240333580,,-0.09879818042605837,-0.6160097982720756,0.07088206676343922,0.9955612156868469,0.09352316526210465,-0.004347595386304483,0.009611544820768937
1668680538.2483792,25560,1668680538,248174091,,-0.09879818042605837,-0.6160097982720756,0.07088206676343922,0.9955612156868469,0.09352316526210465,-0.004347595386304483,0.009611544820768937
1668680538.2558308,25561,1668680538,255706341,,-0.09879818042605837,-0.6160097982720756,0.07088206676343922,0.9955612156868469,0.09352316526210465,-0.004347595386304483,0.009611544820768937
1668680538.2646508,25562,1668680538,264442075,,-0.09879818042605837,-0.6160097982720756,0.07088206676343922,0.9955612156868469,0.09352316526210465,-0.004347595386304483,0.009611544820768937
1668680538.2720752,25563,1668680538,271922129,,-0.09879818042605837,-0.6160097982720756,0.07088206676343922,0.9955612156868469,0.09352316526210465,-0.004347595386304483,0.009611544820768937
1668680538.280606,25564,1668680538,280466456,,-0.09879818042605837,-0.6160097982720756,0.07088206676343922,0.9955612156868469,0.09352316526210465,-0.004347595386304483,0.009611544820768937
1668680538.2886095,25565,1668680538,288438498,,-0.09879818042605837,-0.6160097982720756,0.07088206676343922,0.9955612156868469,0.09352316526210465,-0.004347595386304483,0.009611544820768937
1668680538.2961524,25566,1668680538,295993976,,-0.09879818042605837,-0.6160097982720756,0.07088206676343922,0.9955612156868469,0.09352316526210465,-0.004347595386304483,0.009611544820768937
1668680538.304067,25567,1668680538,303845594,,-0.09879818042605837,-0.6160097982720756,0.07088206676343922,0.9955612156868469,0.09352316526210465,-0.004347595386304483,0.009611544820768937
1668680538.311793,25568,1668680538,311665320,,-0.09879818042605837,-0.6160097982720756,0.07088206676343922,0.9955612156868469,0.09352316526210465,-0.004347595386304483,0.009611544820768937
1668680538.31985,25569,1668680538,319727839,,-0.09879818042605837,-0.6160097982720756,0.07088206676343922,0.9955612156868469,0.09352316526210465,-0.004347595386304483,0.009611544820768937
1668680538.3279586,25570,1668680538,327745720,,-0.09879818042605837,-0.6160097982720756,0.07088206676343922,0.9955612156868469,0.09352316526210465,-0.004347595386304483,0.009611544820768937
1668680538.335522,25571,1668680538,335372716,,-0.09879818042605837,-0.6160097982720756,0.07088206676343922,0.9955612156868469,0.09352316526210465,-0.004347595386304483,0.009611544820768937
1668680538.3436432,25572,1668680538,343475193,,-0.09879818042605837,-0.6160097982720756,0.07088206676343922,0.9955612156868469,0.09352316526210465,-0.004347595386304483,0.009611544820768937
1668680538.3528476,25573,1668680538,352660010,,-0.09879818042605837,-0.6160097982720756,0.07088206676343922,0.9955612156868469,0.09352316526210465,-0.004347595386304483,0.009611544820768937
1668680538.3633726,25574,1668680538,363079033,,-0.09879818042605837,-0.6160097982720756,0.07088206676343922,0.9955612156868469,0.09352316526210465,-0.004347595386304483,0.009611544820768937
1668680538.3677773,25575,1668680538,367571606,,-0.09879818042605837,-0.6160097982720756,0.07088206676343922,0.9955612156868469,0.09352316526210465,-0.004347595386304483,0.009611544820768937
1668680538.3758092,25576,1668680538,375613869,,-0.09879818042605837,-0.6160097982720756,0.07088206676343922,0.9955612156868469,0.09352316526210465,-0.004347595386304483,0.009611544820768937
1668680538.3835006,25577,1668680538,383396420,,-0.09879818042605837,-0.6160097982720756,0.07088206676343922,0.9955612156868469,0.09352316526210465,-0.004347595386304483,0.009611544820768937
1668680538.3916702,25578,1668680538,391445920,,-0.09879818042605837,-0.6160097982720756,0.07088206676343922,0.9955612156868469,0.09352316526210465,-0.004347595386304483,0.009611544820768937
1668680538.3998017,25579,1668680538,399614611,,-0.09879818042605837,-0.6160097982720756,0.07088206676343922,0.9955612156868469,0.09352316526210465,-0.004347595386304483,0.009611544820768937
1668680538.4077246,25580,1668680538,407585406,,-0.09879818042605837,-0.6160097982720756,0.07088206676343922,0.9955612156868469,0.09352316526210465,-0.004347595386304483,0.009611544820768937
1668680538.4155777,25581,1668680538,415289175,,-0.09879818042605837,-0.6160097982720756,0.07088206676343922,0.9955612156868469,0.09352316526210465,-0.004347595386304483,0.009611544820768937
1668680538.4239204,25582,1668680538,423771182,,-0.09879818042605837,-0.6160097982720756,0.07088206676343922,0.9955612156868469,0.09352316526210465,-0.004347595386304483,0.009611544820768937
1668680538.432169,25583,1668680538,432022400,,-0.09879818042605837,-0.6160097982720756,0.07088206676343922,0.9955612156868469,0.09352316526210465,-0.004347595386304483,0.009611544820768937
1668680538.4398568,25584,1668680538,439698662,,-0.09879818042605837,-0.6160097982720756,0.07088206676343922,0.9955612156868469,0.09352316526210465,-0.004347595386304483,0.009611544820768937
1668680538.4476962,25585,1668680538,447531411,,-0.09879818042605837,-0.6160097982720756,0.07088206676343922,0.9955612156868469,0.09352316526210465,-0.004347595386304483,0.009611544820768937
1668680538.4553378,25586,1668680538,455193564,,-0.09879818042605837,-0.6160097982720756,0.07088206676343922,0.9955612156868469,0.09352316526210465,-0.004347595386304483,0.009611544820768937
1668680538.4641786,25587,1668680538,463925393,,-0.09879818042605837,-0.6160097982720756,0.07088206676343922,0.9955612156868469,0.09352316526210465,-0.004347595386304483,0.009611544820768937
1668680538.472093,25588,1668680538,471897945,,-0.09879818042605837,-0.6160097982720756,0.07088206676343922,0.9955612156868469,0.09352316526210465,-0.004347595386304483,0.009611544820768937
1668680538.479567,25589,1668680538,479416142,,-0.09879818042605837,-0.6160097982720756,0.07088206676343922,0.9955612156868469,0.09352316526210465,-0.004347595386304483,0.009611544820768937
1668680538.4876134,25590,1668680538,487432560,,-0.09879818042605837,-0.6160097982720756,0.07088206676343922,0.9955612156868469,0.09352316526210465,-0.004347595386304483,0.009611544820768937
1668680538.4961114,25591,1668680538,495934611,,-0.09879818042605837,-0.6160097982720756,0.07088206676343922,0.9955612156868469,0.09352316526210465,-0.004347595386304483,0.009611544820768937
1668680538.5035636,25592,1668680538,503300731,,-0.09879818042605837,-0.6160097982720756,0.07088206676343922,0.9955612156868469,0.09352316526210465,-0.004347595386304483,0.009611544820768937
1668680538.512606,25593,1668680538,512128737,,-0.09879818042605837,-0.6160097982720756,0.07088206676343922,0.9955612156868469,0.09352316526210465,-0.004347595386304483,0.009611544820768937
1668680538.5203,25594,1668680538,520044054,,-0.09879818042605837,-0.6160097982720756,0.07088206676343922,0.9955612156868469,0.09352316526210465,-0.004347595386304483,0.009611544820768937
1668680538.5281503,25595,1668680538,527916708,,-0.09879818042605837,-0.6160097982720756,0.07088206676343922,0.9955612156868469,0.09352316526210465,-0.004347595386304483,0.009611544820768937
1668680538.5353773,25596,1668680538,535166618,,-0.09879818042605837,-0.6160097982720756,0.07088206676343922,0.9955612156868469,0.09352316526210465,-0.004347595386304483,0.009611544820768937
1668680538.5437973,25597,1668680538,543615594,,-0.09879818042605837,-0.6160097982720756,0.07088206676343922,0.9955612156868469,0.09352316526210465,-0.004347595386304483,0.009611544820768937
1668680538.5517704,25598,1668680538,551521564,,-0.09879818042605837,-0.6160097982720756,0.07088206676343922,0.9955612156868469,0.09352316526210465,-0.004347595386304483,0.009611544820768937
1668680538.559914,25599,1668680538,559707767,,-0.09879818042605837,-0.6160097982720756,0.07088206676343922,0.9955612156868469,0.09352316526210465,-0.004347595386304483,0.009611544820768937
1668680538.5678146,25600,1668680538,567672575,,-0.09879818042605837,-0.6160097982720756,0.07088206676343922,0.9955612156868469,0.09352316526210465,-0.004347595386304483,0.009611544820768937
1668680538.5757291,25601,1668680538,575554698,,-0.09879818042605837,-0.6160097982720756,0.07088206676343922,0.9955612156868469,0.09352316526210465,-0.004347595386304483,0.009611544820768937
1668680538.5833278,25602,1668680538,583158599,,-0.09879818042605837,-0.6160097982720756,0.07088206676343922,0.9955612156868469,0.09352316526210465,-0.004347595386304483,0.009611544820768937
1668680538.5921137,25603,1668680538,591920155,,-0.09879818042605837,-0.6160097982720756,0.07088206676343922,0.9955612156868469,0.09352316526210465,-0.004347595386304483,0.009611544820768937
1668680538.599726,25604,1668680538,599561430,,-0.09879818042605837,-0.6160097982720756,0.07088206676343922,0.9955612156868469,0.09352316526210465,-0.004347595386304483,0.009611544820768937
1668680538.607728,25605,1668680538,607502079,,-0.09879818042605837,-0.6160097982720756,0.07088206676343922,0.9955612156868469,0.09352316526210465,-0.004347595386304483,0.009611544820768937
1668680538.615477,25606,1668680538,615277578,,-0.09879818042605837,-0.6160097982720756,0.07088206676343922,0.9955612156868469,0.09352316526210465,-0.004347595386304483,0.009611544820768937
1668680538.6238997,25607,1668680538,623677102,,-0.09879818042605837,-0.6160097982720756,0.07088206676343922,0.9955612156868469,0.09352316526210465,-0.004347595386304483,0.009611544820768937
1668680538.631859,25608,1668680538,631624485,,-0.09879818042605837,-0.6160097982720756,0.07088206676343922,0.9955612156868469,0.09352316526210465,-0.004347595386304483,0.009611544820768937
1668680538.6397796,25609,1668680538,639643061,,-0.09879818042605837,-0.6160097982720756,0.07088206676343922,0.9955612156868469,0.09352316526210465,-0.004347595386304483,0.009611544820768937
1668680538.6481414,25610,1668680538,647922662,,-0.09879818042605837,-0.6160097982720756,0.07088206676343922,0.9955612156868469,0.09352316526210465,-0.004347595386304483,0.009611544820768937
1668680538.6555998,25611,1668680538,655378845,,-0.09879818042605837,-0.6160097982720756,0.07088206676343922,0.9955612156868469,0.09352316526210465,-0.004347595386304483,0.009611544820768937
1668680538.6642668,25612,1668680538,664111555,,-0.09879818042605837,-0.6160097982720756,0.07088206676343922,0.9955612156868469,0.09352316526210465,-0.004347595386304483,0.009611544820768937
1668680538.6715481,25613,1668680538,671371757,,-0.09879818042605837,-0.6160097982720756,0.07088206676343922,0.9955612156868469,0.09352316526210465,-0.004347595386304483,0.009611544820768937
1668680538.6798265,25614,1668680538,679692067,,-0.09879818042605837,-0.6160097982720756,0.07088206676343922,0.9955612156868469,0.09352316526210465,-0.004347595386304483,0.009611544820768937
1668680538.6877232,25615,1668680538,687476664,,-0.09879818042605837,-0.6160097982720756,0.07088206676343922,0.9955612156868469,0.09352316526210465,-0.004347595386304483,0.009611544820768937
1668680538.695384,25616,1668680538,695181815,,-0.09879818042605837,-0.6160097982720756,0.07088206676343922,0.9955612156868469,0.09352316526210465,-0.004347595386304483,0.009611544820768937
1668680538.7038257,25617,1668680538,703547929,,-0.09879818042605837,-0.6160097982720756,0.07088206676343922,0.9955612156868469,0.09352316526210465,-0.004347595386304483,0.009611544820768937
1668680538.7117105,25618,1668680538,711453418,,-0.09879818042605837,-0.6160097982720756,0.07088206676343922,0.9955612156868469,0.09352316526210465,-0.004347595386304483,0.009611544820768937
1668680538.719682,25619,1668680538,719521555,,-0.09879818042605837,-0.6160097982720756,0.07088206676343922,0.9955612156868469,0.09352316526210465,-0.004347595386304483,0.009611544820768937
1668680538.7275689,25620,1668680538,727438067,,-0.09879818042605837,-0.6160097982720756,0.07088206676343922,0.9955612156868469,0.09352316526210465,-0.004347595386304483,0.009611544820768937
1668680538.735675,25621,1668680538,735526421,,-0.09879818042605837,-0.6160097982720756,0.07088206676343922,0.9955612156868469,0.09352316526210465,-0.004347595386304483,0.009611544820768937
1668680538.7438598,25622,1668680538,743630412,,-0.09879818042605837,-0.6160097982720756,0.07088206676343922,0.9955612156868469,0.09352316526210465,-0.004347595386304483,0.009611544820768937
1668680538.7525616,25623,1668680538,752156009,,-0.09879818042605837,-0.6160097982720756,0.07088206676343922,0.9955612156868469,0.09352316526210465,-0.004347595386304483,0.009611544820768937
1668680538.759918,25624,1668680538,759782857,,-0.09879818042605837,-0.6160097982720756,0.07088206676343922,0.9955612156868469,0.09352316526210465,-0.004347595386304483,0.009611544820768937
1668680538.7676876,25625,1668680538,767562526,,-0.09879818042605837,-0.6160097982720756,0.07088206676343922,0.9955612156868469,0.09352316526210465,-0.004347595386304483,0.009611544820768937
1668680538.775498,25626,1668680538,775241259,,-0.09879818042605837,-0.6160097982720756,0.07088206676343922,0.9955612156868469,0.09352316526210465,-0.004347595386304483,0.009611544820768937
1668680538.7839878,25627,1668680538,783847406,,-0.09879818042605837,-0.6160097982720756,0.07088206676343922,0.9955612156868469,0.09352316526210465,-0.004347595386304483,0.009611544820768937
1668680538.792045,25628,1668680538,791786000,,-0.09879818042605837,-0.6160097982720756,0.07088206676343922,0.9955612156868469,0.09352316526210465,-0.004347595386304483,0.009611544820768937
1668680538.8003397,25629,1668680538,800012064,,-0.09879818042605837,-0.6160097982720756,0.07088206676343922,0.9955612156868469,0.09352316526210465,-0.004347595386304483,0.009611544820768937
1668680538.8081586,25630,1668680538,807930430,,-0.09879818042605837,-0.6160097982720756,0.07088206676343922,0.9955612156868469,0.09352316526210465,-0.004347595386304483,0.009611544820768937
1668680538.8160126,25631,1668680538,815841141,,-0.09879818042605837,-0.6160097982720756,0.07088206676343922,0.9955612156868469,0.09352316526210465,-0.004347595386304483,0.009611544820768937
1668680538.8235142,25632,1668680538,823299654,,-0.09879818042605837,-0.6160097982720756,0.07088206676343922,0.9955612156868469,0.09352316526210465,-0.004347595386304483,0.009611544820768937
1668680538.8317072,25633,1668680538,831552591,,-0.09879818042605837,-0.6160097982720756,0.07088206676343922,0.9955612156868469,0.09352316526210465,-0.004347595386304483,0.009611544820768937
1668680538.8397055,25634,1668680538,839562169,,-0.09879818042605837,-0.6160097982720756,0.07088206676343922,0.9955612156868469,0.09352316526210465,-0.004347595386304483,0.009611544820768937
1668680538.8480594,25635,1668680538,847865217,,-0.09879818042605837,-0.6160097982720756,0.07088206676343922,0.9955612156868469,0.09352316526210465,-0.004347595386304483,0.009611544820768937
1668680538.8556433,25636,1668680538,855451764,,-0.09879818042605837,-0.6160097982720756,0.07088206676343922,0.9955612156868469,0.09352316526210465,-0.004347595386304483,0.009611544820768937
1668680538.863683,25637,1668680538,863510375,,-0.09879818042605837,-0.6160097982720756,0.07088206676343922,0.9955612156868469,0.09352316526210465,-0.004347595386304483,0.009611544820768937
1668680538.8716605,25638,1668680538,871485075,,-0.09879818042605837,-0.6160097982720756,0.07088206676343922,0.9955612156868469,0.09352316526210465,-0.004347595386304483,0.009611544820768937
1668680538.879878,25639,1668680538,879753405,,-0.09879818042605837,-0.6160097982720756,0.07088206676343922,0.9955612156868469,0.09352316526210465,-0.004347595386304483,0.009611544820768937
1668680538.887811,25640,1668680538,887612788,,-0.09879818042605837,-0.6160097982720756,0.07088206676343922,0.9955612156868469,0.09352316526210465,-0.004347595386304483,0.009611544820768937
1668680538.8955715,25641,1668680538,895408641,,-0.09879818042605837,-0.6160097982720756,0.07088206676343922,0.9955612156868469,0.09352316526210465,-0.004347595386304483,0.009611544820768937
1668680538.9034507,25642,1668680538,903260306,,-0.09879818042605837,-0.6160097982720756,0.07088206676343922,0.9955612156868469,0.09352316526210465,-0.004347595386304483,0.009611544820768937
1668680538.9124138,25643,1668680538,912217568,,-0.09879818042605837,-0.6160097982720756,0.07088206676343922,0.9955612156868469,0.09352316526210465,-0.004347595386304483,0.009611544820768937
1668680538.919667,25644,1668680538,919539387,,-0.09879818042605837,-0.6160097982720756,0.07088206676343922,0.9955612156868469,0.09352316526210465,-0.004347595386304483,0.009611544820768937
1668680538.9280624,25645,1668680538,927876640,,-0.09879818042605837,-0.6160097982720756,0.07088206676343922,0.9955612156868469,0.09352316526210465,-0.004347595386304483,0.009611544820768937
1668680538.9357207,25646,1668680538,935510813,,-0.09879818042605837,-0.6160097982720756,0.07088206676343922,0.9955612156868469,0.09352316526210465,-0.004347595386304483,0.009611544820768937
1668680538.9437194,25647,1668680538,943428488,,-0.09879818042605837,-0.6160097982720756,0.07088206676343922,0.9955612156868469,0.09352316526210465,-0.004347595386304483,0.009611544820768937
1668680538.9517457,25648,1668680538,951621414,,-0.09879818042605837,-0.6160097982720756,0.07088206676343922,0.9955612156868469,0.09352316526210465,-0.004347595386304483,0.009611544820768937
1668680538.960784,25649,1668680538,960533504,,-0.09879818042605837,-0.6160097982720756,0.07088206676343922,0.9955612156868469,0.09352316526210465,-0.004347595386304483,0.009611544820768937
1668680538.9683204,25650,1668680538,968119077,,-0.09879818042605837,-0.6160097982720756,0.07088206676343922,0.9955612156868469,0.09352316526210465,-0.004347595386304483,0.009611544820768937
1668680538.976567,25651,1668680538,976360879,,-0.09879818042605837,-0.6160097982720756,0.07088206676343922,0.9955612156868469,0.09352316526210465,-0.004347595386304483,0.009611544820768937
1668680538.9834104,25652,1668680538,983209312,,-0.09879818042605837,-0.6160097982720756,0.07088206676343922,0.9955612156868469,0.09352316526210465,-0.004347595386304483,0.009611544820768937
1668680538.991748,25653,1668680538,991528036,,-0.09879818042605837,-0.6160097982720756,0.07088206676343922,0.9955612156868469,0.09352316526210465,-0.004347595386304483,0.009611544820768937
1668680538.9996886,25654,1668680538,999557375,,-0.09879818042605837,-0.6160097982720756,0.07088206676343922,0.9955612156868469,0.09352316526210465,-0.004347595386304483,0.009611544820768937
1668680539.0077279,25655,1668680539,7507886,,-0.09879818042605837,-0.6160097982720756,0.07088206676343922,0.9955612156868469,0.09352316526210465,-0.004347595386304483,0.009611544820768937
1668680539.0153468,25656,1668680539,15223298,,-0.09879818042605837,-0.6160097982720756,0.07088206676343922,0.9955612156868469,0.09352316526210465,-0.004347595386304483,0.009611544820768937
1668680539.0236993,25657,1668680539,23435457,,-0.09879818042605837,-0.6160097982720756,0.07088206676343922,0.9955612156868469,0.09352316526210465,-0.004347595386304483,0.009611544820768937
1668680539.0317647,25658,1668680539,31519942,,-0.09879818042605837,-0.6160097982720756,0.07088206676343922,0.9955612156868469,0.09352316526210465,-0.004347595386304483,0.009611544820768937
1668680539.0398088,25659,1668680539,39678808,,-0.09879818042605837,-0.6160097982720756,0.07088206676343922,0.9955612156868469,0.09352316526210465,-0.004347595386304483,0.009611544820768937
1668680539.0480022,25660,1668680539,47749216,,-0.09879818042605837,-0.6160097982720756,0.07088206676343922,0.9955612156868469,0.09352316526210465,-0.004347595386304483,0.009611544820768937
1668680539.0554051,25661,1668680539,55245451,,-0.09879818042605837,-0.6160097982720756,0.07088206676343922,0.9955612156868469,0.09352316526210465,-0.004347595386304483,0.009611544820768937
1668680539.0638776,25662,1668680539,63584094,,-0.09879818042605837,-0.6160097982720756,0.07088206676343922,0.9955612156868469,0.09352316526210465,-0.004347595386304483,0.009611544820768937
1668680539.071837,25663,1668680539,71710577,,-0.09879818042605837,-0.6160097982720756,0.07088206676343922,0.9955612156868469,0.09352316526210465,-0.004347595386304483,0.009611544820768937
1668680539.0802164,25664,1668680539,79830486,,-0.09879818042605837,-0.6160097982720756,0.07088206676343922,0.9955612156868469,0.09352316526210465,-0.004347595386304483,0.009611544820768937
1668680539.088257,25665,1668680539,87891196,,-0.09879818042605837,-0.6160097982720756,0.07088206676343922,0.9955612156868469,0.09352316526210465,-0.004347595386304483,0.009611544820768937
1668680539.0960793,25666,1668680539,95887480,,-0.09879818042605837,-0.6160097982720756,0.07088206676343922,0.9955612156868469,0.09352316526210465,-0.004347595386304483,0.009611544820768937
1668680539.1043885,25667,1668680539,104195185,,-0.09879818042605837,-0.6160097982720756,0.07088206676343922,0.9955612156868469,0.09352316526210465,-0.004347595386304483,0.009611544820768937
1668680539.1124642,25668,1668680539,112274182,,-0.09879818042605837,-0.6160097982720756,0.07088206676343922,0.9955612156868469,0.09352316526210465,-0.004347595386304483,0.009611544820768937
1668680539.1206102,25669,1668680539,120362378,,-0.09879739085812189,-0.6160090541218269,0.07088206676343922,0.9955612156868469,0.09352316526210465,-0.004347595386304483,0.009611544820768937
1668680539.1284928,25670,1668680539,128313586,,-0.0987950221592998,-0.6160068216757817,0.07088206676343922,0.9955612156868469,0.09352316526210465,-0.004347595386304483,0.009611544820768937
1668680539.136519,25671,1668680539,136313871,,-0.09879107434455411,-0.6160031009480429,0.07088206676343922,0.9955612156868469,0.09352316526210465,-0.004347595386304483,0.009611544820768937
1668680539.1434164,25672,1668680539,143286036,,-0.09878554743882131,-0.6159978919621191,0.07088206676343922,0.9955612156868469,0.09352316526210465,-0.004347595386304483,0.009611544820768937
1668680539.1519992,25673,1668680539,151733189,,-0.0987784414770124,-0.6159911947509296,0.07088206676343922,0.9955612156868469,0.09352316526210465,-0.004347595386304483,0.009611544820768937
1668680539.160568,25674,1668680539,160185495,,-0.09876975650401246,-0.6159830093568123,0.07088206676343922,0.9955612156868469,0.09352316526210465,-0.004347595386304483,0.009611544820768937
1668680539.1688766,25675,1668680539,168585160,,-0.0987594925746805,-0.6159733358315331,0.07088206676343922,0.9955612156868469,0.09352316526210465,-0.004347595386304483,0.009611544820768937
1668680539.1760669,25676,1668680539,175922362,,-0.09874764975384909,-0.6159621742362976,0.07088206676343922,0.9955612156868469,0.09352316526210465,-0.004347595386304483,0.009611544820768937
1668680539.1845915,25677,1668680539,184422636,,-0.09873422811632393,-0.615949524641765,0.07088206676343922,0.9955612156868469,0.09352316526210465,-0.004347595386304483,0.009611544820768937
1668680539.192617,25678,1668680539,192403271,,-0.09871922774688335,-0.6159353871280643,0.07088206676343922,0.9955612156868469,0.09352316526210465,-0.004347595386304483,0.009611544820768937
1668680539.2001376,25679,1668680539,199870220,,-0.09870264874027787,-0.6159197617848122,0.07088206676343922,0.9955612156868469,0.09352316526210465,-0.004347595386304483,0.009611544820768937
1668680539.2083855,25680,1668680539,208136505,,-0.09868449120122949,-0.6159026487111336,0.07088206676343922,0.9955612156868469,0.09352316526210465,-0.004347595386304483,0.009611544820768937
1668680539.2163115,25681,1668680539,216143858,,-0.09866475524443108,-0.615884048015684,0.07088206676343922,0.9955612156868469,0.09352316526210465,-0.004347595386304483,0.009611544820768937
1668680539.2240872,25682,1668680539,223876214,,-0.09864344099454567,-0.6158639598166737,0.07088206676343922,0.9955612156868469,0.09352316526210465,-0.004347595386304483,0.009611544820768937
1668680539.2327347,25683,1668680539,232546729,,-0.09862054858620567,-0.6158423842418951,0.07088206676343922,0.9955612156868469,0.09352316526210465,-0.004347595386304483,0.009611544820768937
1668680539.24066,25684,1668680539,240459524,,-0.09859607816401197,-0.6158193214287508,0.07088206676343922,0.9955612156868469,0.09352316526210465,-0.004347595386304483,0.009611544820768937
1668680539.248109,25685,1668680539,247833183,,-0.09857002988253305,-0.6157947715242852,0.07088206676343922,0.9955612156868469,0.09352316526210465,-0.004347595386304483,0.009611544820768937
1668680539.2556295,25686,1668680539,255475737,,-0.098542403906304,-0.6157687346852169,0.07088206676343922,0.9955612156868469,0.09352316526210465,-0.004347595386304483,0.009611544820768937
1668680539.2639804,25687,1668680539,263820395,,-0.0985132004098255,-0.6157412110779739,0.07088206676343922,0.9955612156868469,0.09352316526210465,-0.004347595386304483,0.009611544820768937
1668680539.271549,25688,1668680539,271436686,,-0.09848241957756274,-0.6157122008787316,0.07088206676343922,0.9955612156868469,0.09352316526210465,-0.004347595386304483,0.009611544820768937
1668680539.2797487,25689,1668680539,279529023,,-0.09845006160394415,-0.6156817042734511,0.07088206676343922,0.9955612156868469,0.09352316526210465,-0.004347595386304483,0.009611544820768937
1668680539.2878945,25690,1668680539,287679493,,-0.09841612669336028,-0.6156497214579215,0.07088206676343922,0.9955612156868469,0.09352316526210465,-0.004347595386304483,0.009611544820768937
1668680539.2956123,25691,1668680539,295381757,,-0.09838061506016249,-0.615616252637803,0.07088206676343922,0.9955612156868469,0.09352316526210465,-0.004347595386304483,0.009611544820768937
1668680539.3038309,25692,1668680539,303600514,,-0.09834352692866155,-0.6155812980286723,0.07088206676343922,0.9955612156868469,0.09352316526210465,-0.004347595386304483,0.009611544820768937
1668680539.311643,25693,1668680539,311472590,,-0.09830486253312626,-0.6155448578560716,0.07088206676343922,0.9955612156868469,0.09352316526210465,-0.004347595386304483,0.009611544820768937
1668680539.3199475,25694,1668680539,319810237,,-0.09826462211778192,-0.6155069323555565,0.07088206676343922,0.9955612156868469,0.09352316526210465,-0.004347595386304483,0.009611544820768937
1668680539.3283849,25695,1668680539,328192643,,-0.0982228059368089,-0.6154675217727498,0.07088206676343922,0.9955612156868469,0.09352316526210465,-0.004347595386304483,0.009611544820768937
1668680539.3353846,25696,1668680539,335216237,,-0.09817941425434093,-0.6154266263633941,0.07088206676343922,0.9955612156868469,0.09352316526210465,-0.004347595386304483,0.009611544820768937
1668680539.3436217,25697,1668680539,343471461,,-0.09813444734446342,-0.6153842463934087,0.07088206676343922,0.9955612156868469,0.09352316526210465,-0.004347595386304483,0.009611544820768937
1668680539.3516972,25698,1668680539,351415591,,-0.09808790549121185,-0.6153403821389474,0.07088206676343922,0.9955612156868469,0.09352316526210465,-0.004347595386304483,0.009611544820768937
1668680539.359901,25699,1668680539,359706895,,-0.09803978898856983,-0.6152950338864587,0.07088206676343922,0.9955612156868469,0.09352316526210465,-0.004347595386304483,0.009611544820768937
1668680539.367581,25700,1668680539,367436275,,-0.09799009814046739,-0.615248201932748,0.07088206676343922,0.9955612156868469,0.09352316526210465,-0.004347595386304483,0.009611544820768937
1668680539.37596,25701,1668680539,375701738,,-0.09793883326077887,-0.6151998865850422,0.07088206676343922,0.9955612156868469,0.09352316526210465,-0.004347595386304483,0.009611544820768937
1668680539.383985,25702,1668680539,383652842,,-0.09788599467332115,-0.6151500881610557,0.07088206676343922,0.9955612156868469,0.09352316526210465,-0.004347595386304483,0.009611544820768937
1668680539.3922627,25703,1668680539,391846279,,-0.09783158271185147,-0.6150988069890589,0.07088206676343922,0.9955612156868469,0.09352316526210465,-0.004347595386304483,0.009611544820768937
1668680539.40017,25704,1668680539,399933550,,-0.09777559772006533,-0.6150460434079489,0.07088206676343922,0.9955612156868469,0.09352316526210465,-0.004347595386304483,0.009611544820768937
1668680539.4077067,25705,1668680539,407578662,,-0.0977180400515944,-0.6149917977673213,0.07088206676343922,0.9955612156868469,0.09352316526210465,-0.004347595386304483,0.009611544820768937
1668680539.4153287,25706,1668680539,415168588,,-0.09765891007000416,-0.6149360704275453,0.07088206676343922,0.9955612156868469,0.09352316526210465,-0.004347595386304483,0.009611544820768937
1668680539.4238381,25707,1668680539,423618785,,-0.09759820814879172,-0.61487886175984,0.07088206676343922,0.9955612156868469,0.09352316526210465,-0.004347595386304483,0.009611544820768937
1668680539.431637,25708,1668680539,431461400,,-0.09753593467138338,-0.6148201721463525,0.07088206676343922,0.9955612156868469,0.09352316526210465,-0.004347595386304483,0.009611544820768937
1668680539.4400709,25709,1668680539,439860621,,-0.09747209003113233,-0.6147600019802392,0.07088206676343922,0.9955612156868469,0.09352316526210465,-0.004347595386304483,0.009611544820768937
1668680539.4479542,25710,1668680539,447745664,,-0.09740667463131597,-0.6146983516657473,0.07088206676343922,0.9955612156868469,0.09352316526210465,-0.004347595386304483,0.009611544820768937
1668680539.456041,25711,1668680539,455822864,,-0.09733968888513356,-0.6146352216182998,0.07088206676343922,0.9955612156868469,0.09352316526210465,-0.004347595386304483,0.009611544820768937
1668680539.4639094,25712,1668680539,463685854,,-0.09727113321570341,-0.614570612264582,0.07088206676343922,0.9955612156868469,0.09352316526210465,-0.004347595386304483,0.009611544820768937
1668680539.4720323,25713,1668680539,471822202,,-0.09720100805606047,-0.6145045240426298,0.07088206676343922,0.9955612156868469,0.09352316526210465,-0.004347595386304483,0.009611544820768937
1668680539.4799657,25714,1668680539,479805732,,-0.09712931384915327,-0.6144369574019197,0.07088206676343922,0.9955612156868469,0.09352316526210465,-0.004347595386304483,0.009611544820768937
1668680539.4881713,25715,1668680539,488025706,,-0.09705605104784146,-0.6143679128034619,0.07088206676343922,0.9955612156868469,0.09352316526210465,-0.004347595386304483,0.009611544820768937
1668680539.495395,25716,1668680539,495242070,,-0.09698122011489269,-0.6142973907198935,0.07088206676343922,0.9955612156868469,0.09352316526210465,-0.004347595386304483,0.009611544820768937
1668680539.5038023,25717,1668680539,503601570,,-0.0969048215229798,-0.6142253916355758,0.07088206676343922,0.9955612156868469,0.09352316526210465,-0.004347595386304483,0.009611544820768937
1668680539.5116668,25718,1668680539,511555777,,-0.09682685575467781,-0.6141519160466912,0.07088206676343922,0.9955612156868469,0.09352316526210465,-0.004347595386304483,0.009611544820768937
1668680539.5206747,25719,1668680539,520528704,,-0.09674732330246089,-0.6140769644613444,0.07088206676343922,0.9955612156868469,0.09352316526210465,-0.004347595386304483,0.009611544820768937
1668680539.5288122,25720,1668680539,528407464,,-0.09666622466869923,-0.6140005373996638,0.07088206676343922,0.9955612156868469,0.09352316526210465,-0.004347595386304483,0.009611544820768937
1668680539.5360491,25721,1668680539,535695361,,-0.09658356036565591,-0.6139226353939049,0.07088206676343922,0.9955612156868469,0.09352316526210465,-0.004347595386304483,0.009611544820768937
1668680539.5434659,25722,1668680539,543263086,,-0.09649933091548354,-0.6138432589885567,0.07088206676343922,0.9955612156868469,0.09352316526210465,-0.004347595386304483,0.009611544820768937
1668680539.5526316,25723,1668680539,552493339,,-0.09641353685022117,-0.6137624087404491,0.07088206676343922,0.9955612156868469,0.09352316526210465,-0.004347595386304483,0.009611544820768937
1668680539.559847,25724,1668680539,559553243,,-0.09632617871179067,-0.613680085218862,0.07088206676343922,0.9955612156868469,0.09352316526210465,-0.004347595386304483,0.009611544820768937
1668680539.5675757,25725,1668680539,567419703,,-0.09623725705199357,-0.6135962890056369,0.07088206676343922,0.9955612156868469,0.09352316526210465,-0.004347595386304483,0.009611544820768937
1668680539.5755744,25726,1668680539,575384179,,-0.09614677243250741,-0.6135110206952903,0.07088206676343922,0.9955612156868469,0.09352316526210465,-0.004347595386304483,0.009611544820768937
1668680539.5839963,25727,1668680539,583855472,,-0.09605472542488219,-0.613424280895128,0.07088206676343922,0.9955612156868469,0.09352316526210465,-0.004347595386304483,0.009611544820768937
1668680539.5917656,25728,1668680539,591647639,,-0.09596111661053686,-0.6133360702253626,0.07088206676343922,0.9955612156868469,0.09352316526210465,-0.004347595386304483,0.009611544820768937
1668680539.6014771,25729,1668680539,599690121,,-0.09586594658075553,-0.6132463893192316,0.07088206676343922,0.9955612156868469,0.09352316526210465,-0.004347595386304483,0.009611544820768937
1668680539.607662,25730,1668680539,607505014,,-0.09576921593668389,-0.6131552388231182,0.07088206676343922,0.9955612156868469,0.09352316526210465,-0.004347595386304483,0.009611544820768937
1668680539.6158953,25731,1668680539,615688768,,-0.09567092528932525,-0.6130626193966732,0.07088206676343922,0.9955612156868469,0.09352316526210465,-0.004347595386304483,0.009611544820768937
1668680539.623922,25732,1668680539,623740710,,-0.0955710752595367,-0.6129685317129392,0.07088206676343922,0.9955612156868469,0.09352316526210465,-0.004347595386304483,0.009611544820768937
1668680539.6324043,25733,1668680539,632261783,,-0.09546966647802535,-0.6128729764584763,0.07088206676343922,0.9955612156868469,0.09352316526210465,-0.004347595386304483,0.009611544820768937
1668680539.6405041,25734,1668680539,640284627,,-0.09536669958534419,-0.6127759543334896,0.07088206676343922,0.9955612156868469,0.09352316526210465,-0.004347595386304483,0.009611544820768937
1668680539.6487436,25735,1668680539,648555074,,-0.09526217523188801,-0.6126774660519583,0.07088206676343922,0.9955612156868469,0.09352316526210465,-0.004347595386304483,0.009611544820768937
1668680539.656105,25736,1668680539,655946638,,-0.09515609407788952,-0.6125775123417669,0.07088206676343922,0.9955612156868469,0.09352316526210465,-0.004347595386304483,0.009611544820768937
1668680539.6648371,25737,1668680539,664601201,,-0.09504845679341486,-0.6124760939448378,0.07088206676343922,0.9955612156868469,0.09352316526210465,-0.004347595386304483,0.009611544820768937
1668680539.6725209,25738,1668680539,672174125,,-0.0949392640583597,-0.6123732116172657,0.07088206676343922,0.9955612156868469,0.09352316526210465,-0.004347595386304483,0.009611544820768937
1668680539.6805706,25739,1668680539,680281794,,-0.09482851656244462,-0.6122688661294534,0.07088206676343922,0.9955612156868469,0.09352316526210465,-0.004347595386304483,0.009611544820768937
1668680539.687985,25740,1668680539,687720986,,-0.09471621500521105,-0.6121630582662503,0.07088206676343922,0.9955612156868469,0.09352316526210465,-0.004347595386304483,0.009611544820768937
1668680539.6954584,25741,1668680539,695333496,,-0.09460236009601664,-0.6120557888270909,0.07088206676343922,0.9955612156868469,0.09352316526210465,-0.004347595386304483,0.009611544820768937
1668680539.7036593,25742,1668680539,703512933,,-0.09448695255403086,-0.6119470586261365,0.07088206676343922,0.9955612156868469,0.09352316526210465,-0.004347595386304483,0.009611544820768937
1668680539.7118938,25743,1668680539,711569249,,-0.09436999310823052,-0.6118368684924178,0.07088206676343922,0.9955612156868469,0.09352316526210465,-0.004347595386304483,0.009611544820768937
1668680539.7197049,25744,1668680539,719564166,,-0.09425148249739498,-0.6117252192699789,0.07088206676343922,0.9955612156868469,0.09352316526210465,-0.004347595386304483,0.009611544820768937
1668680539.7278636,25745,1668680539,727739427,,-0.09413142147010173,-0.6116121118180237,0.07088206676343922,0.9955612156868469,0.09352316526210465,-0.004347595386304483,0.009611544820768937
1668680539.735911,25746,1668680539,735651118,,-0.09400981078472143,-0.6114975470110631,0.07088206676343922,0.9955612156868469,0.09352316526210465,-0.004347595386304483,0.009611544820768937
1668680539.743678,25747,1668680539,743498527,,-0.09388665120941325,-0.6113815257390641,0.07088206676343922,0.9955612156868469,0.09352316526210465,-0.004347595386304483,0.009611544820768937
1668680539.7518973,25748,1668680539,751660399,,-0.09376194352212006,-0.6112640489076009,0.07088206676343922,0.9955612156868469,0.09352316526210465,-0.004347595386304483,0.009611544820768937
1668680539.7598863,25749,1668680539,759718943,,-0.09363568851056334,-0.6111451174380066,0.07088206676343922,0.9955612156868469,0.09352316526210465,-0.004347595386304483,0.009611544820768937
1668680539.768787,25750,1668680539,768280867,,-0.09350788697223839,-0.611024732267527,0.07088206676343922,0.9955612156868469,0.09352316526210465,-0.004347595386304483,0.009611544820768937
1668680539.7756958,25751,1668680539,775482676,,-0.09337853971440918,-0.6109028943494762,0.07088206676343922,0.9955612156868469,0.09352316526210465,-0.004347595386304483,0.009611544820768937
1668680539.7840073,25752,1668680539,783829871,,-0.09324764755410325,-0.6107796046533932,0.07088206676343922,0.9955612156868469,0.09352316526210465,-0.004347595386304483,0.009611544820768937
1668680539.791827,25753,1668680539,791599927,,-0.09311521131810671,-0.6106548641652,0.07088206676343922,0.9955612156868469,0.09352316526210465,-0.004347595386304483,0.009611544820768937
1668680539.7999454,25754,1668680539,799684586,,-0.09298123184295873,-0.6105286738873617,0.07088206676343922,0.9955612156868469,0.09352316526210465,-0.004347595386304483,0.009611544820768937
1668680539.807949,25755,1668680539,807764416,,-0.09284570997494651,-0.610401034839047,0.07088206676343922,0.9955612156868469,0.09352316526210465,-0.004347595386304483,0.009611544820768937
1668680539.8156857,25756,1668680539,815508988,,-0.09270864657009983,-0.6102719480562916,0.07088206676343922,0.9955612156868469,0.09352316526210465,-0.004347595386304483,0.009611544820768937
1668680539.8240612,25757,1668680539,823707810,,-0.09257004249418563,-0.6101414145921621,0.07088206676343922,0.9955612156868469,0.09352316526210465,-0.004347595386304483,0.009611544820768937
1668680539.8323536,25758,1668680539,832073511,,-0.09242989862270262,-0.6100094355169208,0.07088206676343922,0.9955612156868469,0.09352316526210465,-0.004347595386304483,0.009611544820768937
1668680539.8408484,25759,1668680539,840665392,,-0.09228821584087563,-0.6098760119181932,0.07088206676343922,0.9955612156868469,0.09352316526210465,-0.004347595386304483,0.009611544820768937
1668680539.8477013,25760,1668680539,847491940,,-0.09214499504365012,-0.609741144901136,0.07088206676343922,0.9955612156868469,0.09352316526210465,-0.004347595386304483,0.009611544820768937
1668680539.8562515,25761,1668680539,856030492,,-0.0920002371356865,-0.6096048355886066,0.07088206676343922,0.9955612156868469,0.09352316526210465,-0.004347595386304483,0.009611544820768937
1668680539.8636315,25762,1668680539,863408378,,-0.09185394303135438,-0.609467085121334,0.07088206676343922,0.9955612156868469,0.09352316526210465,-0.004347595386304483,0.009611544820768937
1668680539.8719163,25763,1668680539,871750363,,-0.0917061136547268,-0.6093278946580911,0.07088206676343922,0.9955612156868469,0.09352316526210465,-0.004347595386304483,0.009611544820768937
1668680539.8796978,25764,1668680539,879500756,,-0.09155674993957452,-0.6091872653758683,0.07088206676343922,0.9955612156868469,0.09352316526210465,-0.004347595386304483,0.009611544820768937
1668680539.8877869,25765,1668680539,887595030,,-0.09140585282935987,-0.6090451984700479,0.07088206676343922,0.9955612156868469,0.09352316526210465,-0.004347595386304483,0.009611544820768937
1668680539.89585,25766,1668680539,895620622,,-0.09125342327723104,-0.6089016951545805,0.07088206676343922,0.9955612156868469,0.09352316526210465,-0.004347595386304483,0.009611544820768937
1668680539.9035246,25767,1668680539,903336489,,-0.09109946224601595,-0.6087567566621623,0.07088206676343922,0.9955612156868469,0.09352316526210465,-0.004347595386304483,0.009611544820768937
1668680539.911886,25768,1668680539,911675781,,-0.09094397070821611,-0.6086103842444135,0.07088206676343922,0.9955612156868469,0.09352316526210465,-0.004347595386304483,0.009611544820768937
1668680539.9199889,25769,1668680539,919816627,,-0.09078694964600059,-0.6084625791720581,0.07088206676343922,0.9955612156868469,0.09352316526210465,-0.004347595386304483,0.009611544820768937
1668680539.9276943,25770,1668680539,927539014,,-0.09062840005119976,-0.608313342735105,0.07088206676343922,0.9955612156868469,0.09352316526210465,-0.004347595386304483,0.009611544820768937
1668680539.935813,25771,1668680539,935684462,,-0.09046832292529908,-0.6081626762430296,0.07088206676343922,0.9955612156868469,0.09352316526210465,-0.004347595386304483,0.009611544820768937
1668680539.9434762,25772,1668680539,943234626,,-0.0903067192794326,-0.6080105810249574,0.07088206676343922,0.9955612156868469,0.09352316526210465,-0.004347595386304483,0.009611544820768937
1668680539.951747,25773,1668680539,951579125,,-0.09014359013437681,-0.6078570584298487,0.07088206676343922,0.9955612156868469,0.09352316526210465,-0.004347595386304483,0.009611544820768937
1668680539.9596796,25774,1668680539,959559183,,-0.08997893652054403,-0.6077021098266836,0.07088206676343922,0.9955612156868469,0.09352316526210465,-0.004347595386304483,0.009611544820768937
1668680539.9679239,25775,1668680539,967729869,,-0.08981275947797604,-0.6075457366046487,0.07088206676343922,0.9955612156868469,0.09352316526210465,-0.004347595386304483,0.009611544820768937
1668680539.9754512,25776,1668680539,975255604,,-0.08964506005633727,-0.6073879401733248,0.07088206676343922,0.9955612156868469,0.09352316526210465,-0.004347595386304483,0.009611544820768937
1668680539.9840608,25777,1668680539,983708873,,-0.08947583931490846,-0.6072287219628757,0.07088206676343922,0.9955612156868469,0.09352316526210465,-0.004347595386304483,0.009611544820768937
1668680539.9919329,25778,1668680539,991701235,,-0.0893050983225798,-0.607068083424238,0.07088206676343922,0.9955612156868469,0.09352316526210465,-0.004347595386304483,0.009611544820768937
1668680540.0002518,25779,1668680539,999930688,,-0.08913283815784415,-0.6069060260293114,0.07088206676343922,0.9955612156868469,0.09352316526210465,-0.004347595386304483,0.009611544820768937
1668680540.0077398,25780,1668680540,7622469,,-0.08895905990879036,-0.6067425512711511,0.07088206676343922,0.9955612156868469,0.09352316526210465,-0.004347595386304483,0.009611544820768937
1668680540.015407,25781,1668680540,15262121,,-0.08878376467309626,-0.6065776606641601,0.07088206676343922,0.9955612156868469,0.09352316526210465,-0.004347595386304483,0.009611544820768937
1668680540.0237393,25782,1668680540,23586147,,-0.08860695355802187,-0.6064113557442827,0.07088206676343922,0.9955612156868469,0.09352316526210465,-0.004347595386304483,0.009611544820768937
1668680540.0317545,25783,1668680540,31632541,,-0.0884286276804023,-0.6062436380692,0.07088206676343922,0.9955612156868469,0.09352316526210465,-0.004347595386304483,0.009611544820768937
1668680540.0399706,25784,1668680540,39816807,,-0.08824878816664067,-0.6060745092185242,0.07088206676343922,0.9955612156868469,0.09352316526210465,-0.004347595386304483,0.009611544820768937
1668680540.0477781,25785,1668680540,47661038,,-0.0880674361527011,-0.6059039707939956,0.07088206676343922,0.9955612156868469,0.09352316526210465,-0.004347595386304483,0.009611544820768937
1668680540.055587,25786,1668680540,55372397,,-0.0878845727841015,-0.60573202441968,0.07088206676343922,0.9955612156868469,0.09352316526210465,-0.004347595386304483,0.009611544820768937
1668680540.0637653,25787,1668680540,63601627,,-0.08770019921590627,-0.6055586717421664,0.07088206676343922,0.9955612156868469,0.09352316526210465,-0.004347595386304483,0.009611544820768937
1668680540.071954,25788,1668680540,71736260,,-0.08751431661271905,-0.6053839144307661,0.07088206676343922,0.9955612156868469,0.09352316526210465,-0.004347595386304483,0.009611544820768937
1668680540.0797474,25789,1668680540,79512660,,-0.08732692614867543,-0.6052077541777126,0.07088206676343922,0.9955612156868469,0.09352316526210465,-0.004347595386304483,0.009611544820768937
1668680540.0877693,25790,1668680540,87536274,,-0.08713802900743542,-0.6050301926983613,0.07088206676343922,0.9955612156868469,0.09352316526210465,-0.004347595386304483,0.009611544820768937
1668680540.0955594,25791,1668680540,95374271,,-0.08694762638217601,-0.604851231731392,0.07088206676343922,0.9955612156868469,0.09352316526210465,-0.004347595386304483,0.009611544820768937
1668680540.1038597,25792,1668680540,103644147,,-0.08675571947558366,-0.6046708730390096,0.07088206676343922,0.9955612156868469,0.09352316526210465,-0.004347595386304483,0.009611544820768937
1668680540.1117425,25793,1668680540,111537412,,-0.0865623094998467,-0.6044891184071473,0.07088206676343922,0.9955612156868469,0.09352316526210465,-0.004347595386304483,0.009611544820768937
1668680540.1198585,25794,1668680540,119631811,,-0.08636739767664767,-0.6043059696456701,0.07088206676343922,0.9955612156868469,0.09352316526210465,-0.004347595386304483,0.009611544820768937
1668680540.1283858,25795,1668680540,127985227,,-0.08617098523715555,-0.6041214285885785,0.07088206676343922,0.9955612156868469,0.09352316526210465,-0.004347595386304483,0.009611544820768937
1668680540.1363733,25796,1668680540,136171923,,-0.08597307342201807,-0.6039354970942135,0.07088206676343922,0.9955612156868469,0.09352316526210465,-0.004347595386304483,0.009611544820768937
1668680540.1434357,25797,1668680540,143305919,,-0.08577366348135385,-0.6037481770454612,0.07088206676343922,0.9955612156868469,0.09352316526210465,-0.004347595386304483,0.009611544820768937
1668680540.1517816,25798,1668680540,151643258,,-0.08557275667474437,-0.6035594703499592,0.07088206676343922,0.9955612156868469,0.09352316526210465,-0.004347595386304483,0.009611544820768937
1668680540.1597862,25799,1668680540,159540891,,-0.0853703542712263,-0.6033693789403028,0.07088206676343922,0.9955612156868469,0.09352316526210465,-0.004347595386304483,0.009611544820768937
1668680540.1676655,25800,1668680540,167523762,,-0.08516645754928318,-0.6031779047742521,0.07088206676343922,0.9955612156868469,0.09352316526210465,-0.004347595386304483,0.009611544820768937
1668680540.175732,25801,1668680540,175619156,,-0.08496106779683751,-0.6029850498349392,0.07088206676343922,0.9955612156868469,0.09352316526210465,-0.004347595386304483,0.009611544820768937
1668680540.183391,25802,1668680540,183226474,,-0.08475418631124262,-0.6027908161310759,0.07088206676343922,0.9955612156868469,0.09352316526210465,-0.004347595386304483,0.009611544820768937
1668680540.191737,25803,1668680540,191601550,,-0.08454581439927442,-0.602595205697163,0.07088206676343922,0.9955612156868469,0.09352316526210465,-0.004347595386304483,0.009611544820768937
1668680540.1997328,25804,1668680540,199611141,,-0.08433595337712313,-0.6023982205936982,0.07088206676343922,0.9955612156868469,0.09352316526210465,-0.004347595386304483,0.009611544820768937
1668680540.2077742,25805,1668680540,207612019,,-0.08412460457038504,-0.6021998629073859,0.07088206676343922,0.9955612156868469,0.09352316526210465,-0.004347595386304483,0.009611544820768937
1668680540.215359,25806,1668680540,215237556,,-0.08391176931405406,-0.6020001347513468,0.07088206676343922,0.9955612156868469,0.09352316526210465,-0.004347595386304483,0.009611544820768937
1668680540.2239325,25807,1668680540,223774665,,-0.08369744895251338,-0.6017990382653278,0.07088206676343922,0.9955612156868469,0.09352316526210465,-0.004347595386304483,0.009611544820768937
1668680540.231875,25808,1668680540,231709168,,-0.08348164483952683,-0.6015965756159121,0.07088206676343922,0.9955612156868469,0.09352316526210465,-0.004347595386304483,0.009611544820768937
1668680540.2398498,25809,1668680540,239642713,,-0.08326435833823051,-0.6013927489967305,0.07088206676343922,0.9955612156868469,0.09352316526210465,-0.004347595386304483,0.009611544820768937
1668680540.2481785,25810,1668680540,247965445,,-0.08304559082112406,-0.601187560628672,0.07088206676343922,0.9955612156868469,0.09352316526210465,-0.004347595386304483,0.009611544820768937
1668680540.255479,25811,1668680540,255307827,,-0.082825343670062,-0.600981012760095,0.07088206676343922,0.9955612156868469,0.09352316526210465,-0.004347595386304483,0.009611544820768937
1668680540.263763,25812,1668680540,263616952,,-0.08260361827624507,-0.600773107667039,0.07088206676343922,0.9955612156868469,0.09352316526210465,-0.004347595386304483,0.009611544820768937
1668680540.272459,25813,1668680540,272034484,,-0.08238041604021132,-0.6005638476534356,0.07088206676343922,0.9955612156868469,0.09352316526210465,-0.004347595386304483,0.009611544820768937
1668680540.2804136,25814,1668680540,280043371,,-0.08215573837182741,-0.6003532350513218,0.07088206676343922,0.9955612156868469,0.09352316526210465,-0.004347595386304483,0.009611544820768937
1668680540.2888799,25815,1668680540,288615550,,-0.08192958669027958,-0.6001412722210501,0.07088206676343922,0.9955612156868469,0.09352316526210465,-0.004347595386304483,0.009611544820768937
1668680540.2961438,25816,1668680540,295896851,,-0.08170196242406477,-0.5999279615515024,0.07088206676343922,0.9955612156868469,0.09352316526210465,-0.004347595386304483,0.009611544820768937
1668680540.3043132,25817,1668680540,304136469,,-0.08147286701098158,-0.5997133054603013,0.07088206676343922,0.9955612156868469,0.09352316526210465,-0.004347595386304483,0.009611544820768937
1668680540.3125262,25818,1668680540,312337973,,-0.08124230189812115,-0.5994973063940227,0.07088206676343922,0.9955612156868469,0.09352316526210465,-0.004347595386304483,0.009611544820768937
1668680540.3206406,25819,1668680540,320502028,,-0.08101026854185803,-0.599279966828408,0.07088206676343922,0.9955612156868469,0.09352316526210465,-0.004347595386304483,0.009611544820768937
1668680540.3285513,25820,1668680540,328322268,,-0.08077676840784098,-0.5990612892685768,0.07088206676343922,0.9955612156868469,0.09352316526210465,-0.004347595386304483,0.009611544820768937
1668680540.3358014,25821,1668680540,335587014,,-0.08054180297098379,-0.5988412762492396,0.07088206676343922,0.9955612156868469,0.09352316526210465,-0.004347595386304483,0.009611544820768937
1668680540.344614,25822,1668680540,344449380,,-0.08030537371545585,-0.5986199303349089,0.07088206676343922,0.9955612156868469,0.09352316526210465,-0.004347595386304483,0.009611544820768937
1668680540.3525608,25823,1668680540,352408298,,-0.08006748213467282,-0.5983972541201134,0.07088206676343922,0.9955612156868469,0.09352316526210465,-0.004347595386304483,0.009611544820768937
1668680540.3608346,25824,1668680540,360601337,,-0.07982812973128722,-0.5981732502296085,0.07088206676343922,0.9955612156868469,0.09352316526210465,-0.004347595386304483,0.009611544820768937
1668680540.3678126,25825,1668680540,367646348,,-0.07958731801717894,-0.5979479213185899,0.07088206676343922,0.9955612156868469,0.09352316526210465,-0.004347595386304483,0.009611544820768937
1668680540.375576,25826,1668680540,375269162,,-0.07934504851344565,-0.5977212700729042,0.07088206676343922,0.9955612156868469,0.09352316526210465,-0.004347595386304483,0.009611544820768937
1668680540.3842087,25827,1668680540,383994706,,-0.07910132275039317,-0.5974932992092618,0.07088206676343922,0.9955612156868469,0.09352316526210465,-0.004347595386304483,0.009611544820768937
1668680540.3919673,25828,1668680540,391650339,,-0.07885614226752588,-0.5972640114754482,0.07088206676343922,0.9955612156868469,0.09352316526210465,-0.004347595386304483,0.009611544820768937
1668680540.3997302,25829,1668680540,399609169,,-0.078609508613537,-0.5970334096505351,0.07088206676343922,0.9955612156868469,0.09352316526210465,-0.004347595386304483,0.009611544820768937
1668680540.4077144,25830,1668680540,407531855,,-0.07836142334629873,-0.5968014965450921,0.07088206676343922,0.9955612156868469,0.09352316526210465,-0.004347595386304483,0.009611544820768937
1668680540.4159486,25831,1668680540,415816782,,-0.0781118880328524,-0.596568275001397,0.07088206676343922,0.9955612156868469,0.09352316526210465,-0.004347595386304483,0.009611544820768937
1668680540.4238403,25832,1668680540,423669078,,-0.07786090424939873,-0.5963337478936466,0.07088206676343922,0.9955612156868469,0.09352316526210465,-0.004347595386304483,0.009611544820768937
1668680540.4321399,25833,1668680540,431847358,,-0.07760847358128767,-0.5960979181281673,0.07088206676343922,0.9955612156868469,0.09352316526210465,-0.004347595386304483,0.009611544820768937
1668680540.4401896,25834,1668680540,440002222,,-0.07735459762300853,-0.5958607886436242,0.07088206676343922,0.9955612156868469,0.09352316526210465,-0.004347595386304483,0.009611544820768937
1668680540.448013,25835,1668680540,447859989,,-0.07709927797817984,-0.5956223624112312,0.07088206676343922,0.9955612156868469,0.09352316526210465,-0.004347595386304483,0.009611544820768937
1668680540.455784,25836,1668680540,455619683,,-0.07684251625953925,-0.5953826424349598,0.07088206676343922,0.9955612156868469,0.09352316526210465,-0.004347595386304483,0.009611544820768937
1668680540.4634697,25837,1668680540,463328705,,-0.07658431408893329,-0.5951416317517472,0.07088206676343922,0.9955612156868469,0.09352316526210465,-0.004347595386304483,0.009611544820768937
1668680540.4717636,25838,1668680540,471608370,,-0.0763246730973072,-0.5948993334317053,0.07088206676343922,0.9955612156868469,0.09352316526210465,-0.004347595386304483,0.009611544820768937
1668680540.4802518,25839,1668680540,480085897,,-0.07606359492469464,-0.5946557505783279,0.07088206676343922,0.9955612156868469,0.09352316526210465,-0.004347595386304483,0.009611544820768937
1668680540.487807,25840,1668680540,487631746,,-0.0758010812202072,-0.5944108863286973,0.07088206676343922,0.9955612156868469,0.09352316526210465,-0.004347595386304483,0.009611544820768937
1668680540.4956985,25841,1668680540,495487384,,-0.07553713364202416,-0.5941647438536912,0.07088206676343922,0.9955612156868469,0.09352316526210465,-0.004347595386304483,0.009611544820768937
1668680540.5034935,25842,1668680540,503339666,,-0.07527175385738183,-0.5939173263581887,0.07088206676343922,0.9955612156868469,0.09352316526210465,-0.004347595386304483,0.009611544820768937
1668680540.5118713,25843,1668680540,511732962,,-0.07500494354256318,-0.593668637081275,0.07088206676343922,0.9955612156868469,0.09352316526210465,-0.004347595386304483,0.009611544820768937
1668680540.519757,25844,1668680540,519584565,,-0.07473670438288715,-0.5934186792964464,0.07088206676343922,0.9955612156868469,0.09352316526210465,-0.004347595386304483,0.009611544820768937
1668680540.52772,25845,1668680540,527527905,,-0.07446703807269808,-0.5931674563118142,0.07088206676343922,0.9955612156868469,0.09352316526210465,-0.004347595386304483,0.009611544820768937
1668680540.5356925,25846,1668680540,535557875,,-0.07419594631535495,-0.5929149714703075,0.07088206676343922,0.9955612156868469,0.09352316526210465,-0.004347595386304483,0.009611544820768937
1668680540.5435324,25847,1668680540,543390674,,-0.07392343082322061,-0.5926612281498757,0.07088206676343922,0.9955612156868469,0.09352316526210465,-0.004347595386304483,0.009611544820768937
1668680540.551928,25848,1668680540,551693580,,-0.07364949331765103,-0.5924062297636905,0.07088206676343922,0.9955612156868469,0.09352316526210465,-0.004347595386304483,0.009611544820768937
1668680540.5598269,25849,1668680540,559628868,,-0.07337413552898439,-0.5921499797603462,0.07088206676343922,0.9955612156868469,0.09352316526210465,-0.004347595386304483,0.009611544820768937
1668680540.5680318,25850,1668680540,567823631,,-0.07309735919653015,-0.5918924816240603,0.07088206676343922,0.9955612156868469,0.09352316526210465,-0.004347595386304483,0.009611544820768937
1668680540.5763712,25851,1668680540,576067123,,-0.07281916606855801,-0.5916337388748715,0.07088206676343922,0.9955612156868469,0.09352316526210465,-0.004347595386304483,0.009611544820768937
1668680540.5842311,25852,1668680540,583834396,,-0.072539557902287,-0.5913737550688392,0.07088206676343922,0.9955612156868469,0.09352316526210465,-0.004347595386304483,0.009611544820768937
1668680540.591801,25853,1668680540,591683682,,-0.07225853646387423,-0.5911125337982398,0.07088206676343922,0.9955612156868469,0.09352316526210465,-0.004347595386304483,0.009611544820768937
1668680540.5998995,25854,1668680540,599747524,,-0.07197610352840386,-0.5908500786917635,0.07088206676343922,0.9955612156868469,0.09352316526210465,-0.004347595386304483,0.009611544820768937
1668680540.6078577,25855,1668680540,607723943,,-0.07169226087987579,-0.5905863934147094,0.07088206676343922,0.9955612156868469,0.09352316526210465,-0.004347595386304483,0.009611544820768937
1668680540.615415,25856,1668680540,615211419,,-0.07140701031119448,-0.5903214816691799,0.07088206676343922,0.9955612156868469,0.09352316526210465,-0.004347595386304483,0.009611544820768937
1668680540.623639,25857,1668680540,623464516,,-0.07112035362415756,-0.5900553471942735,0.07088206676343922,0.9955612156868469,0.09352316526210465,-0.004347595386304483,0.009611544820768937
1668680540.6317554,25858,1668680540,631556185,,-0.0708322926294444,-0.5897879937662778,0.07088206676343922,0.9955612156868469,0.09352316526210465,-0.004347595386304483,0.009611544820768937
1668680540.639841,25859,1668680540,639647297,,-0.07054282914660487,-0.5895194251988592,0.07088206676343922,0.9955612156868469,0.09352316526210465,-0.004347595386304483,0.009611544820768937
1668680540.6479461,25860,1668680540,647739419,,-0.07025196500404762,-0.5892496453432545,0.07088206676343922,0.9955612156868469,0.09352316526210465,-0.004347595386304483,0.009611544820768937
1668680540.655582,25861,1668680540,655379634,,-0.06995970203902865,-0.5889786580884578,0.07088206676343922,0.9955612156868469,0.09352316526210465,-0.004347595386304483,0.009611544820768937
1668680540.6637034,25862,1668680540,663485214,,-0.06966604209763971,-0.5887064673614092,0.07088206676343922,0.9955612156868469,0.09352316526210465,-0.004347595386304483,0.009611544820768937
1668680540.67187,25863,1668680540,671703624,,-0.06937098703479658,-0.5884330771271805,0.07088206676343922,0.9955612156868469,0.09352316526210465,-0.004347595386304483,0.009611544820768937
1668680540.679796,25864,1668680540,679677718,,-0.06907453871422739,-0.5881584913891604,0.07088206676343922,0.9955612156868469,0.09352316526210465,-0.004347595386304483,0.009611544820768937
1668680540.6877494,25865,1668680540,687466718,,-0.06877669900846087,-0.5878827141892379,0.07088206676343922,0.9955612156868469,0.09352316526210465,-0.004347595386304483,0.009611544820768937
1668680540.6958783,25866,1668680540,695653186,,-0.06847746979881447,-0.5876057496079848,0.07088206676343922,0.9955612156868469,0.09352316526210465,-0.004347595386304483,0.009611544820768937
1668680540.703736,25867,1668680540,703542508,,-0.06817685297538248,-0.5873276017648368,0.07088206676343922,0.9955612156868469,0.09352316526210465,-0.004347595386304483,0.009611544820768937
1668680540.7119353,25868,1668680540,711788948,,-0.06787485043702418,-0.5870482748182725,0.07088206676343922,0.9955612156868469,0.09352316526210465,-0.004347595386304483,0.009611544820768937
1668680540.7201781,25869,1668680540,720022177,,-0.0675714640913517,-0.5867677729659921,0.07088206676343922,0.9955612156868469,0.09352316526210465,-0.004347595386304483,0.009611544820768937
1668680540.7281275,25870,1668680540,727937178,,-0.06726669585471809,-0.586486100445094,0.07088206676343922,0.9955612156868469,0.09352316526210465,-0.004347595386304483,0.009611544820768937
1668680540.7361255,25871,1668680540,735932548,,-0.06696054765220522,-0.5862032615322496,0.07088206676343922,0.9955612156868469,0.09352316526210465,-0.004347595386304483,0.009611544820768937
