Time,header.seq,header.stamp.secs,header.stamp.nsecs,header.frame_id,twist.linear.x,twist.linear.y,twist.linear.z,twist.angular.x,twist.angular.y,twist.angular.z
1668680881.559972,68474,1668680881,559832443,,-1.1284668977719387e-05,9.09754640880565e-10,-2.5023446113337855e-11,1.6055038789345027e-10,-5.519993957443679e-11,1.174609387077745e-14
1668680881.5680985,68475,1668680881,567854112,,-1.0412823892063825e-05,8.866488764027293e-10,-2.4388929938757246e-11,1.593033932930367e-10,-5.4769626508970266e-11,1.156741057648826e-14
1668680881.5758154,68476,1668680881,575579973,,-9.589326044052926e-06,8.636441406002659e-10,-2.3757103689503504e-11,1.5804519014585858e-10,-5.4335473089559214e-11,1.1391200618405053e-14
1668680881.5838137,68477,1668680881,583687596,,-8.811979781599324e-06,8.40774974672992e-10,-2.3128928149508072e-11,1.5677610860733286e-10,-5.3897593952319225e-11,1.121058439493023e-14
1668680881.5916302,68478,1668680881,591506051,,-8.078671900047396e-06,8.180733548130306e-10,-2.2505298415616438e-11,1.5549647308088746e-10,-5.345609744906964e-11,1.103000713497098e-14
1668680881.5997028,68479,1668680881,599560239,,-7.3873692962021e-06,7.95568625347351e-10,-2.1887027913717338e-11,1.542065951507684e-10,-5.301109282890238e-11,1.0851948950996865e-14
1668680881.6078928,68480,1668680881,607739318,,-6.7361166497967695e-06,7.732876036044749e-10,-2.1274826902165555e-11,1.5290677808870507e-10,-5.256268468434575e-11,1.0670844836544423e-14
1668680881.6154823,68481,1668680881,615356208,,-6.123034134595037e-06,7.512547878511846e-10,-2.06693785689507e-11,1.515973236716519e-10,-5.211097533263873e-11,1.0487594340603638e-14
1668680881.623772,68482,1668680881,623620669,,-5.546315161574249e-06,7.294924409215986e-10,-2.007134065022458e-11,1.5027852041019436e-10,-5.165606394331353e-11,1.0304887639814991e-14
1668680881.631751,68483,1668680881,631565421,,-5.004224155774629e-06,7.080206962088519e-10,-1.9481244306867478e-11,1.4895065164510527e-10,-5.119804938239985e-11,1.0120073521053576e-14
1668680881.6398962,68484,1668680881,639729485,,-4.495094368880822e-06,6.868576293552268e-10,-1.8899538013113826e-11,1.476139922255992e-10,-5.073702756391171e-11,9.938074092775886e-15
1668680881.6478174,68485,1668680881,647692263,,-4.017325728862265e-06,6.660195172798662e-10,-1.832673063088934e-11,1.4626882177449708e-10,-5.027309487612216e-11,9.754212039047184e-15
1668680881.6555297,68486,1668680881,655408811,,-3.569382727899508e-06,6.455207766694292e-10,-1.7763232212183992e-11,1.4491541135077268e-10,-4.980634292848995e-11,9.56982313082529e-15
1668680881.6639063,68487,1668680881,663773645,,-3.1497923499479095e-06,6.253741823738519e-10,-1.7209395773790725e-11,1.435540228960099e-10,-4.933686183861057e-11,9.386465061700204e-15
1668680881.6719935,68488,1668680881,671728827,,-2.757142038593428e-06,6.055907409344018e-10,-1.6665494170550792e-11,1.421849141332145e-10,-4.886474008241055e-11,9.203239976747837e-15
1668680881.6796958,68489,1668680881,679586455,,-2.3900777064701253e-06,5.86180150159508e-10,-1.613182887739559e-11,1.4080834684479436e-10,-4.8390069499503386e-11,9.018845562811786e-15
1668680881.6876118,68490,1668680881,687492632,,-2.0473017865177457e-06,5.671507027495297e-10,-1.5608570029051953e-11,1.3942457079062317e-10,-4.7912933720575384e-11,8.834819184691317e-15
1668680881.695888,68491,1668680881,695698312,,-1.727571325513369e-06,5.485091711167277e-10,-1.5095961741952365e-11,1.3803383444763734e-10,-4.7433418824046173e-11,8.65094950766609e-15
1668680881.7038126,68492,1668680881,703544524,,-1.4296961208239936e-06,5.302612497389262e-10,-1.4594144882063512e-11,1.3663639106460285e-10,-4.695161291899761e-11,8.470799999345203e-15
1668680881.7118802,68493,1668680881,711723321,,-1.1525369002621317e-06,5.124114427214045e-10,-1.4103288321065802e-11,1.3523248664764614e-10,-4.646760147294667e-11,8.286134111349557e-15
1668680881.719917,68494,1668680881,719676321,,-8.950035450318244e-07,4.949630978965863e-10,-1.3623456484614936e-11,1.3382235820089212e-10,-4.598146380392133e-11,8.10362942791883e-15
1668680881.7277386,68495,1668680881,727561798,,-6.560533565165329e-07,4.779186304428742e-10,-1.3154689411213447e-11,1.3240624579069748e-10,-4.5493281883068544e-11,7.920825530099485e-15
1668680881.735757,68496,1668680881,735586280,,-4.3468936618359795e-07,4.6127945541694787e-10,-1.269708326199719e-11,1.3098439035548977e-10,-4.5003138991610665e-11,7.735953177822946e-15
1668680881.743317,68497,1668680881,743147738,,-2.299586888242375e-07,4.450461451979484e-10,-1.2250611183458353e-11,1.295570160030522e-10,-4.451111443224886e-11,7.55527194456942e-15
1668680881.751858,68498,1668680881,751687818,,-4.095091925870134e-08,4.292184379268463e-10,-1.1815263064902555e-11,1.281243617766997e-10,-4.40172902185727e-11,7.370973351235527e-15
1668680881.75972,68499,1668680881,759607390,,1.33203428462364e-07,4.1379535519602603e-10,-1.139104067247705e-11,1.266866593834137e-10,-4.3521744059539576e-11,7.188622642512744e-15
1668680881.7677991,68500,1668680881,767688800,,2.933344390746111e-07,3.987751738331684e-10,-1.0977895009544524e-11,1.252441342878014e-10,-4.302455423001091e-11,7.00776985861762e-15
1668680881.7754562,68501,1668680881,775341083,,4.402342718452418e-07,3.8415556454691e-10,-1.0575750824259204e-11,1.2379701161406393e-10,-4.252579973156186e-11,6.830415876660028e-15
1668680881.7837029,68502,1668680881,783560195,,5.746585945267285e-07,3.6993361029758995e-10,-1.0184512056722719e-11,1.2234552069521552e-10,-4.202555609190597e-11,6.6491724252877625e-15
1668680881.7917964,68503,1668680881,791600432,,6.973279762240207e-07,3.5610585086395287e-10,-9.804046325766657e-12,1.208898792836325e-10,-4.152390109653717e-11,6.472767437868451e-15
1668680881.8001301,68504,1668680881,799946291,,8.089292390881274e-07,3.4266837885719615e-10,-9.434304119952772e-12,1.1943031319255218e-10,-4.1020910903364e-11,6.297592554046789e-15
1668680881.8076558,68505,1668680881,807549133,,9.101167699981115e-07,3.296167640379205e-10,-9.075185502254926e-12,1.1796704478831386e-10,-4.0516660256568876e-11,6.121842534853941e-15
1668680881.8156362,68506,1668680881,815455892,,1.0015137926024688e-06,3.169461755321756e-10,-8.726547518340518e-12,1.1650028379861538e-10,-4.001122384795054e-11,5.9431111714449954e-15
1668680881.8235323,68507,1668680881,823273239,,1.0837136002357406e-06,3.046514670871736e-10,-8.388234970049811e-12,1.1503025254442105e-10,-3.950467753316407e-11,5.762973309827134e-15
1668680881.8317118,68508,1668680881,831582591,,1.1572807504791853e-06,2.927272830577369e-10,-8.0600984672192e-12,1.1355716814713877e-10,-3.8997095034019823e-11,5.580762970345578e-15
1668680881.8401625,68509,1668680881,839930019,,1.2227522220386502e-06,2.811677180632407e-10,-7.741973397835355e-12,1.1208124261148202e-10,-3.848855143240498e-11,5.400957992675987e-15
1668680881.848066,68510,1668680881,847873144,,1.280638534507572e-06,2.6996677052577744e-10,-7.433732445129541e-12,1.1060268577098887e-10,-3.7979119797385124e-11,5.223111355180448e-15
1668680881.8553977,68511,1668680881,855292270,,1.3314248321022372e-06,2.591182125459343e-10,-7.135217560619473e-12,1.0912171194119779e-10,-3.746887166882697e-11,5.047626880816565e-15
1668680881.8661742,68512,1668680881,865989036,,1.3755719314900204e-06,2.4861549767420875e-10,-6.846167118172367e-12,1.0763852402395603e-10,-3.695787664664693e-11,4.870935384502844e-15
1668680881.8730369,68513,1668680881,872737087,,1.4135173351459455e-06,2.38452141549192e-10,-6.566477402357503e-12,1.0615333211782374e-10,-3.64462079251325e-11,4.6986103430322196e-15
1668680881.8797665,68514,1668680881,879615603,,1.4456762104185961e-06,2.2862130566245944e-10,-6.295909359842097e-12,1.0466634238923225e-10,-3.5933935284598265e-11,4.533936550174143e-15
1668680881.8877735,68515,1668680881,887582143,,1.4724423352521016e-06,2.1911615363875139e-10,-6.034332101991099e-12,1.0317776287523555e-10,-3.542113229939143e-11,4.364440175230874e-15
1668680881.895678,68516,1668680881,895560880,,1.4941890115926125e-06,2.099296315804225e-10,-5.781464438213334e-12,1.0168779147318692e-10,-3.490786604951863e-11,4.199474579522468e-15
1668680881.9033396,68517,1668680881,903230640,,1.5112699468436663e-06,2.010547588068685e-10,-5.537184596168647e-12,1.0019663065491385e-10,-3.439420685683967e-11,4.04034800543596e-15
1668680881.9116602,68518,1668680881,911498527,,1.5240201043661317e-06,1.9248440263150937e-10,-5.3012745006885635e-12,9.870448223752044e-11,-3.388022192187809e-11,3.881663582547918e-15
1668680881.9198809,68519,1668680881,919678260,,1.532756523795047e-06,1.8421134496600856e-10,-5.073533550500771e-12,9.721153985349944e-11,-3.336597999208444e-11,3.724995098074342e-15
1668680881.9279234,68520,1668680881,927768050,,1.5377791117948916e-06,1.7622842576367197e-10,-4.853749836503231e-12,9.57179984758295e-11,-3.285154846814673e-11,3.566552926609215e-15
1668680881.935395,68521,1668680881,935292117,,1.539371404335004e-06,1.6852856552977706e-10,-4.641762635690767e-12,9.422406489044564e-11,-3.233699870550348e-11,3.4052482072988426e-15
1668680881.9438672,68522,1668680881,943722472,,1.5378013007480141e-06,1.611045670580859e-10,-4.4373761843819855e-12,9.272992936291443e-11,-3.1822393983954634e-11,3.2484090456863946e-15
1668680881.951602,68523,1668680881,951492729,,1.5333217708123228e-06,1.5394931631750448e-10,-4.240348789133164e-12,9.123578344370179e-11,-3.1307800075793826e-11,3.091115027381271e-15
1668680881.959911,68524,1668680881,959723489,,1.5261715354255175e-06,1.4705566616541552e-10,-4.050512843976461e-12,8.974181948348814e-11,-3.079328408919154e-11,2.9351610151987038e-15
1668680881.9676254,68525,1668680881,967502113,,1.5165757215510675e-06,1.4041654839116928e-10,-3.867697038688742e-12,8.82482253161375e-11,-3.027891141954484e-11,2.7840909949900048e-15
1668680881.9755714,68526,1668680881,975438515,,1.504746492151632e-06,1.340249399360272e-10,-3.691699278683204e-12,8.675519259430237e-11,-2.9764744930403144e-11,2.6296273372781315e-15
1668680881.9834642,68527,1668680881,983272586,,1.4908836521689968e-06,1.2787394134085333e-10,-3.5223507392514106e-12,8.52629084118245e-11,-2.9250851455968096e-11,2.4731540938988973e-15
1668680881.9918587,68528,1668680881,991607595,,1.4751752306977927e-06,1.219566299242962e-10,-3.359420810952048e-12,8.377155267646042e-11,-2.8737290640554367e-11,2.31932867551278e-15
1668680882.000389,68529,1668680882,130807,,1.4577980405901962e-06,1.1626630797981536e-10,-3.202717855733726e-12,8.228130815778326e-11,-2.8224127552875623e-11,2.165936937995657e-15
1668680882.0086455,68530,1668680882,8435105,,1.4389182158496672e-06,1.1079615624081363e-10,-3.0521203072726732e-12,8.079236042092229e-11,-2.7711426458757557e-11,2.010087110865602e-15
1668680882.0160756,68531,1668680882,15929582,,1.4186917277932798e-06,1.0553973634477293e-10,-2.9073965456808893e-12,7.930488833039714e-11,-2.7199248477728598e-11,1.8544659826313058e-15
1668680882.0241141,68532,1668680882,23954447,,1.3972648802713328e-06,1.0049035808801874e-10,-2.7683368922406203e-12,7.781906907173775e-11,-2.6687652382969736e-11,1.7046063725042332e-15
1668680882.0326345,68533,1668680882,32457047,,1.3747747849660565e-06,9.564170182698859e-11,-2.634864776325285e-12,7.633508208208781e-11,-2.617670202686856e-11,1.557147677266153e-15
1668680882.0406067,68534,1668680882,40392540,,1.351349817309131e-06,9.098748770649223e-11,-2.5067181140732238e-12,7.485310381199915e-11,-2.5666457610233773e-11,1.4167350255998076e-15
1668680882.048529,68535,1668680882,48348006,,1.3271100533366315e-06,8.652152722831021e-11,-2.383717371962614e-12,7.337330199147697e-11,-2.5156974309175367e-11,1.2757349565845413e-15
1668680882.0559509,68536,1668680882,55800106,,1.302167688804488e-06,8.223774333032597e-11,-2.2657623848343664e-12,7.189585610716509e-11,-2.4648315354338897e-11,1.1326126465199295e-15
1668680882.0647953,68537,1668680882,64571670,,1.276627440371903e-06,7.813021623232027e-11,-2.1526788643823535e-12,7.042093367766285e-11,-2.414054006232331e-11,9.92072939911496e-16
1668680882.0721292,68538,1668680882,71955261,,1.250586930085387e-06,7.419319824390844e-11,-2.044258547624828e-12,6.894870572214168e-11,-2.3633705257491928e-11,8.531870651325765e-16
1668680882.080441,68539,1668680882,80232806,,1.2241370533496043e-06,7.042082625879102e-11,-1.940371418249598e-12,6.747933536208249e-11,-2.312786785243846e-11,7.186147056375495e-16
1668680882.0886564,68540,1668680882,88455620,,1.1973623310490477e-06,6.680767851401231e-11,-1.840897851886818e-12,6.601298901149409e-11,-2.2623084357614495e-11,5.836527109867855e-16
1668680882.0961244,68541,1668680882,96012959,,1.170341246537578e-06,6.334821916581555e-11,-1.7456011740294779e-12,6.454982654878164e-11,-2.2119409228543216e-11,4.4385902864664626e-16
1668680882.1042001,68542,1668680882,104095450,,1.1431465679911818e-06,6.003719069367093e-11,-1.6544689520828825e-12,6.309002126863752e-11,-2.1616901011447107e-11,3.04586695085542e-16
1668680882.1123936,68543,1668680882,112263875,,1.115845656271752e-06,5.6869372647892264e-11,-1.5672502047827342e-12,6.163372440001475e-11,-2.1115614520521484e-11,1.6786774234393582e-16
1668680882.1198156,68544,1668680882,119611883,,1.0885007593412348e-06,5.38396334534855e-11,-1.4838235244069511e-12,6.018109297654015e-11,-2.0615602220219477e-11,2.8777944382964854e-17
1668680882.1284173,68545,1668680882,128253756,,1.0611692935527038e-06,5.094314232452594e-11,-1.404066943710201e-12,5.873228645973804e-11,-2.0116920212444858e-11,-1.0954063007953107e-16
1668680882.135936,68546,1668680882,135708643,,1.0339041120093164e-06,4.8174934584601767e-11,-1.3278477149283437e-12,5.7287462088529896e-11,-1.9619620392934307e-11,-2.4822491101700404e-16
1668680882.143949,68547,1668680882,143780430,,1.0067537610051694e-06,4.553046990760985e-11,-1.2550265948184997e-12,5.5846767988976954e-11,-1.912375558516381e-11,-3.8636116163760347e-16
1668680882.1517496,68548,1668680882,151594762,,9.79762724498893e-07,4.300513300288864e-11,-1.1854823187149612e-12,5.4410359277948224e-11,-1.8629377738391938e-11,-5.23525018434755e-16
1668680882.160181,68549,1668680882,159892401,,9.529716573036e-07,4.059448600791068e-11,-1.1191101620722759e-12,5.2978386575770484e-11,-1.8136538890878593e-11,-6.63717653293051e-16
1668680882.167818,68550,1668680882,167640840,,9.264176075023577e-07,3.829430906144696e-11,-1.0557658672425858e-12,5.155099873780531e-11,-1.7645291043342908e-11,-8.026837844437229e-16
1668680882.1756198,68551,1668680882,175488468,,9.00134228297554e-07,3.610039124889627e-11,-9.953132913039046e-13,5.012833471577437e-11,-1.7155679786049485e-11,-9.411239081341498e-16
1668680882.183842,68552,1668680882,183723673,,8.74151979944402e-07,3.40085572771856e-11,-9.37681930573871e-13,4.871054512738062e-11,-1.666775800525401e-11,-1.0810238931091695e-15
1668680882.1915662,68553,1668680882,191430788,,8.484983219185091e-07,3.201502051960811e-11,-8.827590114578236e-13,4.7297772566598984e-11,-1.6181574349913303e-11,-1.2185996196769234e-15
1668680882.1995232,68554,1668680882,199367756,,8.231978957531927e-07,3.011585917472015e-11,-8.30447623563645e-13,4.589015217134061e-11,-1.5697176737574547e-11,-1.3567477287587844e-15
1668680882.2078068,68555,1668680882,207648643,,7.982726992758367e-07,2.8307300848749026e-11,-7.805525267547682e-13,4.448782530847617e-11,-1.5214612345947965e-11,-1.4899182487261055e-15
1668680882.2158425,68556,1668680882,215666512,,7.73742251962962e-07,2.6585847489848063e-11,-7.330754609402209e-13,4.309093169703993e-11,-1.4733928782199413e-11,-1.6194873963599381e-15
1668680882.2235157,68557,1668680882,223318959,,7.496237522785055e-07,2.4948007071775116e-11,-6.879119449874425e-13,4.169960922614244e-11,-1.4255172645829938e-11,-1.7468235533865716e-15
1668680882.2319305,68558,1668680882,231780529,,7.259322271678393e-07,2.3390347871770668e-11,-6.44941901044074e-13,4.031398748174461e-11,-1.3778388599695711e-11,-1.8710551229032812e-15
1668680882.2396119,68559,1668680882,239504231,,7.02680673968927e-07,2.1909603156453195e-11,-6.041061854376502e-13,3.893420351681471e-11,-1.3303624893079733e-11,-1.997969457522182e-15
1668680882.2478445,68560,1668680882,247674216,,6.798801952548508e-07,2.050276749369386e-11,-5.653093216186353e-13,3.7560391011627727e-11,-1.2830927414941526e-11,-2.1175499691255184e-15
1668680882.2564723,68561,1668680882,256262022,,6.57540126389583e-07,1.916666522080728e-11,-5.284840019352331e-13,3.619267055215894e-11,-1.236033943111854e-11,-2.243166013994515e-15
1668680882.263455,68562,1668680882,263340699,,6.356681570437885e-07,1.7898265201879824e-11,-4.934930199783616e-13,3.4831169013535435e-11,-1.189190470570212e-11,-2.366987407806517e-15
1668680882.2717185,68563,1668680882,271534384,,6.1427044583984e-07,1.669475139687676e-11,-4.602751623333165e-13,3.347601074720174e-11,-1.1425663753303836e-11,-2.489937945869623e-15
1668680882.2797408,68564,1668680882,279611743,,5.933517292950736e-07,1.5553450908425577e-11,-4.287912217049675e-13,3.2127324861703205e-11,-1.096166315003538e-11,-2.609336451268418e-15
1668680882.287783,68565,1668680882,287642956,,5.729154247700273e-07,1.4471685657328452e-11,-3.98960642050011e-13,3.078522819883335e-11,-1.0499940269184068e-11,-2.727908570148048e-15
1668680882.2977197,68566,1668680882,295633016,,5.52963728034714e-07,1.3446827552516592e-11,-3.707024679485557e-13,2.9449841774236495e-11,-1.0040538782716487e-11,-2.8400807198364613e-15
1668680882.303541,68567,1668680882,303410646,,5.334977054283718e-07,1.2476431373158417e-11,-3.439695955125582e-13,2.812128376801657e-11,-9.583499406017485e-12,-2.9512362182299327e-15
1668680882.312301,68568,1668680882,312098765,,5.145173809528174e-07,1.1558192766686114e-11,-3.1862287534488247e-13,2.6799669749910554e-11,-9.128861205189576e-12,-3.0587234286870825e-15
1668680882.320295,68569,1668680882,320042957,,4.960218185883755e-07,1.0689663226899311e-11,-2.9470880876418804e-13,2.5485115729331697e-11,-8.676663824610623e-12,-3.163241047510277e-15
1668680882.3279867,68570,1668680882,327841623,,4.780092001050679e-07,9.86875438828348e-12,-2.7212303379744097e-13,2.41777312564665e-11,-8.226944063018213e-12,-3.2668143304764017e-15
1668680882.335518,68571,1668680882,335330383,,4.604768982264223e-07,9.093243832936726e-12,-2.5072505270586965e-13,2.287762521864027e-11,-7.779738919175442e-12,-3.3694537596181784e-15
1668680882.3439279,68572,1668680882,343727584,,4.43421545767491e-07,8.361059571494611e-12,-2.3056012645956943e-13,2.1584908066083156e-11,-7.335085280498623e-12,-3.4725139523765036e-15
1668680882.3517787,68573,1668680882,351653606,,4.2683910087066865e-07,7.670295386711284e-12,-2.1151590853267892e-13,2.029968995378551e-11,-6.893022334422777e-12,-3.571753073630646e-15
1668680882.3596284,68574,1668680882,359514500,,4.1072490802527433e-07,7.018869065630214e-12,-1.9356432296343358e-13,1.902207063995916e-11,-6.453584438534883e-12,-3.67208730260647e-15
1668680882.367731,68575,1668680882,367577149,,3.9507375600550484e-07,6.405111366863105e-12,-1.766487429140514e-13,1.7752154081150457e-11,-6.016806897886176e-12,-3.7675167873012184e-15
1668680882.3758364,68576,1668680882,375713787,,3.7987993190222413e-07,5.827240224394701e-12,-1.6069654045723928e-13,1.6490042849152466e-11,-5.5827239344688816e-12,-3.861866834383809e-15
1668680882.3845043,68577,1668680882,384258120,,3.6513727202304496e-07,5.2834792756235476e-12,-1.4569222751616e-13,1.5235837607931517e-11,-5.1513700609630355e-12,-3.958474753666425e-15
1668680882.3922384,68578,1668680882,392116469,,3.5083920983595394e-07,4.7723585369359146e-12,-1.3154285084023644e-13,1.3989632697460458e-11,-4.7227780971077455e-12,-4.053542767050932e-15
1668680882.3997688,68579,1668680882,399635013,,3.3697882056678553e-07,4.292169758749783e-12,-1.1829977148743408e-13,1.2751525545866467e-11,-4.2969808340431765e-12,-4.144201021032915e-15
1668680882.40786,68580,1668680882,407708240,,3.235488632178362e-07,3.841396119369141e-12,-1.058323013312356e-13,1.152161207205674e-11,-3.874012891187097e-12,-4.236467049427905e-15
1668680882.415476,68581,1668680882,415284665,,3.105418198785801e-07,3.4186969109485806e-12,-9.417077301217504e-14,1.029998645533546e-11,-3.4539048816916113e-12,-4.3245668403927066e-15
1668680882.4238393,68582,1668680882,423671241,,2.9794993242192845e-07,3.02270182199891e-12,-8.321990335012108e-14,9.086737387740022e-12,-3.0366880219981165e-12,-4.411857873711558e-15
1668680882.4317472,68583,1668680882,431608206,,2.857652367370143e-07,2.652068056204869e-12,-7.298442453991676e-14,7.88195433690793e-12,-2.622392751368809e-12,-4.501014814734092e-15
1668680882.4397862,68584,1668680882,439654155,,5.893753185251071e-07,-3.7156452112497163e-07,-6.38721255088924e-14,6.685614432761839e-12,-2.211010621971875e-12,-4.5871522421183416e-15
1668680882.4480324,68585,1668680882,447838902,,1.8140141995325329e-06,-1.8277326999966236e-06,-7.407778610930894e-14,5.496725702192611e-12,-1.8022026195970538e-12,-4.670583716873469e-15
1668680882.4559975,68586,1668680882,455777781,,4.51525817316911e-06,-5.023034190626181e-06,-2.1255048842225316e-13,4.309679600672955e-12,-1.3940408858049063e-12,-4.756694780357236e-15
1668680882.4637518,68587,1668680882,463408662,,9.201840961917595e-06,-1.0556815322210365e-05,-8.073360782549253e-13,3.107407118916117e-12,-9.806565539330746e-13,-4.835389223354844e-15
1668680882.4721935,68588,1668680882,471864597,,1.6338338957932677e-05,-1.897639915859416e-05,-2.5674549758640685e-12,1.852361135032955e-12,-5.491418969508181e-13,-4.922582794945202e-15
1668680882.4796011,68589,1668680882,479495239,,2.6347731471878348e-05,-3.078010088357252e-05,-6.758280762756711e-12,4.762284461949241e-13,-7.601050200192782e-14,-5.022695313047082e-15
1668680882.4888217,68590,1668680882,488567684,,3.9613840779438464e-05,-4.6420101567934625e-05,-1.5375590180450413e-11,-1.1310068033420421e-12,4.765545311156066e-13,-5.13967395119469e-15
1668680882.4960804,68591,1668680882,495923483,,5.648365662115902e-05,-6.630518584632983e-05,-3.1307491072447004e-11,-3.1319728106981543e-12,1.1644621678447977e-12,-5.294511573952776e-15
1668680882.5046868,68592,1668680882,504482765,,7.726954967777844e-05,-9.080334886602274e-05,-5.847549955610188e-11,-5.752515001438923e-12,2.0653546007876045e-12,-5.499696835095658e-15
1668680882.5124552,68593,1668680882,512248541,,0.00010225137840921585,-0.00012024427769654467,-1.019506591784728e-10,-9.291487305605457e-12,3.2819690246873668e-12,-5.7854654227085245e-15
1668680882.5204833,68594,1668680882,520301666,,0.00013167849351398072,-0.0001549217122287072,-1.6804003249970225e-10,-1.4129640540192244e-11,4.945200995457055e-12,-6.175507154260185e-15
1668680882.5281022,68595,1668680882,527957762,,0.00016577164413515683,-0.000195095690426879,-2.6434338282033553e-10,-2.0737287654661512e-11,7.216737544539433e-12,-6.7143556339854804e-15
1668680882.5355647,68596,1668680882,535472843,,0.00020472478980963695,-0.00024099468264318497,-3.9977889475085333e-10,-2.9680748023780396e-11,1.0291266918036339e-11,-7.447981033997797e-15
1668680882.543481,68597,1668680882,543353909,,0.00024870682203028045,-0.00029281761954657036,-5.845796580075822e-10,-4.162742463277523e-11,1.4398233083909697e-11,-8.432057135854265e-15
1668680882.5517168,68598,1668680882,551561421,,0.00029786319916554055,-0.0003507358180686706,-8.302618109341385e-10,-5.734952713187715e-11,1.9803112708688397e-11,-9.730063976753911e-15
1668680882.5597796,68599,1668680882,559641738,,0.00035231749835725693,-0.00041489480962178575,-1.149567377695647e-09,-7.77264421352052e-11,2.6808234861744546e-11,-1.1414263631492894e-14
1668680882.5677705,68600,1668680882,567643241,,0.0004121728878973471,-0.0004854160746995167,-1.5563838473305204e-09,-1.0374579107259087e-10,3.575314403328586e-11,-1.3566838624745614e-14
1668680882.5757706,68601,1668680882,575585142,,0.00047751352346453446,-0.0005623986878300812,-2.0656439546058293e-09,-1.3650320944347467e-10,4.701453205154145e-11,-1.6272356725965942e-14
1668680882.5834062,68602,1668680882,583286897,,0.0005484058714869655,-0.0006459208767150141,-2.6932083492417867e-09,-1.772009684135095e-10,6.100576356812847e-11,-1.962861297111207e-14
1668680882.5917141,68603,1668680882,591556392,,0.0006248999627823062,-0.0007360414992528458,-3.4557342589118873e-09,-2.2714547085896076e-10,7.817602544046148e-11,-2.37401244496116e-14
1668680882.5998373,68604,1668680882,599693485,,0.0007070305795163617,-0.0008328014420155767,-4.370533517282127e-09,-2.8774375954114377e-10,9.900913331653983e-11,-2.8712926133933614e-14
1668680882.607957,68605,1668680882,607655209,,0.0007948183784122849,-0.0009362249436194244,-5.455422522184988e-09,-3.6049909128897076e-10,1.240220188917021e-10,-3.466107609262359e-14
1668680882.6155436,68606,1668680882,615442303,,0.0008882709530373621,-0.0010463208463081185,-6.728567166073552e-09,-4.470057378497342e-10,1.5376294768693066e-10,-4.169754819205451e-14
1668680882.6241813,68607,1668680882,623926956,,0.0009873838378905745,-0.001163083778944497,-8.208325211631097e-09,-5.489430431652412e-10,1.8880949509750538e-10,-4.9939653107289317e-14
1668680882.631749,68608,1668680882,631609402,,0.0010921414569141747,-0.0012864952744914852,-9.913088364112593e-09,-6.680689162614248e-10,2.297663166973547e-10,-5.951229092859833e-14
1668680882.639727,68609,1668680882,639540891,,0.0012025180189547547,-0.0014165248249470687,-1.1861126630174338e-08,-8.06212792377447e-10,2.772627403073457e-10,-7.052778500105106e-14
1668680882.6477797,68610,1668680882,647566858,,0.0013184783626038724,-0.0015531308765889661,-1.4070436560449373e-08,-9.652681649896056e-10,3.3195022541143834e-10,-8.309975971232397e-14
1668680882.6555934,68611,1668680882,655445126,,0.0014399787527560445,-0.0016962617682757285,-1.655859466798057e-08,-1.1471848610080737e-09,3.9449972177591896e-10,-9.734227313096255e-14
1668680882.6641364,68612,1668680882,663988410,,0.0015669676311331224,-0.0018458566154472542,-1.934261858310423e-08,-1.3539610070624193e-09,4.6559892277905045e-10,-1.1336287811247736e-13
1668680882.671818,68613,1668680882,671691173,,0.0016993863229351595,-0.002001846142364973,-2.2438835895326915e-08,-1.5876348903755668e-09,5.459494931467747e-10,-1.3125308132022617e-13
1668680882.6797507,68614,1668680882,679566486,,0.0018371697016950266,-0.0021641534650354605,-2.5862762653599135e-08,-1.850276718352948e-09,6.362642615467123e-10,-1.5109875156626984e-13
1668680882.6875844,68615,1668680882,687477892,,0.0019802468143312636,-0.00233269482716349,-2.9628991611553825e-08,-2.143980376586007e-09,7.372644075239821e-10,-1.729718798748614e-13
1668680882.6960626,68616,1668680882,695916737,,0.0021285414683146087,-0.0025073802913893285,-3.3751091575205246e-08,-2.470855205185499e-09,8.496766612780399e-10,-1.9693274788679105e-13
1668680882.7034209,68617,1668680882,703255780,,0.0022819727827864448,-0.0026881143879750975,-3.824151731251739e-08,-2.833017931500785e-09,9.742305617695948e-10,-2.2301951951853027e-13
1668680882.7119174,68618,1668680882,711799982,,0.002440455705393396,-0.0028747967230177978,-4.3111531188055464e-08,-3.2325847042696332e-09,1.1116557413227155e-09,-2.512512767283148e-13
1668680882.7197473,68619,1668680882,719575817,,0.002603901496529674,-0.0030673225481823658,-4.8371136078530457e-08,-3.6716633613763133e-09,1.2626793090926222e-09,-2.8163148896309664e-13
1668680882.7278736,68620,1668680882,727719993,,0.002772218182609845,-0.003265583293867569,-5.402901960641464e-08,-4.152345937103179e-09,1.428023290654494e-09,-3.141341353707361e-13
1668680882.7355072,68621,1668680882,735395106,,0.0029453109799266026,-0.0034694670676373002,-6.009250980116856e-08,-4.676701422357107e-09,1.60840218457769e-09,-3.487054395234779e-13
1668680882.7438915,68622,1668680882,743744654,,0.003123082690583701,-0.0036788591196749813,-6.656754164295691e-08,-5.246768826534538e-09,1.804520598621068e-09,-3.8526039997099915e-13
1668680882.7518845,68623,1668680882,751647570,,0.0033054340719306185,-0.0038936422769446314,-7.345863429223676e-08,-5.864550590010714e-09,2.017071029923904e-09,-4.2368279024040945e-13
1668680882.7600226,68624,1668680882,759831435,,0.003492264180865619,-0.004113697347670733,-8.076887858360469e-08,-6.532006310498684e-09,2.246731731756803e-09,-4.638407713475345e-13
1668680882.7677603,68625,1668680882,767585961,,0.0036834706943146434,-0.004338903497681132,-8.849993402557293e-08,-7.2510468503156214e-09,2.494164725664119e-09,-5.05545258433493e-13
1668680882.7752693,68626,1668680882,775166286,,0.003878950207137429,-0.004569138600089393,-9.665203544777394e-08,-8.023528787490318e-09,2.760013926119461e-09,-5.485716048081457e-13
1668680882.7837696,68627,1668680882,783645008,,0.0040785985086570055,-0.004804279559731174,-1.0522400786286756e-07,-8.851249280459922e-09,3.0449034130121573e-09,-5.926682755674761e-13
1668680882.7920334,68628,1668680882,791890938,,0.004282310838957442,-0.00504420261370542,-1.1421328953315751e-07,-9.735941299335435e-09,3.3494358149120836e-09,-6.375455718909961e-13
1668680882.7996657,68629,1668680882,799524941,,0.004489982126042618,-0.005288783609312812,-1.2361596231073704e-07,-1.0679269223763058e-08,3.674190840355189e-09,-6.828513449130824e-13
1668680882.8077917,68630,1668680882,807617855,,0.0047015072049011435,-0.0055378982606259,-1.3342678893807617e-07,-1.1682824862973879e-08,4.019723938636973e-09,-7.281987512985921e-13
1668680882.8154535,68631,1668680882,815302586,,0.004916781019474802,-0.005791422384870548,-1.436392560611292e-07,-1.274812382665426e-08,4.386565071519844e-09,-7.731645185193869e-13
1668680882.823884,68632,1668680882,823704689,,0.005135698808483598,-0.006049232119744959,-1.5424562309894944e-07,-1.3876602283696346e-08,4.7752176406590154e-09,-8.172507809378615e-13
1668680882.831732,68633,1668680882,831546512,,0.00535815627601567,-0.006311204122750832,-1.652369755695078e-07,-1.506961407740713e-08,5.186157522337311e-09,-8.59924978446891e-13
1668680882.8396878,68634,1668680882,839583493,,0.005584049747749696,-0.00657721575356194,-1.7660328273273504e-07,-1.632842822779125e-08,5.61983224645307e-09,-9.006181217463549e-13
1668680882.8476484,68635,1668680882,847542243,,0.005813276313636568,-0.006847145240409257,-1.8833345869078294e-07,-1.7654226774761164e-08,6.07666025186299e-09,-9.387022409379497e-13
1668680882.855729,68636,1668680882,855508688,,0.006045733957828761,-0.007120871831413653,-2.004154265855819e-07,-1.904810291813411e-08,6.5570303089089454e-09,-9.734782424608568e-13
1668680882.8637269,68637,1668680882,863521828,,0.006281321676607848,-0.007398275931755549,-2.1283618491197268e-07,-2.0511059560139122e-08,7.061300999651465e-09,-1.0042123382847379e-12
1668680882.871629,68638,1668680882,871442319,,0.006519939585026141,-0.0076792392275273035,-2.2558187612452884e-07,-2.2044008077815578e-08,7.589800367401381e-09,-1.0301082903341197e-12
1668680882.8799012,68639,1668680882,879725983,,0.006761489927104283,-0.00796364215246271,6.654754830178059e-05,-2.364776747453012e-08,8.142825599346745e-09,-1.0503230229996774e-12
1668680882.8878467,68640,1668680882,887724496,,0.007005874900317336,-0.008251370528582413,0.00016325467864329658,-2.5323063762862342e-08,8.72064285514047e-09,-1.0639562147973791e-12
1668680882.8956494,68641,1668680882,895519052,,0.0072529999043192735,-0.008542306477138164,0.00036790080789262275,-2.7070529630589192e-08,9.323487156799593e-09,-1.0700433594745817e-12
1668680882.9036186,68642,1668680882,903415994,,0.007533825651521992,-0.00883633423602573,0.0006434318805425942,-2.9077351992442212e-08,1.001569230454696e-08,-1.0733809674423611e-12
1668680882.9120305,68643,1668680882,911906339,,0.007814686844650545,-0.00913335270315581,0.00089592093279351,-3.115324777276185e-08,1.073192441234912e-08,-1.065841859215766e-12
1668680882.9197059,68644,1668680882,919606679,,0.008112032404630065,-0.00943324793338342,0.001173165679091381,-3.340388730455979e-08,1.1508510997372372e-08,-1.0489178969841362e-12
1668680882.927906,68645,1668680882,927707200,,0.00840563027648965,-0.009735914478892901,0.0014893305441935675,-3.570368137215964e-08,1.230234131103028e-08,-1.017592260454947e-12
1668680882.9354372,68646,1668680882,935279450,,0.008708219085223812,-0.010041244333097433,0.0018489086749650947,-3.813768862580237e-08,1.3142660064467768e-08,-9.7234720275452e-13
1668680882.9437282,68647,1668680882,943625609,,0.00900923335031638,-0.010349142986724121,0.0021764252150923437,-4.0635382283550105e-08,1.4005272988158648e-08,-9.100602216260967e-13
1668680882.9520998,68648,1668680882,951868630,,0.009314015793787217,-0.010659504915094004,0.0025115211859343387,-4.323440909995884e-08,1.490313982622062e-08,-8.297910969456979e-13
1668680882.959718,68649,1668680882,959585180,,0.009640774045640555,-0.010972227060790558,0.0028611316524552576,-4.607520311233882e-08,1.5884538330133372e-08,-7.308390004290288e-13
1668680882.9678383,68650,1668680882,967654025,,0.00997663820866268,-0.011287217405002402,0.003201787239163596,-4.907032185571874e-08,1.6919487690503655e-08,-6.09286926467334e-13
1668680882.9759965,68651,1668680882,975794458,,0.010313437430517717,-0.011604376048314477,0.003579218285036086,-5.2158595524414136e-08,1.798702189997241e-08,-4.624148286502816e-13
1668680882.9835176,68652,1668680882,983320841,,0.010754395194092409,-0.011923596735043162,0.00394959184094733,-5.620746141180651e-08,1.9385156480142447e-08,-2.851885394505871e-13
1668680882.991813,68653,1668680882,991556776,,0.011182422290245176,-0.012244815617574676,0.004282905007188656,-6.027914390189138e-08,2.0791960121278527e-08,-7.158509895965892e-14
1668680883.0001755,68654,1668680882,999972518,,0.011655801737140358,-0.012567929507955145,0.004597225908670301,-6.488837950565187e-08,2.2384282205470223e-08,1.8630583187295713e-13
1668680883.0077899,68655,1668680883,7636600,,0.0122327480144346,-0.012900270908682778,0.004995044635401485,-7.064755951294711e-08,2.4372609221958406e-08,5.072504916103782e-13
1668680883.0155575,68656,1668680883,15387559,,0.012886403029150846,-0.013230203771199196,0.005431450412251322,-7.736579474564194e-08,2.6691650262754794e-08,9.054076932635269e-13
1668680883.0243075,68657,1668680883,24095699,,0.013508505564776094,-0.01356151306946783,0.0058226532424634865,-8.403030009695284e-08,2.8993822265592148e-08,1.3715591162810625e-12
1668680883.031686,68658,1668680883,31538407,,0.014154671058135502,-0.013892255719107996,0.006213696975771711,-9.118870363954319e-08,3.146727394821337e-08,1.925151010828685e-12
1668680883.040473,68659,1668680883,39889140,,0.014741551247757391,-0.014260584188393105,0.006585780241242981,-9.808321027013388e-08,3.3851949595049835e-08,2.5500955513901857e-12
1668680883.048563,68660,1668680883,48201877,,0.015286028935169726,-0.01464644586015054,0.0069282459317893084,-1.0477258124524632e-07,3.6168052955473824e-08,3.2480962364189736e-12
1668680883.0555768,68661,1668680883,55383887,,0.015832820195329896,-0.015020539484457052,0.007273815009005326,-1.1162735301546971e-07,3.8542855853316085e-08,4.036514178462625e-12
1668680883.063912,68662,1668680883,63720112,,0.016353657910051084,-0.015392463023237482,0.007577723246779957,-1.1833595913631205e-07,4.0869486939566595e-08,4.905000017263461e-12
1668680883.072332,68663,1668680883,72100080,,0.016942773270549518,-0.01578525462104032,0.007854577858644582,-1.2615955641487927e-07,4.358103888673585e-08,5.9285493181349125e-12
1668680883.0796955,68664,1668680883,79566427,,0.0175505793675955,-0.0161863997178953,0.00810035743877819,-1.3447353055195087e-07,4.646342340844552e-08,7.0907169025247185e-12
1668680883.0878348,68665,1668680883,87678918,,0.01800701503635478,-0.016909998201390854,0.008430745154649082,-1.4244437585334783e-07,4.923068815912597e-08,8.345539537213398e-12
1668680883.0954723,68666,1668680883,95342102,,0.018183833819031932,-0.018771196185654922,0.008847291305003174,-1.5208194783936438e-07,5.2572898703038065e-08,9.847588022804388e-12
1668680883.103705,68667,1668680883,103574610,,0.018362224913528954,-0.020508742228804715,0.009213436697708589,-1.6137931333989365e-07,5.58016262828219e-08,1.1465099702956394e-11
1668680883.1119704,68668,1668680883,111743673,,0.01840536600060383,-0.02274769472184219,0.009600759888922738,-1.7139351819793567e-07,5.927978882584988e-08,1.3293616207832315e-11
1668680883.1198857,68669,1668680883,119701266,,0.018389031894404037,-0.025294244678321507,0.009989356959301986,-1.823037506360728e-07,6.306925554499989e-08,1.53719398321428e-11
1668680883.12765,68670,1668680883,127500850,,0.018352600643810797,-0.02789968108288928,0.010354131635736995,-1.9344600144134824e-07,6.69425191576192e-08,1.765551593813086e-11
1668680883.1353884,68671,1668680883,135231173,,0.018316411730206664,-0.030559259041553766,0.010602942543539535,-2.0511194893637003e-07,7.099993757676837e-08,2.0189856730912226e-11
1668680883.1439,68672,1668680883,143783139,,0.018301237322366035,-0.033012243882662995,0.010811127554904458,-2.1619087001205567e-07,7.486059570990192e-08,2.2858555326354946e-11
1668680883.1516736,68673,1668680883,151562036,,0.018295346961833756,-0.03537803470284103,0.010991518372618095,-2.2710615232764695e-07,7.866976431771845e-08,2.5709705198107002e-11
1668680883.159773,68674,1668680883,159613058,,0.018303613188544402,-0.03760913964163482,0.011141057773139642,-2.3763180475065227e-07,8.234996464080713e-08,2.8714516875361085e-11
1668680883.1677241,68675,1668680883,167611112,,0.018328072760842147,-0.039620030080506616,0.011307518961926956,-2.472488036350698e-07,8.57230497429461e-08,3.179295021693562e-11
1668680883.1755395,68676,1668680883,175338107,,0.018473960747919408,-0.040461925912582845,0.01140406906061093,-2.520062174244807e-07,8.743279394322206e-08,3.431010336951701e-11
1668680883.18381,68677,1668680883,183627954,,0.01862905238643107,-0.04122469915188633,0.011470520385407789,-2.5643643634986127e-07,8.903274308818057e-08,3.6888665733147974e-11
1668680883.191932,68678,1668680883,191754247,,0.018847301194105215,-0.04138556499529241,0.011490839949145843,-2.5827942967362365e-07,8.974715565027505e-08,3.912897089675127e-11
1668680883.1996777,68679,1668680883,199544393,,0.0193851836701141,-0.040858332481098915,0.011403788684588047,-2.6177778229797503e-07,9.103094869415164e-08,4.173885542746447e-11
1668680883.2085714,68680,1668680883,208281630,,0.020068327348934302,-0.04001086944053567,0.011257129021598611,-2.6601010372895697e-07,9.256867219997224e-08,4.45879999588783e-11
1668680883.2153971,68681,1668680883,215293016,,0.020795105306689876,-0.03899929170538698,0.011087245191661063,-2.7005469670373207e-07,9.404437496438565e-08,4.7513097622964295e-11
1668680883.2236128,68682,1668680883,223449354,,0.02148357590449397,-0.03806115103744578,0.010908837427892738,-2.738574421258348e-07,9.543943599462333e-08,5.0499646131463294e-11
1668680883.231683,68683,1668680883,231579948,,0.022206957859086066,-0.03711257761673627,0.010701670005489692,-2.782962462378135e-07,9.705505863637047e-08,5.373599482050295e-11
1668680883.2398152,68684,1668680883,239607411,,0.022928184515525207,-0.03619474463161101,0.010478525233270999,-2.829238749490321e-07,9.873809634773807e-08,5.7139785958337797e-11
1668680883.2476184,68685,1668680883,247487697,,0.023811823235511315,-0.03528198139398106,0.010229087001846717,-2.90865839807199e-07,1.0156125715464828e-07,6.146624181857518e-11
1668680883.2557106,68686,1668680883,255594250,,0.024395747066917578,-0.03519670590387138,0.009954418152018354,-2.983717855584785e-07,1.0423918382434193e-07,6.588232737136934e-11
1668680883.2634864,68687,1668680883,263350961,,0.02481861750312341,-0.03552022417961729,0.009668771341228592,-3.053953469847278e-07,1.067558448772897e-07,7.036734389620491e-11
1668680883.2719505,68688,1668680883,271762998,,0.02522258241516085,-0.03582248535226363,0.009386631009295316,-3.1190577974197315e-07,1.0910053647463468e-07,7.490254944064745e-11
1668680883.2798169,68689,1668680883,279677641,,0.02529941970708249,-0.03703399148756532,0.009010371472525158,-3.17850053384674e-07,1.1125488163523344e-07,7.946128477431813e-11
1668680883.2877111,68690,1668680883,287561847,,0.025221090489877317,-0.03864370088131547,0.008594416127581767,-3.2325332661580506e-07,1.132272952101502e-07,8.403676365897894e-11
1668680883.295493,68691,1668680883,295278746,,0.025078112240761057,-0.04086627346867426,0.007718942200850085,-3.3156497741175864e-07,1.1620113562365621e-07,8.964935044319944e-11
1668680883.3048651,68692,1668680883,304681940,,0.02496257666092173,-0.04290952283233583,0.006897428289583778,-3.391635643667742e-07,1.1893537242438704e-07,9.527117289520604e-11
1668680883.3123543,68693,1668680883,312132562,,0.02482780067978875,-0.04541319044255476,0.005875448979699158,-3.496516922582289e-07,1.2266581974414333e-07,1.0204083411569087e-10
1668680883.3203678,68694,1668680883,320151149,,0.02469744619158423,-0.04804036944517499,0.004789407887397098,-3.6115235144953614e-07,1.2675008008748365e-07,1.0943501660420907e-10
1668680883.3276832,68695,1668680883,327541949,,0.024583919237825,-0.05087655621914291,0.0036871409233183252,-3.7462044560432426e-07,1.3151644138857145e-07,1.1782208542143735e-10
1668680883.335783,68696,1668680883,335605968,,0.024541633922721687,-0.0536705668358802,0.0026376317235633296,-3.894789373112503e-07,1.3676814961398505e-07,1.27072546929341e-10
1668680883.3434837,68697,1668680883,343292348,,0.02454567131738048,-0.05632524662707954,0.0016515780235163131,-4.0442747188586953e-07,1.4206006000109378e-07,1.3676855481481454e-10
1668680883.3516366,68698,1668680883,351537851,,0.024569819550244582,-0.058739749436889324,0.000740302564730314,-4.1802331266621844e-07,1.4689752239876314e-07,1.4637921430527e-10
1668680883.360166,68699,1668680883,359976107,,0.02468453228119636,-0.060912447171056955,-0.00010777684938196744,-4.319404606262689e-07,1.5185423198299346e-07,1.565184232221739e-10
1668680883.368104,68700,1668680883,367827693,,0.02484928626579922,-0.06286654426728847,-0.0008924230186863828,-4.4536206593155745e-07,1.5665037496836141e-07,1.6687953796612476e-10
1668680883.3756614,68701,1668680883,375503344,,0.025262206713197323,-0.06454383081072504,-0.0016150707332067006,-4.628640590037731e-07,1.6285545618522149e-07,1.793491605228681e-10
1668680883.383776,68702,1668680883,383572220,,0.02566368653206603,-0.06604443889718488,-0.0022772299661796887,-4.786982475831706e-07,1.685005102741114e-07,1.9163977349467842e-10
1668680883.391652,68703,1668680883,391539454,,0.026228115359230097,-0.06733895776139191,-0.0028833929887249394,-4.971671104574355e-07,1.7506047890469834e-07,2.055914605225695e-10
1668680883.3998008,68704,1668680883,399620462,,0.0268601202744723,-0.06846108658054416,-0.0034363081111734328,-5.161014776709858e-07,1.8179329472323667e-07,2.203389970478753e-10
1668680883.4077926,68705,1668680883,407631448,,0.02762664396116702,-0.06933758484068013,-0.003938677118828943,-5.367168528083244e-07,1.8911642426719388e-07,2.364825696377082e-10
1668680883.4155438,68706,1668680883,415348362,,0.028624201356651394,-0.07006837351956087,-0.0043934682049270755,-5.627081861342594e-07,1.9829839867672658e-07,2.558794287566002e-10
1668680883.4237473,68707,1668680883,423547014,,0.029560175524389606,-0.07068937466341799,-0.004803485156302564,-5.862669205283343e-07,2.0666542830077676e-07,2.7492035037379736e-10
1668680883.4321518,68708,1668680883,431970670,,0.030582258707812657,-0.07119535847981862,-0.005171502477541361,-6.115274884275828e-07,2.156340966437062e-07,2.9562390035930974e-10
1668680883.439699,68709,1668680883,439570678,,0.031557341171363204,-0.0716856647664992,-0.0055002490355061376,-6.355216427488767e-07,2.2418827332862552e-07,3.165362139068151e-10
1668680883.4479191,68710,1668680883,447767948,,0.03247849676104006,-0.07212477105232418,-0.005792105285677394,-6.576119906485239e-07,2.321090356626268e-07,3.3728164705593144e-10
1668680883.4555602,68711,1668680883,455450621,,0.033357892103526694,-0.07270204564169797,-0.006252287438581639,-6.799280960760774e-07,2.4012559144727386e-07,3.58970783653767e-10
1668680883.4639862,68712,1668680883,463742346,,0.03417835494313026,-0.07317939919367289,-0.006663602911177065,-6.99550933775544e-07,2.4723778139536245e-07,3.7997793800315094e-10
1668680883.4717045,68713,1668680883,471597141,,0.03517744180703529,-0.07382750292146152,-0.00742936816615582,-7.266780192908238e-07,2.569398857804432e-07,4.0613981622250606e-10
1668680883.479686,68714,1668680883,479519160,,0.036229290555150895,-0.07450831342140865,-0.008331372808493012,-7.560991712437853e-07,2.6745186934443513e-07,4.3471511113057915e-10
1668680883.4875886,68715,1668680883,487488695,,0.037275278352106096,-0.07543748586949839,-0.009573250708651905,-7.881872669273813e-07,2.7890385853688443e-07,4.660722779936677e-10
1668680883.4954903,68716,1668680883,495342811,,0.038236581448903004,-0.0765193758486662,-0.010974408768647312,-8.193348081405151e-07,2.9006206967168054e-07,4.980972995172195e-10
1668680883.5038855,68717,1668680883,503764792,,0.0391253982013738,-0.0774567920641141,-0.012242914519469173,-8.466806161409055e-07,2.999458386381427e-07,5.289213650394586e-10
1668680883.513618,68718,1668680883,511634654,,0.039942609460373535,-0.07840970889852746,-0.01353356044802259,-8.718258990331358e-07,3.0910150290112265e-07,5.594445462442366e-10
1668680883.5207143,68719,1668680883,520146359,,0.04073183890653655,-0.07921632307518955,-0.014710431458387796,-8.944422661098924e-07,3.174152394505754e-07,5.89354121061092e-10
1668680883.5277328,68720,1668680883,527575457,,0.04147792769557984,-0.07989150543050969,-0.015772941126310724,-9.140718613549455e-07,3.2472847947542446e-07,6.18219128667441e-10
1668680883.5353997,68721,1668680883,535222713,,0.042178260501378614,-0.08032098053163651,-0.016572141290765525,-9.29266481643925e-07,3.3054277364611556e-07,6.448603317998902e-10
1668680883.5444086,68722,1668680883,544230318,,0.042821572381585835,-0.08065281679211289,-0.01727526817200536,-9.412064998091853e-07,3.3525902212510825e-07,6.699230198359274e-10
1668680883.5526772,68723,1668680883,552500171,,0.0433880363174425,-0.08080078089901821,-0.017765071768146023,-9.481388586607539e-07,3.382738279419928e-07,6.91920493123277e-10
1668680883.559894,68724,1668680883,559774517,,0.043894264021947696,-0.08082374113576982,-0.01811591833513492,-9.51313521273733e-07,3.400111193399731e-07,7.115524836009968e-10
1668680883.5675304,68725,1668680883,567424008,,0.044386060277161556,-0.08082150802696415,-0.01837584917664691,-9.53563238796141e-07,3.4143821860252097e-07,7.308579574871743e-10
1668680883.5755527,68726,1668680883,575440564,,0.04492856326836568,-0.08070574713806095,-0.01856173719565139,-9.563266516097145e-07,3.430473130791069e-07,7.509552285567267e-10
1668680883.5835626,68727,1668680883,583434621,,0.04542370545486633,-0.08053733474522333,-0.018696196812391874,-9.566200700147388e-07,3.438165594956723e-07,7.694084813714142e-10
1668680883.591857,68728,1668680883,591732776,,0.045924403631412675,-0.08029401999055667,-0.01877444120796938,-9.56190916846008e-07,3.4434247101746904e-07,7.875629454145994e-10
1668680883.6000264,68729,1668680883,599870365,,0.04643365509441225,-0.08015492120404276,-0.0187865929967308,-9.57203146255566e-07,3.4536592059602675e-07,8.072542911907732e-10
1668680883.6077921,68730,1668680883,607575398,,0.04692490191919808,-0.08004439229298244,-0.018748611551754175,-9.57772363249852e-07,3.4624262649357584e-07,8.26902671335894e-10
1668680883.6156232,68731,1668680883,615478899,,0.04733788570544205,-0.08014392779135411,-0.018827868794314397,-9.576594602057334e-07,3.4689029273582764e-07,8.46271441812263e-10
1668680883.6236756,68732,1668680883,623520576,,0.047755396840154674,-0.08040116289384414,-0.01905968477206503,-9.594160609434311e-07,3.481826618542336e-07,8.676784429839657e-10
1668680883.6317005,68733,1668680883,631585988,,0.04813279224034611,-0.0805799907489699,-0.019235410224771654,-9.586029336274091e-07,3.486004536926851e-07,8.870578854791589e-10
1668680883.6398787,68734,1668680883,639665773,,0.048496114268099313,-0.08080505092946494,-0.019463135309656755,-9.57660201995501e-07,3.489773642006977e-07,9.066088574316566e-10
1668680883.647776,68735,1668680883,647612234,,0.0488577844016159,-0.08099876119635581,-0.019749729793566376,-9.561763094301451e-07,3.4917229015541534e-07,9.259242678139046e-10
1668680883.6556568,68736,1668680883,655484518,,0.04924132822506826,-0.08108894888683167,-0.020021768978357665,-9.542470107404798e-07,3.4921755681519354e-07,9.450717847192536e-10
1668680883.6639705,68737,1668680883,663779565,,0.04958648784494734,-0.0811145512265532,-0.020232659235260995,-9.499778497179534e-07,3.484636066737254e-07,9.620993723924443e-10
1668680883.67163,68738,1668680883,671452395,,0.04992675785201418,-0.08106507502772665,-0.02041178169901616,-9.445746545738275e-07,3.4732134102620493e-07,9.781235682515543e-10
1668680883.679599,68739,1668680883,679449598,,0.050404640317271245,-0.08103281127172506,-0.020582828374060756,-9.44701688925507e-07,3.480732717461507e-07,1.0001256212088805e-09
1668680883.6877897,68740,1668680883,687601298,,0.0509272460182319,-0.08098423671609728,-0.020723943089656856,-9.463183071132392e-07,3.493403477939673e-07,1.0240835818242644e-09
1668680883.6955929,68741,1668680883,695437390,,0.05154093316363036,-0.08082728430209667,-0.020767714494137994,-9.502179475371839e-07,3.513960006350583e-07,1.0509604159159025e-09
1668680883.7045271,68742,1668680883,704341922,,0.052095931237560296,-0.08062818382187696,-0.020766963025984107,-9.51221849933943e-07,3.52468037198312e-07,1.0751162876632137e-09
1668680883.7119806,68743,1668680883,711815254,,0.052807188975993534,-0.08041290424321842,-0.020750057409611652,-9.582266039429802e-07,3.5560213181365374e-07,1.1064921479064793e-09
1668680883.7200954,68744,1668680883,719913320,,0.05356229002734672,-0.08017317232345253,-0.020706872569185106,-9.666585948293113e-07,3.592372526473389e-07,1.1401680294342853e-09
1668680883.727757,68745,1668680883,727577369,,0.05453726556002536,-0.0799869378165919,-0.02075035659700676,-9.84593453272082e-07,3.661420822070188e-07,1.1857414633498209e-09
1668680883.7353168,68746,1668680883,735204323,,0.055479554883107594,-0.07998933471604053,-0.020815001868588007,-1.003395517352448e-06,3.733675328822933e-07,1.233472865513896e-09
1668680883.7439446,68747,1668680883,743769004,,0.056331719827568114,-0.07994096579504094,-0.020833372574881794,-1.0178588154260764e-06,3.791311438878543e-07,1.277095582064014e-09
1668680883.7519972,68748,1668680883,751809428,,0.05713038821782552,-0.07996543836923815,-0.020844090487749142,-1.0309009717034481e-06,3.8442841381134546e-07,1.3199678572384244e-09
1668680883.759845,68749,1668680883,759671980,,0.057451263156382416,-0.08008300345232107,-0.019974814287196073,-1.0249004478655446e-06,3.832207697896696e-07,1.3398222947769156e-09
1668680883.7680435,68750,1668680883,767892079,,0.0575189834209542,-0.08021827260344667,-0.018691231432072897,-1.0083841801010766e-06,3.784094261059627e-07,1.3463753723019778e-09
1668680883.7754242,68751,1668680883,775228160,,0.05715020667346613,-0.08038894702059755,-0.017045376474900106,-9.740116823545681e-07,3.6746778795402127e-07,1.3294083611725682e-09
1668680883.783889,68752,1668680883,783774338,,0.05679402243538527,-0.08049681965575893,-0.015495881718246392,-9.397146548671166e-07,3.56520291066708e-07,1.3115006719521816e-09
1668680883.7919147,68753,1668680883,791793605,,0.0560483119561113,-0.08036290634203157,-0.013125831911919586,-8.869342706081069e-07,3.3920749233909073e-07,1.2677366933999679e-09
1668680883.7998257,68754,1668680883,799632168,,0.0551353907358211,-0.08009349509960387,-0.010434194390412417,-8.267100656774752e-07,3.192919681266858e-07,1.2120239950563771e-09
1668680883.808125,68755,1668680883,807951075,,0.05401331824905409,-0.0797079058792302,-0.007720303940309696,-7.580433849586118e-07,2.9642344651732364e-07,1.1425403262377287e-09
1668680883.8158727,68756,1668680883,815610396,,0.05293140283231801,-0.07905677870811609,-0.005168626205098223,-6.896784867624394e-07,2.735904263985976e-07,1.0710709125172357e-09
1668680883.8241026,68757,1668680883,823798960,,0.051929261857795284,-0.0784123428815739,-0.0028085348810734283,-6.260872671807766e-07,2.523272078403145e-07,1.0040239473152468e-09
1668680883.8315644,68758,1668680883,831443003,,0.050981803026449335,-0.07764370117889825,-0.0006097960106429911,-5.647665466163194e-07,2.3178166453979507e-07,9.380942689318772e-10
1668680883.8397405,68759,1668680883,839625699,,0.05043651042602341,-0.07688902729537064,0.0015083228439947021,-5.199177911313288e-07,2.168266494632226e-07,8.941742485335524e-10
1668680883.8477125,68760,1668680883,847569059,,0.050108927796335745,-0.07615167465993224,0.0035045070293901297,-4.840451354708045e-07,2.0490944864894403e-07,8.621171970757402e-10
1668680883.855769,68761,1668680883,855648446,,0.04980737511235138,-0.075366612106418,0.004987532005597948,-4.4921076414812695e-07,1.933172371951751e-07,8.305412191322858e-10
1668680883.8635097,68762,1668680883,863283272,,0.04965983265920691,-0.07463270694528945,0.00631022500051679,-4.2096467753945533e-07,1.8395466344200279e-07,8.079160118690254e-10
1668680883.8717601,68763,1668680883,871640980,,0.04952723882491254,-0.07392323914621073,0.007515800939992989,-3.9386944773473626e-07,1.7496341872536014e-07,7.862630546640048e-10
1668680883.879987,68764,1668680883,879847656,,0.04947675448368747,-0.07325085617691189,0.008594140081766045,-3.704062227595029e-07,1.6719572001194782e-07,7.694927889323466e-10
1668680883.8877237,68765,1668680883,887541621,,0.04935440309453814,-0.07253765884803823,0.009983574743676074,-3.4430067685298563e-07,1.585029571651679e-07,7.479521446640547e-10
1668680883.8957481,68766,1668680883,895567788,,0.04896291733159246,-0.07189200849354638,0.011627467768101404,-3.0972821595551345e-07,1.4688460046397359e-07,7.122516743063301e-10
1668680883.9034958,68767,1668680883,903389105,,0.04845846185918616,-0.07129159398410255,0.013321560520281288,-2.722223991946009e-07,1.3423083329404395e-07,6.708197053395537e-10
1668680883.912045,68768,1668680883,911869070,,0.04800169432693194,-0.07071345737046969,0.014855342420915824,-2.3721990002705234e-07,1.2240422989692051e-07,6.323231938054619e-10
1668680883.919752,68769,1668680883,919559452,,0.047593852670323074,-0.07031463528383042,0.01648391723490296,-2.0607378242514744e-07,1.1187165942358121e-07,5.99113494925696e-10
1668680883.9276764,68770,1668680883,927537165,,0.047230381613961515,-0.07000834901797716,0.018080289559234266,-1.7771775431233306e-07,1.0227106547592603e-07,5.696247917796882e-10
1668680883.9355707,68771,1668680883,935451358,,0.04701500149637425,-0.06974249655751906,0.019657466680076768,-1.5506159383978438e-07,9.460365752844008e-08,5.488683257892646e-10
1668680883.9441977,68772,1668680883,944050753,,0.04682891227599958,-0.06947695824216725,0.021071106092838767,-1.3365976352683155e-07,8.734918911139714e-08,5.296187793879525e-10
1668680883.9520395,68773,1668680883,951858753,,0.04658053665932182,-0.06916995406121941,0.022338690993135603,-1.1011203309080949e-07,7.934194798170022e-08,5.061332464251223e-10
1668680883.9607365,68774,1668680883,960487552,,0.0463178646903452,-0.0688459791834247,0.02346538945178987,-8.626911071119882e-08,7.121518883195649e-08,4.814904308592105e-10
1668680883.9679027,68775,1668680883,967651086,,0.046336855140014954,-0.06841304078958305,0.024439506360284843,-7.099392345451695e-08,6.601057817566015e-08,4.710928730444763e-10
1668680883.9754646,68776,1668680883,975351874,,0.04660252486720546,-0.06787051396328017,0.025276844934866163,-6.298486275558516e-08,6.328895389186295e-08,4.730772024119645e-10
1668680883.9837759,68777,1668680883,983564676,,0.04686234230887841,-0.06735541639799815,0.02599801418586639,-5.510919984783903e-08,6.060845001310683e-08,4.751563725813313e-10
1668680883.9918544,68778,1668680883,991658015,,0.04723976690584086,-0.0667995900029949,0.026605096978985922,-5.081163606394153e-08,5.915148476999359e-08,4.834963401867398e-10
1668680883.9995968,68779,1668680883,999501569,,0.04758903256158476,-0.0661186890852898,0.02698601621590852,-4.4632048922031535e-08,5.7047026874720505e-08,4.884131710181094e-10
1668680884.007887,68780,1668680884,7781036,,0.047918229029195736,-0.06539775948836811,0.027217066310605043,-3.7561885040597424e-08,5.4633755264829956e-08,4.916162754664555e-10
1668680884.015471,68781,1668680884,15285610,,0.04836131376888233,-0.06476951625797997,0.027413274797995893,-3.507493967307412e-08,5.378969960613024e-08,5.031217525930387e-10
1668680884.023752,68782,1668680884,23590542,,0.048783068610307116,-0.06418296671960629,0.02753979277175071,-3.23053310513112e-08,5.28486168314881e-08,5.141288644816555e-10
1668680884.0320613,68783,1668680884,31885412,,0.04927899426277319,-0.06363677709646588,0.027757000714740555,-3.237105172446391e-08,5.2880474248583054e-08,5.30457108793847e-10
1668680884.040103,68784,1668680884,40004645,,0.04979819173840368,-0.06312870224266616,0.027984648664429238,-3.357684744402945e-08,5.330582497783086e-08,5.490458088175387e-10
1668680884.0478728,68785,1668680884,47755402,,0.05021277526119492,-0.06272063132970192,0.028260220893732892,-3.2203389534559736e-08,5.28490759661715e-08,5.628654486944384e-10
1668680884.0557187,68786,1668680884,55466291,,0.05065583278580873,-0.062305008107345204,0.028520600682995993,-3.176313215572102e-08,5.2713611077949765e-08,5.785341511410635e-10
1668680884.064049,68787,1668680884,63885832,,0.05107495147409905,-0.061920447583837704,0.028704047922003227,-3.08324695272701e-08,5.24116228986949e-08,5.933374486177811e-10
1668680884.0718274,68788,1668680884,71650685,,0.05149818630241815,-0.06154576597095835,0.028849386425766146,-3.0169241204422784e-08,5.2202810551073633e-08,6.087305381985431e-10
1668680884.0798495,68789,1668680884,79713654,,0.052207077564786625,-0.06130629239419842,0.02897041459482046,-4.025053514686121e-08,5.5683399630395564e-08,6.453932110961347e-10
1668680884.0880086,68790,1668680884,87853128,,0.053032126674171516,-0.06114270536631854,0.02904780949539744,-5.495948134776312e-08,6.076322543605364e-08,6.917101197378983e-10
1668680884.095585,68791,1668680884,95399045,,0.05363920685676943,-0.06084167192296855,0.0290078166063723,-6.115870249253849e-08,6.293766583809549e-08,7.215606168120559e-10
1668680884.1039302,68792,1668680884,103733424,,0.054205366295058004,-0.06056666284517445,0.028913692249912165,-6.621224758372127e-08,6.472676842813122e-08,7.494099923954778e-10
1668680884.111736,68793,1668680884,111556714,,0.05478687123367424,-0.06031605649874063,0.028794398520133012,-7.203633533930075e-08,6.678721584021247e-08,7.791117057065478e-10
1668680884.119641,68794,1668680884,119484036,,0.0553561412331403,-0.060088935075985395,0.02864053452441378,-7.766756254031382e-08,6.878913452485619e-08,8.087237546305914e-10
1668680884.127789,68795,1668680884,127623137,,0.056118113152378475,-0.05991371849033016,0.028538490639443442,-9.050779244818008e-08,7.327254185687804e-08,8.536128054403846e-10
1668680884.1354337,68796,1668680884,135258908,,0.05682378700738292,-0.059830401573427866,0.028459613113869596,-1.0220484437397336e-07,7.737779641201273e-08,8.96672472383564e-10
1668680884.1435354,68797,1668680884,143413178,,0.057476259926720834,-0.05975891206340358,0.02833077524857514,-1.1215436636412106e-07,8.089665802252927e-08,9.365692804630399e-10
1668680884.1517386,68798,1668680884,151611233,,0.05807919117321249,-0.05973711730628673,0.02819423849321252,-1.2078370983719874e-07,8.397432974113425e-08,9.741229350934688e-10
1668680884.1598601,68799,1668680884,159746302,,0.058549879281116976,-0.05981687761366354,0.028031338965466134,-1.25534658916549e-07,8.573190828434218e-08,1.0037653763728116e-09
1668680884.1681387,68800,1668680884,167930139,,0.05893844297143445,-0.059945624825788024,0.027836288244787094,-1.2772743564030964e-07,8.661888726592404e-08,1.0281454299043702e-09
1668680884.1755924,68801,1668680884,175409088,,0.05959202962719634,-0.06019842151306948,0.027682583937327983,-1.4060841368134219e-07,9.117808807881239e-08,1.0760812518828544e-09
1668680884.183826,68802,1668680884,183637208,,0.0601927960535691,-0.060436622950210205,0.02748639132739089,-1.5143361332449218e-07,9.504689385325324e-08,1.1200768784691562e-09
