Time,header.seq,header.stamp.secs,header.stamp.nsecs,header.frame_id,pose.position.x,pose.position.y,pose.position.z,pose.orientation.x,pose.orientation.y,pose.orientation.z,pose.orientation.w
1668680881.5599535,68474,1668680881,559832443,,-0.09879805500149934,-0.6160097984941423,0.07819229672030066,0.9955612156868358,0.09352316526210552,-0.004347595386688059,0.009611544821733646
1668680881.568083,68475,1668680881,567854112,,-0.09879814179147078,-0.6160097984869566,0.07819229672010297,0.9955612156868429,0.09352316526210615,-0.004347595386409266,0.009611544821117311
1668680881.5757906,68476,1668680881,575579973,,-0.09879822180007052,-0.616009798479955,0.07819229671991036,0.99556121568685,0.09352316526210698,-0.004347595386132685,0.00961154482050578
1668680881.5837982,68477,1668680881,583687596,,-0.0987982954052938,-0.6160097984731371,0.07819229671972285,0.995561215686857,0.09352316526210769,-0.0043475953858582534,0.009611544819899221
1668680881.5916147,68478,1668680881,591506051,,-0.09879836296790061,-0.6160097984665016,0.07819229671954035,0.9955612156868638,0.0935231652621083,-0.004347595385586099,0.009611544819297532
1668680881.5996695,68479,1668680881,599560239,,-0.0987984248320654,-0.6160097984600469,0.0781922967193627,0.9955612156868706,0.09352316526210909,-0.004347595385316172,0.00961154481870075
1668680881.607884,68480,1668680881,607739318,,-0.09879848132600924,-0.6160097984537714,0.07819229671919,0.9955612156868775,0.09352316526210985,-0.004347595385048522,0.009611544818109084
1668680881.6154728,68481,1668680881,615356208,,-0.09879853276261229,-0.6160097984476731,0.07819229671902232,0.9955612156868843,0.0935231652621105,-0.004347595384783119,0.009611544817522378
1668680881.6237621,68482,1668680881,623620669,,-0.09879857944000946,-0.6160097984417501,0.07819229671885937,0.9955612156868909,0.09352316526211125,-0.004347595384520037,0.009611544816940692
1668680881.6317503,68483,1668680881,631565421,,-0.09879862164216681,-0.6160097984359998,0.07819229671870095,0.9955612156868976,0.09352316526211184,-0.004347595384259251,0.00961154481636397
1668680881.639881,68484,1668680881,639729485,,-0.09879865963944094,-0.6160097984304203,0.07819229671854745,0.9955612156869043,0.09352316526211255,-0.004347595384000878,0.009611544815792553
1668680881.6478045,68485,1668680881,647692263,,-0.09879869368912139,-0.6160097984250087,0.07819229671839861,0.9955612156869108,0.09352316526211325,-0.004347595383744822,0.009611544815226369
1668680881.6555202,68486,1668680881,655408811,,-0.09879872403595513,-0.6160097984197627,0.07819229671825433,0.9955612156869172,0.09352316526211386,-0.004347595383491088,0.009611544814665297
1668680881.6638942,68487,1668680881,663773645,,-0.09879875091265555,-0.6160097984146787,0.07819229671811437,0.9955612156869237,0.09352316526211449,-0.004347595383239676,0.009611544814109368
1668680881.6719692,68488,1668680881,671728827,,-0.09879877454039322,-0.6160097984097548,0.07819229671797893,0.99556121568693,0.09352316526211517,-0.004347595382990774,0.009611544813558845
1668680881.679686,68489,1668680881,679586455,,-0.09879879512927203,-0.6160097984049879,0.07819229671784758,0.9955612156869362,0.09352316526211579,-0.004347595382744148,0.009611544813013505
1668680881.6876028,68490,1668680881,687492632,,-0.09879881287879001,-0.6160097984003744,0.07819229671772066,0.9955612156869424,0.09352316526211642,-0.004347595382499929,0.009611544812473435
1668680881.6958811,68491,1668680881,695698312,,-0.09879882797828259,-0.6160097983959117,0.07819229671759781,0.9955612156869487,0.09352316526211694,-0.004347595382258253,0.00961154481193889
1668680881.7037742,68492,1668680881,703544524,,-0.09879884060735228,-0.6160097983915968,0.0781922967174792,0.9955612156869547,0.09352316526211768,-0.004347595382019056,0.009611544811409764
1668680881.7118645,68493,1668680881,711723321,,-0.0987988509362845,-0.616009798387426,0.07819229671736444,0.9955612156869608,0.09352316526211825,-0.004347595381782177,0.009611544810885905
1668680881.719895,68494,1668680881,719676321,,-0.0987988591264463,-0.6160097983833965,0.07819229671725346,0.9955612156869668,0.09352316526211886,-0.004347595381547751,0.009611544810367498
1668680881.7277339,68495,1668680881,727561798,,-0.09879886533067382,-0.616009798379505,0.07819229671714649,0.9955612156869726,0.09352316526211953,-0.00434759538131586,0.009611544809854659
1668680881.73575,68496,1668680881,735586280,,-0.0987988696936449,-0.6160097983757482,0.07819229671704306,0.9955612156869785,0.09352316526212,-0.004347595381086375,0.009611544809346968
1668680881.7433076,68497,1668680881,743147738,,-0.09879887235223708,-0.6160097983721229,0.07819229671694322,0.9955612156869843,0.09352316526212072,-0.004347595380859459,0.009611544808844966
1668680881.751821,68498,1668680881,751687818,,-0.09879887343587543,-0.6160097983686259,0.07819229671684702,0.9955612156869901,0.09352316526212122,-0.004347595380634999,0.009611544808348511
1668680881.7597096,68499,1668680881,759607390,,-0.09879887306686543,-0.6160097983652538,0.07819229671675425,0.9955612156869956,0.09352316526212176,-0.004347595380413026,0.009611544807857503
1668680881.7677796,68500,1668680881,767688800,,-0.09879887136071405,-0.6160097983620035,0.07819229671666478,0.9955612156870013,0.0935231652621222,-0.004347595380193596,0.009611544807371985
1668680881.7754464,68501,1668680881,775341083,,-0.09879886842643909,-0.6160097983588718,0.0781922967165785,0.9955612156870067,0.0935231652621229,-0.004347595379976643,0.009611544806892183
1668680881.7836933,68502,1668680881,783560195,,-0.09879886436686773,-0.6160097983558555,0.07819229671649523,0.9955612156870123,0.0935231652621233,-0.004347595379762245,0.009611544806417795
1668680881.7917926,68503,1668680881,791600432,,-0.0987988592789215,-0.6160097983529514,0.07819229671641527,0.9955612156870177,0.09352316526212384,-0.004347595379550393,0.009611544805949142
1668680881.8001258,68504,1668680881,799946291,,-0.09879885325389254,-0.6160097983501563,0.07819229671633839,0.995561215687023,0.09352316526212438,-0.004347595379341066,0.009611544805486186
1668680881.8076425,68505,1668680881,807549133,,-0.0987988463777084,-0.616009798347467,0.07819229671626438,0.9955612156870283,0.09352316526212504,-0.004347595379134255,0.009611544805028604
1668680881.8156314,68506,1668680881,815455892,,-0.0987988387311861,-0.6160097983448807,0.07819229671619314,0.9955612156870334,0.09352316526212562,-0.004347595378930065,0.009611544804576837
1668680881.8235161,68507,1668680881,823273239,,-0.09879883039027654,-0.6160097983423947,0.07819229671612465,0.9955612156870386,0.0935231652621262,-0.004347595378728433,0.009611544804130793
1668680881.831702,68508,1668680881,831582591,,-0.09879882142629928,-0.616009798340005,0.0781922967160588,0.9955612156870437,0.09352316526212665,-0.004347595378529418,0.009611544803690366
1668680881.840143,68509,1668680881,839930019,,-0.09879881190616736,-0.6160097983377094,0.07819229671599569,0.9955612156870487,0.09352316526212708,-0.0043475953783329805,0.009611544803255554
1668680881.8480537,68510,1668680881,847873144,,-0.09879880189260447,-0.616009798335505,0.07819229671593514,0.9955612156870536,0.09352316526212755,-0.004347595378139103,0.009611544802826551
1668680881.8553898,68511,1668680881,855292270,,-0.09879879144435093,-0.6160097983333883,0.07819229671587669,0.9955612156870585,0.09352316526212809,-0.004347595377947722,0.00961154480240307
1668680881.8661582,68512,1668680881,865989036,,-0.09879878061636388,-0.6160097983313576,0.07819229671582088,0.9955612156870632,0.09352316526212844,-0.0043475953777589935,0.00961154480198537
1668680881.8730185,68513,1668680881,872737087,,-0.09879876946000697,-0.6160097983294093,0.07819229671576715,0.995561215687068,0.09352316526212869,-0.004347595377572824,0.009611544801573396
1668680881.8797572,68514,1668680881,879615603,,-0.09879875802323279,-0.6160097983275411,0.07819229671571584,0.9955612156870727,0.09352316526212931,-0.0043475953773893525,0.00961154480116725
1668680881.8877735,68515,1668680881,887582143,,-0.09879874635075864,-0.61600979832575,0.07819229671566631,0.9955612156870773,0.09352316526212964,-0.004347595377208385,0.009611544800766678
1668680881.8956625,68516,1668680881,895560880,,-0.09879873448423329,-0.6160097983240339,0.07819229671561911,0.9955612156870819,0.09352316526212995,-0.00434759537703005,0.009611544800371869
1668680881.9033275,68517,1668680881,903230640,,-0.09879872246239746,-0.61600979832239,0.07819229671557382,0.9955612156870864,0.0935231652621304,-0.00434759537685427,0.009611544799982864
1668680881.9116366,68518,1668680881,911498527,,-0.0987987103212373,-0.6160097983208156,0.07819229671553042,0.9955612156870908,0.09352316526213081,-0.004347595376681094,0.009611544799599445
1668680881.9198725,68519,1668680881,919678260,,-0.09879869809413068,-0.6160097983193086,0.07819229671548882,0.9955612156870951,0.09352316526213131,-0.004347595376510504,0.00961154479922171
1668680881.9279113,68520,1668680881,927768050,,-0.09879868581198824,-0.616009798317867,0.07819229671544914,0.9955612156870994,0.09352316526213184,-0.004347595376342679,0.009611544798850062
1668680881.935387,68521,1668680881,935292117,,-0.09879867350338625,-0.6160097983164879,0.0781922967154112,0.9955612156871037,0.09352316526213211,-0.004347595376177345,0.009611544798484058
1668680881.943859,68522,1668680881,943722472,,-0.09879866119469541,-0.6160097983151696,0.07819229671537474,0.9955612156871078,0.09352316526213258,-0.004347595376014602,0.009611544798123787
1668680881.9515946,68523,1668680881,951492729,,-0.0987986489102031,-0.6160097983139093,0.07819229671533999,0.995561215687112,0.09352316526213297,-0.004347595375854516,0.009611544797769302
1668680881.9599018,68524,1668680881,959723489,,-0.09879863667222992,-0.6160097983127053,0.07819229671530688,0.9955612156871159,0.09352316526213324,-0.004347595375697035,0.009611544797420518
1668680881.9676163,68525,1668680881,967502113,,-0.09879862450124074,-0.6160097983115553,0.07819229671527522,0.9955612156871199,0.09352316526213375,-0.004347595375542123,0.009611544797077614
1668680881.975564,68526,1668680881,975438515,,-0.09879861241595193,-0.6160097983104577,0.0781922967152451,0.9955612156871237,0.09352316526213422,-0.004347595375389901,0.009611544796740472
1668680881.983439,68527,1668680881,983272586,,-0.0987986004334314,-0.6160097983094099,0.07819229671521619,0.9955612156871276,0.09352316526213451,-0.004347595375240147,0.009611544796408942
1668680881.9918494,68528,1668680881,991607595,,-0.09879858856919597,-0.6160097983084108,0.07819229671518858,0.9955612156871313,0.09352316526213496,-0.004347595375093066,0.009611544796083138
1668680882.0003664,68529,1668680882,130807,,-0.09879857683730286,-0.6160097983074577,0.07819229671516251,0.995561215687135,0.09352316526213539,-0.004347595374948646,0.00961154479576319
1668680882.0086303,68530,1668680882,8435105,,-0.09879856525043793,-0.6160097983065499,0.07819229671513747,0.9955612156871386,0.09352316526213574,-0.0043475953748068,0.009611544795448942
1668680882.0160663,68531,1668680882,15929582,,-0.09879855381999818,-0.6160097983056843,0.07819229671511349,0.9955612156871422,0.09352316526213596,-0.004347595374667474,0.009611544795140403
1668680882.0241027,68532,1668680882,23954447,,-0.0987985425561717,-0.6160097983048601,0.07819229671509104,0.9955612156871456,0.09352316526213626,-0.004347595374530839,0.009611544794837655
1668680882.032623,68533,1668680882,32457047,,-0.0987985314680132,-0.6160097983040757,0.07819229671506933,0.9955612156871492,0.0935231652621364,-0.004347595374396799,0.00961154479454067
1668680882.0406024,68534,1668680882,40392540,,-0.09879852056351471,-0.6160097983033291,0.07819229671504863,0.9955612156871525,0.09352316526213673,-0.00434759537426519,0.009611544794249225
1668680882.0485163,68535,1668680882,48348006,,-0.09879850984967525,-0.616009798302619,0.07819229671502918,0.9955612156871557,0.09352316526213718,-0.004347595374136313,0.009611544793963714
1668680882.0559392,68536,1668680882,55800106,,-0.09879849933256421,-0.616009798301944,0.07819229671501067,0.9955612156871589,0.09352316526213743,-0.004347595374010037,0.009611544793683806
1668680882.0647898,68537,1668680882,64571670,,-0.0987984890173837,-0.6160097983013029,0.07819229671499289,0.9955612156871622,0.09352316526213772,-0.004347595373886308,0.009611544793409666
1668680882.072119,68538,1668680882,71955261,,-0.09879847890852635,-0.6160097983006932,0.0781922967149761,0.9955612156871653,0.09352316526213791,-0.004347595373765124,0.009611544793141084
1668680882.080411,68539,1668680882,80232806,,-0.09879846900963044,-0.616009798300115,0.0781922967149603,0.9955612156871683,0.09352316526213826,-0.004347595373646502,0.009611544792878205
1668680882.088607,68540,1668680882,88455620,,-0.09879845932363274,-0.616009798299566,0.07819229671494496,0.9955612156871713,0.09352316526213872,-0.004347595373530369,0.009611544792620871
1668680882.096113,68541,1668680882,96012959,,-0.0987984498528185,-0.6160097982990456,0.07819229671493093,0.9955612156871742,0.09352316526213901,-0.004347595373416918,0.009611544792369526
1668680882.1041896,68542,1668680882,104095450,,-0.0987984405988673,-0.6160097982985521,0.07819229671491723,0.9955612156871769,0.09352316526213922,-0.004347595373305986,0.009611544792123533
1668680882.1123836,68543,1668680882,112263875,,-0.09879843156289833,-0.6160097982980842,0.07819229671490431,0.9955612156871797,0.09352316526213961,-0.004347595373197531,0.009611544791883123
1668680882.1197908,68544,1668680882,119611883,,-0.09879842274551273,-0.6160097982976416,0.07819229671489213,0.9955612156871825,0.09352316526213987,-0.004347595373091689,0.009611544791648389
1668680882.1284072,68545,1668680882,128253756,,-0.09879841414683241,-0.616009798297222,0.0781922967148806,0.995561215687185,0.09352316526214013,-0.004347595372988345,0.009611544791419317
1668680882.1359098,68546,1668680882,135708643,,-0.09879840576653875,-0.6160097982968257,0.07819229671486964,0.9955612156871876,0.09352316526214043,-0.004347595372887513,0.009611544791195664
1668680882.1439393,68547,1668680882,143780430,,-0.09879839760390732,-0.6160097982964508,0.0781922967148593,0.9955612156871901,0.09352316526214065,-0.004347595372789207,0.009611544790977672
1668680882.1517406,68548,1668680882,151594762,,-0.09879838965784138,-0.6160097982960965,0.0781922967148496,0.9955612156871926,0.09352316526214101,-0.004347595372693426,0.009611544790765253
1668680882.1601555,68549,1668680882,159892401,,-0.09879838192690386,-0.6160097982957623,0.07819229671484035,0.9955612156871949,0.09352316526214124,-0.00434759537260019,0.009611544790558382
1668680882.167814,68550,1668680882,167640840,,-0.0987983744093467,-0.6160097982954469,0.07819229671483152,0.9955612156871972,0.0935231652621415,-0.004347595372509275,0.0096115447903568
1668680882.1756098,68551,1668680882,175488468,,-0.09879836710313933,-0.616009798295149,0.07819229671482335,0.9955612156871996,0.09352316526214177,-0.00434759537242097,0.009611544790160888
1668680882.183829,68552,1668680882,183723673,,-0.09879836000599458,-0.6160097982948689,0.07819229671481563,0.9955612156872017,0.09352316526214197,-0.004347595372335128,0.009611544789970448
1668680882.1915488,68553,1668680882,191430788,,-0.09879835311539323,-0.6160097982946048,0.0781922967148084,0.9955612156872038,0.09352316526214219,-0.004347595372251721,0.009611544789785273
1668680882.199513,68554,1668680882,199367756,,-0.0987983464286084,-0.616009798294356,0.07819229671480123,0.9955612156872059,0.09352316526214227,-0.00434759537217076,0.009611544789605608
1668680882.207798,68555,1668680882,207648643,,-0.09879833994272608,-0.6160097982941224,0.07819229671479484,0.995561215687208,0.0935231652621424,-0.0043475953720922686,0.009611544789431417
1668680882.2158291,68556,1668680882,215666512,,-0.09879833365466628,-0.6160097982939029,0.07819229671478882,0.9955612156872099,0.09352316526214258,-0.0043475953720162296,0.009611544789262691
1668680882.2235105,68557,1668680882,223318959,,-0.09879832756120226,-0.6160097982936966,0.07819229671478306,0.9955612156872118,0.09352316526214266,-0.004347595371942562,0.009611544789099206
1668680882.2319138,68558,1668680882,231780529,,-0.09879832165897824,-0.6160097982935031,0.07819229671477777,0.9955612156872136,0.09352316526214295,-0.004347595371871419,0.009611544788941218
1668680882.2395976,68559,1668680882,239504231,,-0.09879831594452684,-0.6160097982933224,0.07819229671477279,0.9955612156872155,0.09352316526214292,-0.00434759537180274,0.009611544788788659
1668680882.2478335,68560,1668680882,247674216,,-0.09879831041428323,-0.6160097982931527,0.0781922967147682,0.995561215687217,0.0935231652621433,-0.004347595371736406,0.009611544788641162
1668680882.2564538,68561,1668680882,256262022,,-0.09879830506460203,-0.6160097982929937,0.07819229671476369,0.9955612156872187,0.09352316526214344,-0.004347595371672476,0.009611544788498953
1668680882.2634466,68562,1668680882,263340699,,-0.09879829989176889,-0.6160097982928453,0.07819229671475952,0.9955612156872202,0.09352316526214359,-0.004347595371610852,0.00961154478836199
1668680882.271701,68563,1668680882,271534384,,-0.09879829489201451,-0.6160097982927071,0.07819229671475578,0.9955612156872218,0.09352316526214367,-0.004347595371551749,0.009611544788230435
1668680882.2797303,68564,1668680882,279611743,,-0.09879829006152575,-0.6160097982925782,0.07819229671475227,0.9955612156872232,0.0935231652621438,-0.004347595371494854,0.009611544788103964
1668680882.2877738,68565,1668680882,287642956,,-0.09879828539645714,-0.6160097982924579,0.07819229671474896,0.9955612156872247,0.09352316526214376,-0.0043475953714403985,0.009611544787982712
1668680882.297716,68566,1668680882,295633016,,-0.09879828089294064,-0.6160097982923463,0.07819229671474598,0.995561215687226,0.09352316526214388,-0.004347595371388284,0.00961154478786664
1668680882.303532,68567,1668680882,303410646,,-0.09879827654709497,-0.6160097982922429,0.07819229671474293,0.9955612156872273,0.09352316526214392,-0.004347595371338472,0.009611544787755688
1668680882.3122866,68568,1668680882,312098765,,-0.09879827235503452,-0.6160097982921465,0.07819229671474051,0.9955612156872284,0.09352316526214398,-0.00434759537129099,0.009611544787649903
1668680882.3202808,68569,1668680882,320042957,,-0.09879826831287777,-0.6160097982920578,0.07819229671473814,0.9955612156872297,0.0935231652621441,-0.0043475953712457495,0.009611544787549121
1668680882.3279772,68570,1668680882,327841623,,-0.0987982644167537,-0.6160097982919756,0.07819229671473563,0.9955612156872308,0.09352316526214419,-0.004347595371202761,0.009611544787453342
1668680882.3355072,68571,1668680882,335330383,,-0.09879826066280917,-0.6160097982918996,0.07819229671473368,0.9955612156872318,0.09352316526214433,-0.004347595371162037,0.009611544787362643
1668680882.3439226,68572,1668680882,343727584,,-0.09879825704721557,-0.61600979829183,0.07819229671473168,0.9955612156872328,0.09352316526214435,-0.004347595371123666,0.009611544787277038
1668680882.351768,68573,1668680882,351653606,,-0.09879825356617285,-0.6160097982917654,0.07819229671472994,0.9955612156872337,0.09352316526214449,-0.004347595371087472,0.00961154478719624
1668680882.3596115,68574,1668680882,359514500,,-0.09879825021591684,-0.6160097982917068,0.07819229671472831,0.9955612156872347,0.09352316526214444,-0.00434759537105351,0.009611544787120403
1668680882.3677208,68575,1668680882,367577149,,-0.09879824699272222,-0.6160097982916531,0.07819229671472673,0.9955612156872354,0.09352316526214452,-0.004347595371021757,0.00961154478704951
1668680882.3758187,68576,1668680882,375713787,,-0.09879824389290728,-0.616009798291604,0.0781922967147254,0.9955612156872361,0.09352316526214469,-0.004347595370992221,0.00961154478698353
1668680882.3844838,68577,1668680882,384258120,,-0.09879824091283855,-0.6160097982915599,0.078192296714724,0.995561215687237,0.09352316526214471,-0.00434759537096485,0.00961154478692229
1668680882.3922284,68578,1668680882,392116469,,-0.09879823804893269,-0.6160097982915195,0.07819229671472308,0.9955612156872374,0.09352316526214466,-0.004347595370939656,0.009611544786865912
1668680882.3997595,68579,1668680882,399635013,,-0.09879823529766055,-0.616009798291483,0.07819229671472193,0.9955612156872381,0.0935231652621448,-0.004347595370916702,0.009611544786814365
1668680882.4078302,68580,1668680882,407708240,,-0.09879823265554981,-0.6160097982914505,0.07819229671472115,0.9955612156872387,0.09352316526214476,-0.004347595370895877,0.009611544786767635
1668680882.4154713,68581,1668680882,415284665,,-0.09879823011918713,-0.6160097982914217,0.07819229671472025,0.9955612156872391,0.0935231652621448,-0.004347595370877186,0.009611544786725568
1668680882.4238288,68582,1668680882,423671241,,-0.09879822768522008,-0.616009798291396,0.0781922967147196,0.9955612156872397,0.09352316526214492,-0.004347595370860615,0.00961154478668821
1668680882.4317276,68583,1668680882,431608206,,-0.0987982253503593,-0.6160097982913733,0.07819229671471904,0.9955612156872399,0.09352316526214488,-0.0043475953708461326,0.009611544786655494
1668680882.4397762,68584,1668680882,439654155,,-0.09879822184979715,-0.6160097997776206,0.07819229671471833,0.9955612156872403,0.09352316526214485,-0.004347595370833787,0.009611544786627355
1668680882.4480166,68585,1668680882,447838902,,-0.09879821223623914,-0.6160098085748094,0.07819229671471792,0.9955612156872404,0.09352316526214496,-0.0043475953708235196,0.00961154478660378
1668680882.4559855,68586,1668680882,455777781,,-0.09879818691915046,-0.6160098359778775,0.078192296714717,0.9955612156872407,0.09352316526214473,-0.004347595370815352,0.00961154478658491
1668680882.4637268,68587,1668680882,463408662,,-0.0987981320507564,-0.6160098982972766,0.0781922967147139,0.9955612156872409,0.09352316526214485,-0.004347595370809229,0.009611544786570546
1668680882.4721704,68588,1668680882,471864597,,-0.09879802989004391,-0.6160100164301384,0.07819229671470322,0.9955612156872411,0.09352316526214498,-0.004347595370805263,0.009611544786561092
1668680882.479592,68589,1668680882,479495239,,-0.09879785914577939,-0.6160102154561465,0.07819229671467225,0.9955612156872411,0.09352316526214488,-0.00434759537080351,0.00961154478655623
1668680882.4888203,68590,1668680882,488567684,,-0.09879759529952538,-0.6160105242569733,0.07819229671459708,0.995561215687241,0.09352316526214502,-0.004347595370804408,0.009611544786557296
1668680882.496069,68591,1668680882,495923483,,-0.09879721090960077,-0.6160109751581542,0.0781922967144345,0.995561215687241,0.09352316526214495,-0.004347595370808146,0.009611544786564747
1668680882.5046813,68592,1668680882,504482765,,-0.09879667589688723,-0.6160116035923469,0.07819229671411733,0.9955612156872408,0.093523165262145,-0.004347595370815916,0.00961154478658093
1668680882.5124447,68593,1668680882,512248541,,-0.09879595781335501,-0.6160124477829396,0.07819229671354308,0.9955612156872404,0.09352316526214481,-0.004347595370828614,0.009611544786608113
1668680882.5204735,68594,1668680882,520301666,,-0.09879502209414391,-0.6160135484470324,0.07819229671256693,0.99556121568724,0.09352316526214474,-0.004347595370848205,0.009611544786650722
1668680882.5280938,68595,1668680882,527957762,,-0.09879383229400095,-0.6160149485168391,0.07819229671099015,0.9955612156872393,0.09352316526214464,-0.004347595370877281,0.009611544786714124
1668680882.5355575,68596,1668680882,535472843,,-0.09879235030884526,-0.6160166928786105,0.07819229670855139,0.9955612156872382,0.09352316526214449,-0.004347595370919164,0.009611544786805905
1668680882.5434663,68597,1668680882,543353909,,-0.09879053658319979,-0.616018828128205,0.07819229670491473,0.9955612156872368,0.09352316526214424,-0.004347595370978356,0.00961154478693591
1668680882.5517066,68598,1668680882,551561421,,-0.0987883503041953,-0.616021402342475,0.07819229669966075,0.9955612156872347,0.09352316526214398,-0.004347595371060502,0.009611544787116722
1668680882.5597694,68599,1668680882,559641738,,-0.09878574958282897,-0.6160244648656706,0.07819229669227551,0.9955612156872318,0.09352316526214366,-0.0043475953711726405,0.009611544787363818
1668680882.5677612,68600,1668680882,567643241,,-0.09878269162312403,-0.6160280661100928,0.07819229668214206,0.995561215687228,0.09352316526214316,-0.004347595371323531,0.009611544787696638
1668680882.575763,68601,1668680882,575585142,,-0.0987791328798163,-0.6160322573702673,0.07819229666853127,0.9955612156872229,0.09352316526214259,-0.004347595371523617,0.00961154478813812
1668680882.5833972,68602,1668680882,583286897,,-0.09877502920516112,-0.6160370906499323,0.07819229665059345,0.9955612156872162,0.09352316526214197,-0.004347595371785355,0.009611544788715811
1668680882.5917044,68603,1668680882,591556392,,-0.09877033598543333,-0.6160426185011721,0.07819229662735226,0.9955612156872077,0.09352316526214105,-0.004347595372123176,0.009611544789461789
1668680882.5998209,68604,1668680882,599693485,,-0.09876500826766325,-0.6160488938750536,0.07819229659769823,0.9955612156871966,0.09352316526213997,-0.004347595372554108,0.009611544790413675
1668680882.6078987,68605,1668680882,607655209,,-0.09875900087713357,-0.6160559699831466,0.07819229656038441,0.9955612156871828,0.09352316526213854,-0.004347595373097499,0.009611544791614145
1668680882.6155353,68606,1668680882,615442303,,-0.09875226852613303,-0.6160639001693494,0.07819229651402276,0.9955612156871656,0.09352316526213669,-0.004347595373775513,0.009611544793112305
1668680882.6241562,68607,1668680882,623926956,,-0.09874476591444492,-0.6160727377914469,0.07819229645708126,0.9955612156871442,0.0935231652621346,-0.004347595374612954,0.009611544794962935
1668680882.6317387,68608,1668680882,631609402,,-0.09873644782202587,-0.6160825361118755,0.0781922963878839,0.9955612156871182,0.0935231652621319,-0.00434759537563773,0.00961154479722758
1668680882.639723,68609,1668680882,639540891,,-0.09872726919430748,-0.6160933481971739,0.0781922963046108,0.9955612156870866,0.09352316526212856,-0.004347595376881057,0.009611544799975197
1668680882.6477578,68610,1668680882,647566858,,-0.09871718522053638,-0.616105226825637,0.07819229620529788,0.9955612156870485,0.09352316526212472,-0.004347595378376699,0.009611544803280915
1668680882.6555796,68611,1668680882,655445126,,-0.09870615140555165,-0.616118224402702,0.07819229608784208,0.995561215687003,0.09352316526212016,-0.004347595380162549,0.009611544807228015
1668680882.6641273,68612,1668680882,663988410,,-0.0986941236353701,-0.616132392883627,0.07819229595000285,0.9955612156869491,0.09352316526211467,-0.004347595382279497,0.009611544811906899
1668680882.67181,68613,1668680882,671691173,,-0.09868105823694513,-0.6161477837030297,0.07819229578940842,0.9955612156868856,0.09352316526210819,-0.004347595384771949,0.009611544817415848
1668680882.679736,68614,1668680882,679566486,,-0.09866691203243878,-0.616164447710891,0.07819229560356042,0.9955612156868113,0.09352316526210067,-0.004347595387687793,0.009611544823860849
1668680882.6875758,68615,1668680882,687477892,,-0.09865164238833467,-0.6161824351146328,0.07819229538984225,0.995561215686725,0.09352316526209199,-0.004347595391079068,0.0096115448313563
1668680882.6960523,68616,1668680882,695916737,,-0.09863520725970121,-0.6162017954269031,0.07819229514552478,0.9955612156866251,0.09352316526208192,-0.004347595395000689,0.0096115448400242
1668680882.703417,68617,1668680882,703255780,,-0.0986175652299028,-0.6162225774187229,0.07819229486777615,0.9955612156865102,0.09352316526207027,-0.004347595399511912,0.009611544849995038
1668680882.711908,68618,1668680882,711799982,,-0.09859867554603793,-0.6162448290776597,0.07819229455367026,0.9955612156863788,0.09352316526205708,-0.0043475954046754105,0.009611544861407459
1668680882.719738,68619,1668680882,719575817,,-0.09857849815037419,-0.6162685975707118,0.07819229420019605,0.995561215686229,0.09352316526204206,-0.004347595410557451,0.009611544874407747
1668680882.727866,68620,1668680882,727719993,,-0.09855699370803236,-0.6162939292116068,0.07819229380426833,0.995561215686059,0.09352316526202495,-0.004347595417228034,0.009611544889150779
1668680882.7354991,68621,1668680882,735395106,,-0.09853412363116285,-0.6163208694322243,0.07819229336273782,0.9955612156858673,0.09352316526200564,-0.0043475954247610285,0.009611544905799282
1668680882.7438838,68622,1668680882,743744654,,-0.09850985009984169,-0.6163494627578746,0.07819229287240222,0.9955612156856516,0.09352316526198377,-0.004347595433233627,0.009611544924523959
1668680882.7518752,68623,1668680882,751647570,,-0.09848413607990644,-0.6163797527861767,0.0781922923300173,0.9955612156854098,0.09352316526195956,-0.004347595442726569,0.009611544945503061
1668680882.7600105,68624,1668680882,759831435,,-0.09845694533793639,-0.616411782169289,0.07819229173230738,0.99556121568514,0.09352316526193247,-0.004347595453324203,0.009611544968922829
1668680882.7677426,68625,1668680882,767585961,,-0.09842824245357432,-0.6164455925992666,0.07819229107597814,0.9955612156848398,0.09352316526190221,-0.004347595465114352,0.00961154499497687
1668680882.7752538,68626,1668680882,775166286,,-0.09839799282937302,-0.616481224796319,0.07819229035772653,0.9955612156845071,0.09352316526186893,-0.004347595478187896,0.009611545023865953
1668680882.783759,68627,1668680882,783645008,,-0.09836616269834697,-0.6165187184997665,0.0781922895742526,0.995561215684139,0.09352316526183224,-0.0043475954926391275,0.009611545055797864
1668680882.7920153,68628,1668680882,791890938,,-0.0983327191293899,-0.6165581124614956,0.07819228872227017,0.9955612156837336,0.0935231652617919,-0.004347595508565285,0.009611545090987467
1668680882.799637,68629,1668680882,799524941,,-0.09829763003072038,-0.6165994444417298,0.0781922877985186,0.9955612156832879,0.09352316526174737,-0.004347595526066835,0.009611545129656077
1668680882.8077815,68630,1668680882,807617855,,-0.09826086415150127,-0.6166427512069367,0.0781922867997719,0.9955612156827996,0.09352316526169893,-0.004347595545246921,0.009611545172031154
1668680882.815446,68631,1668680882,815302586,,-0.09822239108177688,-0.6166880685297069,0.07819228572285074,0.995561215682266,0.09352316526164581,-0.0043475955662116254,0.00961154521834642
1668680882.8238838,68632,1668680882,823704689,,-0.0981821812508566,-0.6167354311904493,0.07819228456463095,0.9955612156816841,0.09352316526158803,-0.00434759558906956,0.009611545268841332
1668680882.8317208,68633,1668680882,831546512,,-0.09814020592427455,-0.6167848729807526,0.07819228332205386,0.9955612156810512,0.09352316526152543,-0.004347595613931869,0.009611545323760637
1668680882.8396773,68634,1668680882,839583493,,-0.09809643719944144,-0.6168364267082713,0.07819228199213481,0.9955612156803643,0.09352316526145779,-0.004347595640911799,0.009611545383353869
1668680882.8476343,68635,1668680882,847542243,,-0.09805084800010173,-0.6168901242030103,0.07819228057197254,0.9955612156796207,0.09352316526138442,-0.004347595670125211,0.009611545447875989
1668680882.8557107,68636,1668680882,855508688,,-0.09800341206969818,-0.6169459963248773,0.0781922790587563,0.9955612156788173,0.0935231652613053,-0.004347595701689685,0.009611545517585715
1668680882.863722,68637,1668680882,863521828,,-0.09795410396374739,-0.617004072972392,0.07819227744977503,0.9955612156779511,0.09352316526122033,-0.004347595735724863,0.009611545592746606
1668680882.8716052,68638,1668680882,871442319,,-0.09790289904131597,-0.6170643830924368,0.07819227574242245,0.9955612156770188,0.09352316526112914,-0.0043475957723522135,0.009611545673625264
1668680882.879893,68639,1668680882,879725983,,-0.09784977345327109,-0.6171269546839643,0.0781925410711961,0.9955612156760176,0.09352316526103145,-0.00434759581169455,0.009611545760491889
1668680882.8878374,68640,1668680882,887724496,,-0.09779470413098088,-0.6171918148059502,0.07819346031917425,0.995561215674944,0.0935231652609269,-0.004347595853876394,0.009611545853619813
1668680882.8956347,68641,1668680882,895519052,,-0.09773766877788509,-0.6172589895962789,0.07819558496803078,0.9955612156737952,0.09352316526081547,-0.004347595899023242,0.009611545953285113
1668680882.9036083,68642,1668680882,903415994,,-0.09767852163630725,-0.617328504257939,0.07819963031556423,0.9955612156725648,0.09352316526069619,-0.004347595947369835,0.009611546060004214
1668680882.9120195,68643,1668680882,911906339,,-0.09761712775397145,-0.6174003831091835,0.07820578774637893,0.9955612156712447,0.09352316526056853,-0.004347595999258413,0.009611546174532066
1668680882.9196978,68644,1668680882,919606679,,-0.09755342105614315,-0.6174746496271891,0.07821406410805196,0.9955612156698297,0.09352316526043232,-0.004347596054871214,0.009611546297268967
1668680882.927881,68645,1668680882,927707200,,-0.09748735059346457,-0.6175513264030567,0.07822471410185691,0.995561215668314,0.09352316526028692,-0.004347596114441361,0.009611546428727193
1668680882.9354281,68646,1668680882,935279450,,-0.09741889539613559,-0.6176304351798979,0.07823806705936365,0.9955612156666943,0.09352316526013195,-0.00434759617810457,0.009611546569204026
1668680882.9437215,68647,1668680882,943625609,,-0.09734802579361605,-0.61771199687523,0.07825416839938573,0.9955612156649657,0.09352316525996704,-0.004347596246055355,0.009611546719125586
1668680882.952095,68648,1668680882,951868630,,-0.09727473301417258,-0.6177960316233606,0.07827292018683973,0.9955612156631246,0.09352316525979196,-0.004347596318427594,0.009611546878784617
1668680882.9597063,68649,1668680882,959585180,,-0.09719891408636112,-0.6178825587239629,0.07829441079535555,0.9955612156611647,0.0935231652596063,-0.004347596395480492,0.009611547048750392
1668680882.9678183,68650,1668680882,967654025,,-0.09712044467967287,-0.6179715966845483,0.07831866246797804,0.9955612156590763,0.09352316525940908,-0.004347596477586092,0.009611547229841217
1668680882.9759893,68651,1668680882,975794458,,-0.0970392846315436,-0.6180631632579181,0.07834578647849563,0.9955612156568536,0.09352316525920033,-0.004347596564979841,0.00961154742257249
1668680882.9835005,68652,1668680882,983320841,,-0.09695501358879006,-0.6181572753838258,0.07837590170320874,0.9955612156544795,0.09352316525897797,-0.0043475966583267,0.009611547628410296
1668680882.9917207,68653,1668680882,991556776,,-0.09686726661173674,-0.6182539492685656,0.0784088316812981,0.9955612156519255,0.09352316525873984,-0.004347596758759193,0.009611547849853392
1668680883.0001557,68654,1668680882,999972518,,-0.0967759140285163,-0.6183532005033134,0.07844435219685432,0.9955612156491827,0.09352316525848524,-0.0043475968666173625,0.009611548087646152
1668680883.007779,68655,1668680883,7636600,,-0.09668036019033664,-0.6184550736225348,0.07848272124901767,0.9955612156462182,0.09352316525821086,-0.004347596983193245,0.0096115483446385
1668680883.0155315,68656,1668680883,15387559,,-0.09657988398065954,-0.6185595958880795,0.07852442718419049,0.9955612156429839,0.09352316525791321,-0.00434759711038117,0.009611548625011282
1668680883.0242903,68657,1668680883,24095699,,-0.09647430474252602,-0.618666763119375,0.07856944356294204,0.9955612156394521,0.09352316525758968,-0.004347597249271201,0.009611548931163512
1668680883.0316775,68658,1668680883,31538407,,-0.09636365245084381,-0.6187765785836755,0.07861758892445873,0.995561215635617,0.09352316525724012,-0.004347597400091629,0.009611549263585617
1668680883.040453,68659,1668680883,39889140,,-0.09624806799634882,-0.6188891903315339,0.07866878680741336,0.9955612156314676,0.09352316525686383,-0.004347597563271103,0.009611549623210005
1668680883.048529,68660,1668680883,48201877,,-0.09612795812111317,-0.6190048188348852,0.07872284289768049,0.9955612156270152,0.09352316525646233,-0.0043475977383914,0.009611550009094144
1668680883.0555556,68661,1668680883,55383887,,-0.09600348317641552,-0.6191234871732801,0.07877965112171506,0.995561215622263,0.09352316525603625,-0.004347597925316676,0.00961155042092052
1668680883.06387,68662,1668680883,63720112,,-0.09587473771494984,-0.6192451395696303,0.07883905726543511,0.9955612156172083,0.09352316525558577,-0.004347598124162015,0.00961155085892599
1668680883.072322,68663,1668680883,72100080,,-0.09574155248598623,-0.619369850861589,0.07890078646994135,0.995561215611839,0.09352316525511029,-0.0043475983354095485,0.009611551324158514
1668680883.0796854,68664,1668680883,79566427,,-0.09560357959333135,-0.6194977379126343,0.07896460622127,0.9955612156061145,0.09352316525460667,-0.004347598560646089,0.009611551820109584
1668680883.0878246,68665,1668680883,87678918,,-0.09546134996882831,-0.6196301239989955,0.07903073070873506,0.9955612156000255,0.0935231652540746,-0.0043475988002529475,0.009611552347600067
1668680883.0954525,68666,1668680883,95342102,,-0.0953165882199731,-0.6197728495082638,0.0790998432647836,0.9955612155935575,0.09352316525351329,-0.004347599054804666,0.00961155290787605
1668680883.1036773,68667,1668680883,103574610,,-0.09517040560996902,-0.6199299699984907,0.07917208663307557,0.9955612155866659,0.0935231652529197,-0.004347599326051843,0.00961155350478597
1668680883.1119547,68668,1668680883,111743673,,-0.09502333736611333,-0.6201029966557681,0.07924734414782326,0.9955612155793503,0.09352316525229433,-0.0043475996140261396,0.009611554138369251
1668680883.119875,68669,1668680883,119701266,,-0.0948761622870204,-0.6202951654985935,0.07932570561358905,0.9955612155715758,0.09352316525163501,-0.004347599920091264,0.009611554811612013
1668680883.12763,68670,1668680883,127500850,,-0.09472919845887608,-0.6205079423996701,0.07940708077022296,0.9955612155633126,0.09352316525093994,-0.004347600245436595,0.009611555527111963
1668680883.1353688,68671,1668680883,135231173,,-0.09458252529571495,-0.6207417794305201,0.07949091053527925,0.9955612155545458,0.09352316525020875,-0.004347600590650269,0.009611556286132032
1668680883.1438892,68672,1668680883,143783139,,-0.09443605750219856,-0.6209960667093894,0.07957656834708676,0.9955612155452686,0.09352316524944199,-0.004347600956018936,0.009611557089265504
1668680883.1516662,68673,1668680883,151562036,,-0.09428967399180198,-0.6212696291284123,0.07966378057232998,0.9955612155355004,0.09352316524864207,-0.004347601340784582,0.009611557934791261
1668680883.1597674,68674,1668680883,159613058,,-0.09414328093251473,-0.621561579131977,0.07975231257629777,0.9955612155252518,0.09352316524781111,-0.0043476017445502856,0.009611558821787285
1668680883.1677146,68675,1668680883,167611112,,-0.09399675680729758,-0.621870497087462,0.07984210850828047,0.9955612155145476,0.09352316524695191,-0.004347602166356997,0.009611559748086912
1668680883.1755226,68676,1668680883,175338107,,-0.09384954991025149,-0.6221908255539483,0.07993295554345911,0.9955612155034864,0.09352316524607372,-0.004347602602355673,0.009611560705127706
1668680883.183805,68677,1668680883,183627954,,-0.09370113900946349,-0.6225175726466483,0.08002445454924426,0.995561215492217,0.09352316524518912,-0.004347603046735756,0.009611561680009694
1668680883.1919107,68678,1668680883,191754247,,-0.09355123399291818,-0.6228480139321874,0.08011630011063214,0.9955612154807872,0.09352316524430261,-0.004347603497628337,0.009611562668573171
1668680883.1996777,68679,1668680883,199544393,,-0.09339830377378704,-0.623176989390271,0.08020787814006515,0.9955612154692491,0.09352316524341832,-0.004347603953001766,0.009611563666301467
1668680883.2085555,68680,1668680883,208281630,,-0.09324048912058862,-0.6235004659086788,0.08029852106904266,0.995561215457543,0.09352316524253251,-0.004347604415205875,0.009611564678382508
1668680883.2153893,68681,1668680883,215293016,,-0.09307703458136828,-0.6238165061964772,0.08038789771274174,0.9955612154456492,0.09352316524164397,-0.004347604884991194,0.009611565706458209
1668680883.2236006,68682,1668680883,223449354,,-0.09290791910385769,-0.6241247476583178,0.08047588129120457,0.9955612154335776,0.09352316524075376,-0.004347605362009212,0.009611566749735293
1668680883.2316742,68683,1668680883,231579948,,-0.09273315621394598,-0.6244254422836953,0.0805623225992043,0.9955612154213253,0.09352316523986279,-0.004347605846357107,0.009611567808407594
1668680883.239809,68684,1668680883,239607411,,-0.09255261491521743,-0.6247186713183905,0.08064704271696092,0.9955612154088708,0.09352316523896932,-0.0043476063388910345,0.009611568884348583
1668680883.247597,68685,1668680883,247487697,,-0.09236565426250304,-0.6250045780703234,0.08072987252631011,0.9955612153961592,0.09352316523807033,-0.0043476068417591645,0.009611569982289311
1668680883.2556977,68686,1668680883,255594250,,-0.09217282422414728,-0.625286492946212,0.08081060659566712,0.9955612153830986,0.09352316523715988,-0.004347607358564619,0.009611571110177642
1668680883.2634752,68687,1668680883,263350961,,-0.0919759674393732,-0.6255693609188819,0.08088909973923586,0.9955612153697092,0.09352316523624032,-0.004347607888539442,0.009611572266273682
1668680883.2719402,68688,1668680883,271762998,,-0.09177580327925865,-0.6258547319970976,0.08096532172175358,0.9955612153560125,0.09352316523531415,-0.0043476084308438565,0.009611573448679082
1668680883.279809,68689,1668680883,279677641,,-0.09157371691251964,-0.6261461583931529,0.08103891094346273,0.9955612153420321,0.0935231652343837,-0.004347608984570871,0.00961157465534867
1668680883.2876997,68690,1668680883,287561847,,-0.09137163697990643,-0.6264488697837695,0.08110933175599445,0.9955612153277926,0.09352316523345196,-0.00434760954876584,0.009611575884133718
1668680883.2954762,68691,1668680883,295278746,,-0.09117044307232659,-0.6267669104009935,0.08117458784730604,0.9955612153132669,0.09352316523251747,-0.0043476101245002756,0.009611577137371936
1668680883.304853,68692,1668680883,304681940,,-0.09097028306932758,-0.6271020143146215,0.08123305596505531,0.995561215298379,0.09352316523157626,-0.004347610714748091,0.009611578421613212
1668680883.3123488,68693,1668680883,312132562,,-0.09077112503779973,-0.6274553061339703,0.08128415094825242,0.9955612152831075,0.09352316523062801,-0.00434761132037476,0.009611579738726807
1668680883.3203378,68694,1668680883,320151149,,-0.090573027826355,-0.6278291214858113,0.08132681431085823,0.9955612152673511,0.0935231652296672,-0.004347611945336898,0.009611581097426205
1668680883.327674,68695,1668680883,327541949,,-0.09037590661938415,-0.6282247905536349,0.08136072501604213,0.9955612152510503,0.0935231652286916,-0.004347612591972703,0.009611582502827683
1668680883.3357747,68696,1668680883,335605968,,-0.09017940882265717,-0.6286429805645867,0.08138602882816535,0.9955612152341264,0.09352316522769784,-0.004347613263396986,0.009611583961760387
1668680883.3434823,68697,1668680883,343292348,,-0.08998306398606246,-0.6290829654028973,0.08140319042710348,0.9955612152165363,0.093523165226685,-0.004347613961308306,0.009611585477906262
1668680883.3516285,68698,1668680883,351537851,,-0.08978660614840465,-0.629543226933867,0.08141276253381335,0.995561215198297,0.0935231652256561,-0.004347614685065307,0.009611587049759483
1668680883.3601525,68699,1668680883,359976107,,-0.08958959266283638,-0.6300218372349641,0.08141529696733568,0.9955612151794435,0.0935231652246155,-0.004347615433322199,0.009611588674252828
1668680883.3680847,68700,1668680883,367827693,,-0.0893914610756186,-0.6305169546615096,0.08141130023116447,0.9955612151599734,0.09352316522356507,-0.00434761620620085,0.009611590351571988
1668680883.375643,68701,1668680883,375503344,,-0.08919101869590863,-0.6310265976003254,0.08140127384675734,0.9955612151398409,0.09352316522250397,-0.004347617005523525,0.009611592085666249
1668680883.383776,68702,1668680883,383572220,,-0.08898731844286348,-0.6315489520346524,0.08138570795838154,0.9955612151189486,0.09352316522142923,-0.004347617835096414,0.009611593884873142
1668680883.3916435,68703,1668680883,391539454,,-0.08877975445320421,-0.6320824869449583,0.08136506837622325,0.9955612150973072,0.09352316522034351,-0.004347618694555775,0.009611595748278034
1668680883.3997948,68704,1668680883,399620462,,-0.08856740454537454,-0.6326256883858467,0.08133979213780222,0.9955612150748309,0.09352316521924531,-0.004347619587271886,0.009611597683237444
1668680883.407783,68705,1668680883,407631448,,-0.08834946027401734,-0.6331768842351155,0.08131029423623526,0.9955612150514805,0.09352316521813497,-0.004347620514809001,0.009611599693093132
1668680883.4155388,68706,1668680883,415348362,,-0.08812445976468415,-0.6337345092796802,0.08127696731913532,0.9955612150271261,0.09352316521700903,-0.004347621482279295,0.009611601789037524
1668680883.4237423,68707,1668680883,423547014,,-0.08789172484553076,-0.6342975413960749,0.08124018093811329,0.9955612150016436,0.09352316521586443,-0.004347622494575342,0.009611603981758797
1668680883.4321225,68708,1668680883,431970670,,-0.08765115761260152,-0.6348650814434641,0.08120028213251083,0.9955612149750789,0.09352316521470791,-0.004347623549933946,0.009611606267177235
1668680883.439691,68709,1668680883,439570678,,-0.08740260163884415,-0.6354366066543917,0.08115759622131125,0.9955612149474001,0.09352316521354159,-0.004347624649669375,0.009611608648033988
1668680883.4479089,68710,1668680883,447767948,,-0.08714646054246823,-0.6360118494733578,0.08111242777904315,0.9955612149186721,0.09352316521237283,-0.004347625791289603,0.009611611118628481
1668680883.4555461,68711,1668680883,455450621,,-0.0868831174839762,-0.6365911578874943,0.0810642516674833,0.9955612148889477,0.09352316521120821,-0.0043476269727932655,0.009611613674350991
1668680883.4639642,68712,1668680883,463742346,,-0.08661297470541562,-0.6371746847191129,0.0810125893341271,0.9955612148582595,0.09352316521005348,-0.004347628192957444,0.009611616312322182
1668680883.4716954,68713,1668680883,471597141,,-0.08633555437445664,-0.6377627135825967,0.0809562193745509,0.9955612148265757,0.09352316520891085,-0.004347629453073132,0.009611619035230097
1668680883.4796689,68714,1668680883,479519160,,-0.08604993047922198,-0.6383560581761041,0.08089317855389312,0.9955612147936383,0.09352316520777418,-0.004347630763238123,0.009611621865274287
1668680883.4875796,68715,1668680883,487488695,,-0.08575591582121739,-0.6389558429033023,0.08082156313198562,0.995561214759339,0.09352316520664405,-0.004347632127747722,0.00961162481175044
1668680883.4954832,68716,1668680883,495342811,,-0.08545387227799126,-0.6395636720040713,0.08073937614573494,0.9955612147236113,0.09352316520552352,-0.004347633549254086,0.009611627880292363
1668680883.5038743,68717,1668680883,503764792,,-0.08514442786687286,-0.6401795782330681,0.08064651010958501,0.9955612146865388,0.09352316520442198,-0.004347635024582069,0.009611631063601241
1668680883.5135994,68718,1668680883,511634654,,-0.0848281593184647,-0.6408030458160006,0.08054340759275545,0.9955612146482663,0.09352316520335065,-0.00434763654816356,0.009611634349081346
1668680883.5205307,68719,1668680883,520146359,,-0.08450546465592976,-0.6414335514306625,0.08043043459204999,0.995561214608896,0.09352316520231858,-0.0043476381160878685,0.009611637727829688
1668680883.5277133,68720,1668680883,527575457,,-0.08417662836431135,-0.6420699841265114,0.0803085036751025,0.9955612145685467,0.09352316520133518,-0.004347639723793124,0.009611641189513628
1668680883.5353835,68721,1668680883,535222713,,-0.08384200572722358,-0.6427108352246218,0.080179125073575,0.9955612145273726,0.09352316520040987,-0.004347641365342606,0.009611644720768961
1668680883.544398,68722,1668680883,544230318,,-0.08350200818534455,-0.6433547314507027,0.08004373684922549,0.9955612144855529,0.09352316519955256,-0.004347643033794993,0.009611648306029376
1668680883.552667,68723,1668680883,552500171,,-0.08315717095562976,-0.6440005466492329,0.07990357625084252,0.995561214443259,0.09352316519877184,-0.004347644722547951,0.009611651930510568
1668680883.5598857,68724,1668680883,559774517,,-0.08280804254331592,-0.6446470453764489,0.0797600526152964,0.9955612144006948,0.09352316519807607,-0.0043476464236810045,0.009611655576534466
1668680883.5675201,68725,1668680883,567424008,,-0.08245492194886286,-0.6452936269867954,0.07961408571656908,0.9955612143579858,0.09352316519747116,-0.004347648132345417,0.009611659233269497
1668680883.5755424,68726,1668680883,575440564,,-0.08209766395131726,-0.6459397365560372,0.0794663351690664,0.9955612143151515,0.09352316519695922,-0.00434764984779395,0.009611662898999056
1668680883.5835495,68727,1668680883,583434621,,-0.0817362551563703,-0.6465847093370027,0.07931730306375151,0.9955612142722136,0.09352316519654218,-0.0043476515692149175,0.009611666571868334
1668680883.5918484,68728,1668680883,591732776,,-0.08137086281438385,-0.6472280351393572,0.07916741990029441,0.9955612142292555,0.0935231651962238,-0.004347653293354229,0.009611670244610973
1668680883.6000154,68729,1668680883,599870365,,-0.08100143095760001,-0.647869831422393,0.079017175339625,0.9955612141862773,0.09352316519600515,-0.004347655020227137,0.009611673917222015
1668680883.6077754,68730,1668680883,607575398,,-0.08062799715126923,-0.6485106292173225,0.07886703412375823,0.9955612141432427,0.09352316519588731,-0.00434765675126081,0.009611677592828903
1668680883.6156034,68731,1668680883,615478899,,-0.08025094683597758,-0.649151383193538,0.07871672846805088,0.9955612141001746,0.0935231651958718,-0.004347658485567154,0.009611681269417771
1668680883.623666,68732,1668680883,623520576,,-0.0798705749593583,-0.6497935644322859,0.07856517906843098,0.9955612140570653,0.09352316519596056,-0.0043476602234577486,0.009611684947636579
1668680883.6316814,68733,1668680883,631585988,,-0.07948702318846187,-0.650437489803173,0.07841199926723551,0.9955612140138973,0.09352316519615442,-0.004347661965625669,0.009611688628980939
1668680883.6398742,68734,1668680883,639665773,,-0.07910050864732607,-0.6510830307685168,0.07825720584064869,0.9955612139707487,0.09352316519645602,-0.004347663709042945,0.009611692306690409
1668680883.6477563,68735,1668680883,647612234,,-0.07871109405366992,-0.6517302467804112,0.07810035512520314,0.9955612139276315,0.09352316519686667,-0.004347665453260207,0.009611695979736556
1668680883.6556516,68736,1668680883,655484518,,-0.07831869836954176,-0.6523785982926696,0.07794126959949088,0.9955612138845682,0.09352316519738794,-0.004347667197406299,0.009611699646158307
1668680883.663958,68737,1668680883,663779565,,-0.0779233876377545,-0.653027412856399,0.07778025214389717,0.9955612138416066,0.09352316519802102,-0.0043476689396212045,0.009611703301808057
1668680883.6716228,68738,1668680883,671452395,,-0.07752533498070732,-0.653676131835096,0.07761767442000166,0.9955612137988336,0.09352316519876726,-0.004347670676548359,0.00961170693922732
1668680883.6795897,68739,1668680883,679449598,,-0.07712400999148761,-0.6543245240275682,0.07745369601573182,0.9955612137562001,0.09352316519962729,-0.004347672410079451,0.009611710562607834
1668680883.6877854,68740,1668680883,687601298,,-0.07671868308148212,-0.6549725929031622,0.07728846888328494,0.9955612137135192,0.09352316520060208,-0.004347674147479689,0.009611714188046938
1668680883.6955776,68741,1668680883,695437390,,-0.07630881086358533,-0.6556198396511758,0.07712250181156721,0.995561213670712,0.09352316520169342,-0.004347675891815624,0.009611717822294271
1668680883.704516,68742,1668680883,704341922,,-0.07589426369156277,-0.6562656620793966,0.07695636253012973,0.9955612136277532,0.09352316520290348,-0.004347677644079583,0.009611721467487365
1668680883.7119706,68743,1668680883,711815254,,-0.07547465171086941,-0.6569098271521144,0.0767902937817219,0.9955612135846397,0.09352316520423437,-0.004347679404426901,0.009611725123895451
1668680883.7200775,68744,1668680883,719913320,,-0.0750491742977616,-0.6575521722108948,0.07662446530211803,0.9955612135411703,0.09352316520569015,-0.004347681180658858,0.009611728808742285
1668680883.7277355,68745,1668680883,727577369,,-0.07461677708013582,-0.6581928137363787,0.07645863579407206,0.9955612134971604,0.09352316520727526,-0.004347682979977327,0.009611732537874517
1668680883.7353072,68746,1668680883,735204323,,-0.07417671125694804,-0.6588327201242055,0.07629237426776904,0.9955612134523127,0.09352316520899713,-0.00434768481394937,0.009611736336783312
1668680883.7439346,68747,1668680883,743769004,,-0.07372946732886948,-0.6594724424732592,0.07612578053528438,0.995561213406665,0.09352316521086089,-0.004347686681161805,0.009611740202119436
1668680883.7519927,68748,1668680883,751809428,,-0.07327562017886302,-0.660112069278081,0.07595907063765601,0.9955612133603677,0.09352316521286917,-0.004347688575862342,0.009611744120914666
1668680883.7598398,68749,1668680883,759671980,,-0.07281729434381179,-0.6607522638282585,0.07579579441622834,0.995561213313747,0.09352316521502159,-0.004347690485457873,0.009611748065073885
1668680883.7680328,68750,1668680883,767892079,,-0.07235741378321285,-0.6613934695095123,0.07564112929612166,0.9955612132675283,0.09352316521730787,-0.0043476923818716665,0.00961175197223069
1668680883.7754004,68751,1668680883,775228160,,-0.07189873685947672,-0.6620358986050454,0.07549818171828997,0.9955612132222934,0.09352316521971604,-0.004347694242567327,0.00961175579246959
1668680883.7838817,68752,1668680883,783774338,,-0.07144295964502029,-0.6626794419101261,0.07536801545939635,0.9955612131785748,0.0935231652222316,-0.004347696046870069,0.0096117594801177
1668680883.7919054,68753,1668680883,791793605,,-0.070991588789327,-0.6633228806022571,0.075253525978175,0.995561213136648,0.09352316522484265,-0.004347697784010974,0.00961176301160473
1668680883.7998161,68754,1668680883,799632168,,-0.07054685190623199,-0.6639647059451016,0.07515928257580562,0.9955612130971782,0.0935231652275254,-0.004347699428151444,0.009611766330000658
1668680883.8081121,68755,1668680883,807951075,,-0.07011025441880135,-0.6646039111484854,0.07508666100896849,0.9955612130605155,0.09352316523026061,-0.004347700965568153,0.009611769405386598
1668680883.8158565,68756,1668680883,815610396,,-0.06968247230089931,-0.6652389693123705,0.07503510128223631,0.9955612130269094,0.09352316523302996,-0.004347702386437584,0.009611772216558031
1668680883.8240669,68757,1668680883,823798960,,-0.06926302661464745,-0.6658688454189422,0.07500318885328346,0.9955612129962812,0.09352316523582416,-0.004347703693619122,0.009611774770469352
1668680883.8315399,68758,1668680883,831443003,,-0.06885137914371744,-0.6664930691582577,0.07498951167154976,0.9955612129684563,0.09352316523863712,-0.004347704893693437,0.00961177708229847
1668680883.8397267,68759,1668680883,839625699,,-0.06844570342133659,-0.6671112001729964,0.07499310198610944,0.9955612129431212,0.09352316524146917,-0.00434770599862703,0.009611779179099852
1668680883.8477027,68760,1668680883,847569059,,-0.06804351962606421,-0.6677233633643199,0.07501314967707806,0.9955612129196502,0.09352316524433393,-0.004347707032470176,0.009611781114636822
1668680883.8557599,68761,1668680883,855648446,,-0.06764385222198761,-0.6683294365019111,0.07504711473801162,0.9955612128977609,0.0935231652472353,-0.004347708006058164,0.00961178291325962
1668680883.8634913,68762,1668680883,863283272,,-0.06724598156620935,-0.6689294339167551,0.07509230296197701,0.995561212877324,0.09352316525017318,-0.004347708924298254,0.00961178458611753
1668680883.8717499,68763,1668680883,871640980,,-0.06684923153973657,-0.669523657825222,0.07514760447364063,0.995561212858126,0.09352316525315155,-0.004347709795369758,0.009611786151586693
1668680883.8799782,68764,1668680883,879847656,,-0.06645321403565685,-0.6701123543830283,0.07521204187648232,0.9955612128400789,0.09352316525617012,-0.004347710622622775,0.009611787617297482
1668680883.8877132,68765,1668680883,887541621,,-0.06605788777119542,-0.6706955088272396,0.07528634998656457,0.9955612128231142,0.09352316525922832,-0.004347711408642088,0.00961178898917182
1668680883.895744,68766,1668680883,895567788,,-0.06566461672299552,-0.6712732280372591,0.07537279131130739,0.9955612128074384,0.0935231652623132,-0.004347712145374734,0.009611790249555363
1668680883.9034867,68767,1668680883,903389105,,-0.06527492943871234,-0.6718459630815353,0.0754725846425462,0.9955612127933499,0.09352316526540667,-0.00434771282122742,0.0096117913729874
1668680883.9120338,68768,1668680883,911869070,,-0.06488908716289929,-0.6724139839021103,0.07558528970797639,0.9955612127808997,0.09352316526850067,-0.004347713434144644,0.009611792355188008
1668680883.9197464,68769,1668680883,919559452,,-0.06450670389175979,-0.672978097415083,0.07571064439503204,0.9955612127699559,0.0935231652715968,-0.004347713989142269,0.00961179320754719
1668680883.9276664,68770,1668680883,927537165,,-0.06412740617742758,-0.6735393907337086,0.07584889905742943,0.9955612127603619,0.0935231652746977,-0.004347714492193522,0.009611793943548186
1668680883.935562,68771,1668680883,935451358,,-0.06375042419877995,-0.67409839576467,0.07599984798577276,0.9955612127519492,0.09352316527780863,-0.00434771494974201,0.009611794577682232
1668680883.9441874,68772,1668680883,944050753,,-0.06337504810630024,-0.6746552751165119,0.07616276037141015,0.9955612127445288,0.09352316528093593,-0.004347715369029695,0.009611795126179544
1668680883.9520254,68773,1668680883,951858753,,-0.06300140965240864,-0.6752098640260031,0.07633639777675857,0.9955612127380958,0.09352316528407718,-0.004347715750194647,0.009611795589503903
1668680883.960734,68774,1668680883,960487552,,-0.06262981529404112,-0.6757619288232037,0.07651961246533982,0.9955612127327197,0.09352316528722504,-0.004347716090514891,0.00961179596178394
1668680883.96787,68775,1668680883,967651086,,-0.06225919576396719,-0.6763109658544922,0.07671123040640158,0.9955612127282809,0.09352316529038338,-0.004347716394553923,0.009611796253286618
1668680883.9754562,68776,1668680883,975351874,,-0.06188743764201179,-0.6768561008847751,0.07691009415518058,0.9955612127244138,0.09352316529357195,-0.004347716676385618,0.009611796495315714
1668680883.983761,68777,1668680883,983564676,,-0.06151357758701827,-0.6773970053005169,0.07711519213100661,0.9955612127208991,0.09352316529680277,-0.004347716944466666,0.009611796706676994
1668680883.9918504,68778,1668680883,991658015,,-0.061137168590174415,-0.6779336258986457,0.07732560319406721,0.9955612127176787,0.09352316530007887,-0.004347717201009723,0.009611796892310091
1668680883.999589,68779,1668680883,999501569,,-0.060757852413567376,-0.6784652990010629,0.07753996637559063,0.9955612127146739,0.0935231653034051,-0.004347717449053032,0.009611797058975757
1668680884.0078773,68780,1668680884,7781036,,-0.060375822210391894,-0.6789913644641591,0.07775677757275973,0.9955612127119546,0.09352316530677612,-0.0043477176858918885,0.009611797200704963
1668680884.0154438,68781,1668680884,15285610,,-0.059990703236718484,-0.6795120334580455,0.07797529797143878,0.9955612127094786,0.0935231653101944,-0.004347717913141215,0.009611797321101193
1668680884.023732,68782,1668680884,23590542,,-0.05960212494307037,-0.680027843228078,0.0781951094245795,0.9955612127071128,0.09352316531366901,-0.004347718135935287,0.00961179743155688
1668680884.0320508,68783,1668680884,31885412,,-0.059209876150967046,-0.6805391223303543,0.07841629573701235,0.9955612127048231,0.09352316531720241,-0.004347718355591368,0.009611797534987717
1668680884.0400941,68784,1668680884,40004645,,-0.058813566984468615,-0.6810461844860035,0.07863926151999591,0.9955612127025071,0.0935231653208021,-0.004347718576057562,0.009611797640129198
1668680884.0478635,68785,1668680884,47755402,,-0.05841352280474676,-0.681549582203952,0.07886424028062386,0.9955612127001692,0.09352316532446842,-0.004347718797168519,0.009611797746593943
1668680884.0556967,68786,1668680884,55466291,,-0.058010048071477846,-0.6820496851424224,0.07909136286180848,0.9955612126978728,0.09352316532819689,-0.004347719016487213,0.009611797848963127
1668680884.0640383,68787,1668680884,63885832,,-0.05760312464180053,-0.6825465872577678,0.07932026088289929,0.9955612126955972,0.09352316533198987,-0.004347719234815508,0.009611797949000325
1668680884.0718176,68788,1668680884,71650685,,-0.05719283180869689,-0.683040452369317,0.0795504741056362,0.9955612126933531,0.09352316533584655,-0.004347719451746714,0.009611798045790374
