Time,header.seq,header.stamp.secs,header.stamp.nsecs,header.frame_id,wrench.force.x,wrench.force.y,wrench.force.z,wrench.torque.x,wrench.torque.y,wrench.torque.z
1668680881.5600774,68474,1668680881,559832443,,-5e-324,-5e-324,5e-324,5e-324,-5e-324,0.0
1668680881.5681665,68475,1668680881,567854112,,-5e-324,-5e-324,5e-324,5e-324,-5e-324,0.0
1668680881.5758605,68476,1668680881,575579973,,-5e-324,-5e-324,5e-324,5e-324,-5e-324,0.0
1668680881.583884,68477,1668680881,583687596,,-5e-324,-5e-324,5e-324,5e-324,-5e-324,0.0
1668680881.5916753,68478,1668680881,591506051,,-5e-324,-5e-324,5e-324,5e-324,-5e-324,0.0
1668680881.599767,68479,1668680881,599560239,,-5e-324,-5e-324,5e-324,5e-324,-5e-324,0.0
1668680881.6079366,68480,1668680881,607739318,,-5e-324,-5e-324,5e-324,5e-324,-5e-324,0.0
1668680881.6155403,68481,1668680881,615356208,,-5e-324,-5e-324,5e-324,5e-324,-5e-324,0.0
1668680881.623834,68482,1668680881,623620669,,-5e-324,-5e-324,5e-324,5e-324,-5e-324,0.0
1668680881.6318483,68483,1668680881,631565421,,-5e-324,-5e-324,5e-324,5e-324,-5e-324,0.0
1668680881.6403675,68484,1668680881,639729485,,-5e-324,-5e-324,5e-324,5e-324,-5e-324,0.0
1668680881.6479063,68485,1668680881,647692263,,-5e-324,-5e-324,5e-324,5e-324,-5e-324,0.0
1668680881.6556413,68486,1668680881,655408811,,-5e-324,-5e-324,5e-324,5e-324,-5e-324,0.0
1668680881.664022,68487,1668680881,663773645,,-5e-324,-5e-324,5e-324,5e-324,-5e-324,0.0
1668680881.6720557,68488,1668680881,671728827,,-5e-324,-5e-324,5e-324,5e-324,-5e-324,0.0
1668680881.6798108,68489,1668680881,679586455,,-5e-324,-5e-324,5e-324,5e-324,-5e-324,0.0
1668680881.6877413,68490,1668680881,687492632,,-5e-324,-5e-324,5e-324,5e-324,-5e-324,0.0
1668680881.695983,68491,1668680881,695698312,,-5e-324,-5e-324,5e-324,5e-324,-5e-324,0.0
1668680881.703851,68492,1668680881,703544524,,-5e-324,-5e-324,5e-324,5e-324,-5e-324,0.0
1668680881.71223,68493,1668680881,711723321,,-5e-324,-5e-324,5e-324,5e-324,-5e-324,0.0
1668680881.71999,68494,1668680881,719676321,,-5e-324,-5e-324,5e-324,5e-324,-5e-324,0.0
1668680881.7278094,68495,1668680881,727561798,,-5e-324,-5e-324,5e-324,5e-324,-5e-324,0.0
1668680881.7358284,68496,1668680881,735586280,,-5e-324,-5e-324,5e-324,5e-324,-5e-324,0.0
1668680881.7433393,68497,1668680881,743147738,,-5e-324,-5e-324,5e-324,5e-324,-5e-324,0.0
1668680881.7519243,68498,1668680881,751687818,,-5e-324,-5e-324,5e-324,5e-324,-5e-324,0.0
1668680881.759823,68499,1668680881,759607390,,-5e-324,-5e-324,5e-324,5e-324,-5e-324,0.0
1668680881.7678943,68500,1668680881,767688800,,-5e-324,-5e-324,5e-324,5e-324,-5e-324,0.0
1668680881.7755425,68501,1668680881,775341083,,-5e-324,-5e-324,5e-324,5e-324,-5e-324,0.0
1668680881.7838182,68502,1668680881,783560195,,-5e-324,-5e-324,5e-324,5e-324,-5e-324,0.0
1668680881.7918537,68503,1668680881,791600432,,-5e-324,-5e-324,5e-324,5e-324,-5e-324,0.0
1668680881.8001952,68504,1668680881,799946291,,-5e-324,-5e-324,5e-324,5e-324,-5e-324,0.0
1668680881.8077605,68505,1668680881,807549133,,-5e-324,-5e-324,5e-324,5e-324,-5e-324,0.0
1668680881.8156936,68506,1668680881,815455892,,-5e-324,-5e-324,5e-324,5e-324,-5e-324,0.0
1668680881.823555,68507,1668680881,823273239,,-5e-324,-5e-324,5e-324,5e-324,-5e-324,0.0
1668680881.831828,68508,1668680881,831582591,,-5e-324,-5e-324,5e-324,5e-324,-5e-324,0.0
1668680881.8402126,68509,1668680881,839930019,,-5e-324,-5e-324,5e-324,5e-324,-5e-324,0.0
1668680881.8481226,68510,1668680881,847873144,,-5e-324,-5e-324,5e-324,5e-324,-5e-324,0.0
1668680881.8555086,68511,1668680881,855292270,,-5e-324,-5e-324,5e-324,5e-324,-5e-324,0.0
1668680881.8662586,68512,1668680881,865989036,,-5e-324,-5e-324,5e-324,5e-324,-5e-324,0.0
1668680881.8731596,68513,1668680881,872737087,,-5e-324,-5e-324,5e-324,5e-324,-5e-324,0.0
1668680881.8798347,68514,1668680881,879615603,,-5e-324,-5e-324,5e-324,5e-324,-5e-324,0.0
1668680881.8878455,68515,1668680881,887582143,,-5e-324,-5e-324,5e-324,5e-324,-5e-324,0.0
1668680881.8957195,68516,1668680881,895560880,,-5e-324,-5e-324,5e-324,5e-324,-5e-324,0.0
1668680881.90343,68517,1668680881,903230640,,-5e-324,-5e-324,5e-324,5e-324,-5e-324,0.0
1668680881.911703,68518,1668680881,911498527,,-5e-324,-5e-324,5e-324,5e-324,-5e-324,0.0
1668680881.919938,68519,1668680881,919678260,,-5e-324,-5e-324,5e-324,5e-324,-5e-324,0.0
1668680881.928013,68520,1668680881,927768050,,-5e-324,-5e-324,5e-324,5e-324,-5e-324,0.0
1668680881.935496,68521,1668680881,935292117,,-5e-324,-5e-324,5e-324,5e-324,-5e-324,0.0
1668680881.943919,68522,1668680881,943722472,,-5e-324,-5e-324,5e-324,5e-324,-5e-324,0.0
1668680881.9516978,68523,1668680881,951492729,,-5e-324,-5e-324,5e-324,5e-324,-5e-324,0.0
1668680881.9599795,68524,1668680881,959723489,,-5e-324,-5e-324,5e-324,5e-324,-5e-324,0.0
1668680881.967727,68525,1668680881,967502113,,-5e-324,-5e-324,5e-324,5e-324,-5e-324,0.0
1668680881.975672,68526,1668680881,975438515,,-5e-324,-5e-324,5e-324,5e-324,-5e-324,0.0
1668680881.9835029,68527,1668680881,983272586,,-5e-324,-5e-324,5e-324,5e-324,-5e-324,0.0
1668680881.9918945,68528,1668680881,991607595,,-5e-324,-5e-324,5e-324,5e-324,-5e-324,0.0
1668680882.0004458,68529,1668680882,130807,,-5e-324,-5e-324,5e-324,5e-324,-5e-324,0.0
1668680882.0087504,68530,1668680882,8435105,,-5e-324,-5e-324,5e-324,5e-324,-5e-324,0.0
1668680882.0161436,68531,1668680882,15929582,,-5e-324,-5e-324,5e-324,5e-324,-5e-324,0.0
1668680882.0241935,68532,1668680882,23954447,,-5e-324,-5e-324,5e-324,5e-324,-5e-324,0.0
1668680882.0326915,68533,1668680882,32457047,,-5e-324,-5e-324,5e-324,5e-324,-5e-324,0.0
1668680882.040675,68534,1668680882,40392540,,-5e-324,-5e-324,5e-324,5e-324,-5e-324,0.0
1668680882.0485983,68535,1668680882,48348006,,-5e-324,-5e-324,5e-324,5e-324,-5e-324,0.0
1668680882.056053,68536,1668680882,55800106,,-5e-324,-5e-324,5e-324,5e-324,-5e-324,0.0
1668680882.0648484,68537,1668680882,64571670,,-5e-324,-5e-324,5e-324,5e-324,-5e-324,0.0
1668680882.0722468,68538,1668680882,71955261,,-5e-324,-5e-324,5e-324,5e-324,-5e-324,0.0
1668680882.0805087,68539,1668680882,80232806,,-5e-324,-5e-324,5e-324,5e-324,-5e-324,0.0
1668680882.088677,68540,1668680882,88455620,,-5e-324,-5e-324,5e-324,5e-324,-5e-324,0.0
1668680882.0962143,68541,1668680882,96012959,,-5e-324,-5e-324,5e-324,5e-324,-5e-324,0.0
1668680882.1043043,68542,1668680882,104095450,,-5e-324,-5e-324,5e-324,5e-324,-5e-324,0.0
1668680882.1125164,68543,1668680882,112263875,,-5e-324,-5e-324,5e-324,5e-324,-5e-324,0.0
1668680882.1198616,68544,1668680882,119611883,,-5e-324,-5e-324,5e-324,5e-324,-5e-324,0.0
1668680882.1285255,68545,1668680882,128253756,,-5e-324,-5e-324,5e-324,5e-324,-5e-324,0.0
1668680882.1359928,68546,1668680882,135708643,,-5e-324,-5e-324,5e-324,5e-324,-5e-324,0.0
1668680882.14405,68547,1668680882,143780430,,-5e-324,-5e-324,5e-324,5e-324,-5e-324,0.0
1668680882.1522455,68548,1668680882,151594762,,-5e-324,-5e-324,5e-324,5e-324,-5e-324,0.0
1668680882.1602314,68549,1668680882,159892401,,-5e-324,-5e-324,5e-324,5e-324,-5e-324,0.0
1668680882.1680713,68550,1668680882,167640840,,-5e-324,-5e-324,5e-324,5e-324,-5e-324,0.0
1668680882.1756725,68551,1668680882,175488468,,-5e-324,-5e-324,5e-324,5e-324,-5e-324,0.0
1668680882.1839259,68552,1668680882,183723673,,-5e-324,-5e-324,5e-324,5e-324,-5e-324,0.0
1668680882.1915972,68553,1668680882,191430788,,-5e-324,-5e-324,5e-324,5e-324,-5e-324,0.0
1668680882.1995678,68554,1668680882,199367756,,-5e-324,-5e-324,5e-324,5e-324,-5e-324,0.0
1668680882.2078583,68555,1668680882,207648643,,-5e-324,-5e-324,5e-324,5e-324,-5e-324,0.0
1668680882.2158966,68556,1668680882,215666512,,-5e-324,-5e-324,5e-324,5e-324,-5e-324,0.0
1668680882.2235641,68557,1668680882,223318959,,-5e-324,-5e-324,5e-324,5e-324,-5e-324,0.0
1668680882.232018,68558,1668680882,231780529,,-5e-324,-5e-324,5e-324,5e-324,-5e-324,0.0
1668680882.239999,68559,1668680882,239504231,,-5e-324,-5e-324,5e-324,5e-324,-5e-324,0.0
1668680882.2479074,68560,1668680882,247674216,,-5e-324,-5e-324,5e-324,5e-324,-5e-324,0.0
1668680882.2565603,68561,1668680882,256262022,,-5e-324,-5e-324,5e-324,5e-324,-5e-324,0.0
1668680882.2635357,68562,1668680882,263340699,,-5e-324,-5e-324,5e-324,5e-324,-5e-324,0.0
1668680882.271794,68563,1668680882,271534384,,-5e-324,-5e-324,5e-324,5e-324,-5e-324,0.0
1668680882.279813,68564,1668680882,279611743,,-5e-324,-5e-324,5e-324,5e-324,-5e-324,0.0
1668680882.2878923,68565,1668680882,287642956,,-5e-324,-5e-324,5e-324,5e-324,-5e-324,0.0
1668680882.2977693,68566,1668680882,295633016,,-5e-324,-5e-324,5e-324,5e-324,-5e-324,0.0
1668680882.3036532,68567,1668680882,303410646,,-5e-324,-5e-324,5e-324,5e-324,-5e-324,0.0
1668680882.312366,68568,1668680882,312098765,,-5e-324,-5e-324,5e-324,5e-324,-5e-324,0.0
1668680882.3203983,68569,1668680882,320042957,,-5e-324,-5e-324,5e-324,5e-324,-5e-324,0.0
1668680882.3280528,68570,1668680882,327841623,,-5e-324,-5e-324,5e-324,5e-324,-5e-324,0.0
1668680882.3355799,68571,1668680882,335330383,,-5e-324,-5e-324,5e-324,5e-324,-5e-324,0.0
1668680882.3439782,68572,1668680882,343727584,,-5e-324,-5e-324,5e-324,5e-324,-5e-324,0.0
1668680882.3518786,68573,1668680882,351653606,,-5e-324,-5e-324,5e-324,5e-324,-5e-324,0.0
1668680882.3597133,68574,1668680882,359514500,,-5e-324,-5e-324,5e-324,5e-324,-5e-324,0.0
1668680882.367795,68575,1668680882,367577149,,-5e-324,-5e-324,5e-324,5e-324,-5e-324,0.0
1668680882.3759375,68576,1668680882,375713787,,-5e-324,-5e-324,5e-324,5e-324,-5e-324,0.0
1668680882.384546,68577,1668680882,384258120,,-5e-324,-5e-324,5e-324,5e-324,-5e-324,0.0
1668680882.3923652,68578,1668680882,392116469,,-5e-324,-5e-324,5e-324,5e-324,-5e-324,0.0
1668680882.3998606,68579,1668680882,399635013,,-5e-324,-5e-324,5e-324,5e-324,-5e-324,0.0
1668680882.4078975,68580,1668680882,407708240,,-5e-324,-5e-324,5e-324,5e-324,-5e-324,0.0
1668680882.4155247,68581,1668680882,415284665,,-5e-324,-5e-324,5e-324,5e-324,-5e-324,0.0
1668680882.4238994,68582,1668680882,423671241,,-5e-324,-5e-324,5e-324,5e-324,-5e-324,0.0
1668680882.4317827,68583,1668680882,431608206,,-5e-324,-5e-324,5e-324,5e-324,-5e-324,0.0
1668680882.4399009,68584,1668680882,439654155,,-5e-324,-5e-324,5e-324,5e-324,-5e-324,0.0
1668680882.4480927,68585,1668680882,447838902,,-5e-324,-5e-324,5e-324,5e-324,-5e-324,0.0
1668680882.4560595,68586,1668680882,455777781,,-5e-324,-5e-324,5e-324,5e-324,-5e-324,0.0
1668680882.4638193,68587,1668680882,463408662,,-5e-324,-5e-324,5e-324,5e-324,-5e-324,0.0
1668680882.4722724,68588,1668680882,471864597,,-5e-324,-5e-324,5e-324,5e-324,-5e-324,0.0
1668680882.4796546,68589,1668680882,479495239,,-5e-324,-5e-324,5e-324,5e-324,-5e-324,0.0
1668680882.4889863,68590,1668680882,488567684,,-5e-324,-5e-324,5e-324,5e-324,-5e-324,0.0
1668680882.496115,68591,1668680882,495923483,,-5e-324,-5e-324,5e-324,5e-324,-5e-324,0.0
1668680882.5047572,68592,1668680882,504482765,,-5e-324,-5e-324,5e-324,5e-324,-5e-324,0.0
1668680882.5125332,68593,1668680882,512248541,,-5e-324,-5e-324,5e-324,5e-324,-5e-324,0.0
1668680882.520582,68594,1668680882,520301666,,-5e-324,-5e-324,5e-324,5e-324,-5e-324,0.0
1668680882.5281527,68595,1668680882,527957762,,-5e-324,-5e-324,5e-324,5e-324,-5e-324,0.0
1668680882.53568,68596,1668680882,535472843,,-5e-324,-5e-324,5e-324,5e-324,-5e-324,0.0
1668680882.5435581,68597,1668680882,543353909,,-5e-324,-5e-324,5e-324,5e-324,-5e-324,0.0
1668680882.5518408,68598,1668680882,551561421,,-5e-324,-5e-324,5e-324,5e-324,-5e-324,0.0
1668680882.5598798,68599,1668680882,559641738,,-5e-324,-5e-324,5e-324,5e-324,-5e-324,0.0
1668680882.567873,68600,1668680882,567643241,,-5e-324,-5e-324,5e-324,5e-324,-5e-324,0.0
1668680882.5758283,68601,1668680882,575585142,,-5e-324,-5e-324,5e-324,5e-324,-5e-324,0.0
1668680882.5834854,68602,1668680882,583286897,,-5e-324,-5e-324,5e-324,5e-324,-5e-324,0.0
1668680882.5917983,68603,1668680882,591556392,,-5e-324,-5e-324,5e-324,5e-324,-5e-324,0.0
1668680882.5998762,68604,1668680882,599693485,,-5e-324,-5e-324,5e-324,5e-324,-5e-324,0.0
1668680882.608053,68605,1668680882,607655209,,-5e-324,-5e-324,5e-324,5e-324,-5e-324,0.0
1668680882.6156416,68606,1668680882,615442303,,-5e-324,-5e-324,5e-324,5e-324,-5e-324,0.0
1668680882.6242564,68607,1668680882,623926956,,-5e-324,-5e-324,5e-324,5e-324,-5e-324,0.0
1668680882.6318455,68608,1668680882,631609402,,-5e-324,-5e-324,5e-324,5e-324,-5e-324,0.0
1668680882.639783,68609,1668680882,639540891,,-5e-324,-5e-324,5e-324,5e-324,-5e-324,0.0
1668680882.6478481,68610,1668680882,647566858,,-5e-324,-5e-324,5e-324,5e-324,-5e-324,0.0
1668680882.6556869,68611,1668680882,655445126,,-5e-324,-5e-324,5e-324,5e-324,-5e-324,0.0
1668680882.6641734,68612,1668680882,663988410,,-5e-324,-5e-324,5e-324,5e-324,-5e-324,0.0
1668680882.6719422,68613,1668680882,671691173,,-5e-324,-5e-324,5e-324,5e-324,-5e-324,0.0
1668680882.6797924,68614,1668680882,679566486,,-5e-324,-5e-324,5e-324,5e-324,-5e-324,0.0
1668680882.6876695,68615,1668680882,687477892,,-5e-324,-5e-324,5e-324,5e-324,-5e-324,0.0
1668680882.6961646,68616,1668680882,695916737,,-5e-324,-5e-324,5e-324,5e-324,-5e-324,0.0
1668680882.7034774,68617,1668680882,703255780,,-5e-324,-5e-324,5e-324,5e-324,-5e-324,0.0
1668680882.7120163,68618,1668680882,711799982,,-5e-324,-5e-324,5e-324,5e-324,-5e-324,0.0
1668680882.7198064,68619,1668680882,719575817,,-5e-324,-5e-324,5e-324,5e-324,-5e-324,0.0
1668680882.7280414,68620,1668680882,727719993,,-5e-324,-5e-324,5e-324,5e-324,-5e-324,0.0
1668680882.735612,68621,1668680882,735395106,,-5e-324,-5e-324,5e-324,5e-324,-5e-324,0.0
1668680882.7440157,68622,1668680882,743744654,,-5e-324,-5e-324,5e-324,5e-324,-5e-324,0.0
1668680882.7519507,68623,1668680882,751647570,,-5e-324,-5e-324,5e-324,5e-324,-5e-324,0.0
1668680882.7601378,68624,1668680882,759831435,,-5e-324,-5e-324,5e-324,5e-324,-5e-324,0.0
1668680882.7678118,68625,1668680882,767585961,,-5e-324,-5e-324,5e-324,5e-324,-5e-324,0.0
1668680882.775333,68626,1668680882,775166286,,-5e-324,-5e-324,5e-324,5e-324,-5e-324,0.0
1668680882.7838676,68627,1668680882,783645008,,-5e-324,-5e-324,5e-324,5e-324,-5e-324,0.0
1668680882.7921286,68628,1668680882,791890938,,-5e-324,-5e-324,5e-324,5e-324,-5e-324,0.0
1668680882.799705,68629,1668680882,799524941,,-5e-324,-5e-324,5e-324,5e-324,-5e-324,0.0
1668680882.807857,68630,1668680882,807617855,,-5e-324,-5e-324,5e-324,5e-324,-5e-324,0.0
1668680882.8155367,68631,1668680882,815302586,,-5e-324,-5e-324,5e-324,5e-324,-5e-324,0.0
1668680882.823929,68632,1668680882,823704689,,-5e-324,-5e-324,5e-324,5e-324,-5e-324,0.0
1668680882.8317819,68633,1668680882,831546512,,-5e-324,-5e-324,5e-324,5e-324,-5e-324,0.0
1668680882.8399215,68634,1668680882,839583493,,-5e-324,-5e-324,5e-324,5e-324,-5e-324,0.0
1668680882.8477266,68635,1668680882,847542243,,-5e-324,-5e-324,5e-324,5e-324,-5e-324,0.0
1668680882.8557794,68636,1668680882,855508688,,-5e-324,-5e-324,5e-324,5e-324,-5e-324,0.0
1668680882.8637702,68637,1668680882,863521828,,-5e-324,-5e-324,5e-324,5e-324,-5e-324,0.0
1668680882.8716776,68638,1668680882,871442319,,-5e-324,-5e-324,0.0834755561435174,5e-324,-5e-324,0.0
1668680882.8799567,68639,1668680882,879725983,,-5e-324,-5e-324,0.12765046639328606,5e-324,-5e-324,0.0
1668680882.8879352,68640,1668680882,887724496,,-5e-324,-5e-324,0.27251703954011974,5e-324,-5e-324,0.0
1668680882.8957458,68641,1668680882,895519052,,0.03881433126031608,-5e-324,0.3822333346870203,5e-324,-5e-324,0.0
1668680882.9036822,68642,1668680882,903415994,,0.03881433126031608,-5e-324,0.3822333346870203,5e-324,-5e-324,0.0
1668680882.912111,68643,1668680882,911906339,,0.059307747696805566,-5e-324,0.44032068980241434,5e-324,-5e-324,0.0
1668680882.919823,68644,1668680882,919606679,,0.05611619565187416,-5e-324,0.5192404184766607,5e-324,-5e-324,0.0
1668680882.927946,68645,1668680882,927707200,,0.0684410793883007,-5e-324,0.6083983672363541,5e-324,-5e-324,0.0
1668680882.9355166,68646,1668680882,935279450,,0.0684410793883007,-5e-324,0.6083983672363541,5e-324,-5e-324,0.0
1668680882.9438758,68647,1668680882,943625609,,0.0749479612325376,-5e-324,0.6555846421996989,5e-324,-5e-324,0.0
1668680882.9521499,68648,1668680882,951868630,,0.10457924816354952,-5e-324,0.7130126857125215,5e-324,-5e-324,0.0
1668680882.9598029,68649,1668680882,959585180,,0.12034909885519365,-5e-324,0.7434038613756372,5e-324,-5e-324,0.0
1668680882.96792,68650,1668680882,967654025,,0.12687917980151964,-5e-324,0.8309055990250089,5e-324,-5e-324,0.0
1668680882.9760473,68651,1668680882,975794458,,0.26259018282087504,-5e-324,0.8681830621603934,5e-324,-5e-324,0.0
1668680882.9835665,68652,1668680882,983320841,,0.26259018282087504,-5e-324,0.8681830621603934,5e-324,-5e-324,0.0
1668680882.9918566,68653,1668680882,991556776,,0.3344591527557135,-5e-324,0.8879248308270955,5e-324,-5e-324,0.0
1668680883.0002148,68654,1668680882,999972518,,0.4839687180620133,-0.009314695271627997,1.034657010362777,5e-324,-5e-324,0.0
1668680883.0078723,68655,1668680883,7636600,,0.6108234244299,-0.004928198558994778,1.1344848526209066,5e-324,-5e-324,0.0
1668680883.0155866,68656,1668680883,15387559,,0.6108234244299,-0.004928198558994778,1.1344848526209066,5e-324,-5e-324,0.0
1668680883.0243478,68657,1668680883,24095699,,0.6779999913289695,-0.0026074004923011687,1.1872779713170956,5e-324,-5e-324,0.0
1668680883.0317748,68658,1668680883,31538407,,0.6442164394759047,-0.04784373094166559,1.2175336957180907,5e-324,-5e-324,0.0
1668680883.040572,68659,1668680883,39889140,,0.6263941496998664,-0.07176367827204076,1.2335109767385122,5e-324,-5e-324,0.0
1668680883.048615,68660,1668680883,48201877,,0.6608844994045835,-0.06089233878837021,1.2882930291576786,5e-324,-5e-324,0.0
1668680883.0556273,68661,1668680883,55383887,,0.6608844994045835,-0.06089233878837021,1.2882930291576786,5e-324,-5e-324,0.0
1668680883.0639863,68662,1668680883,63720112,,0.7766132820794224,-0.08957352588108275,1.3031857462370708,5e-324,-5e-324,0.0
1668680883.0723608,68663,1668680883,72100080,,0.8378382721169242,-0.10476031355542477,1.3110629808092902,5e-324,-5e-324,0.0
1668680883.0797849,68664,1668680883,79566427,,0.688897681996524,-0.5135733316649167,1.4611336940700204,5e-324,-5e-324,0.0
1668680883.087909,68665,1668680883,87678918,,0.3644804757114442,-1.9742538211266243,1.6225532080333536,5e-324,-5e-324,0.0
1668680883.09558,68666,1668680883,95342102,,0.3644804757114442,-1.9742538211266243,1.6225532080333536,5e-324,-5e-324,0.0
1668680883.103764,68667,1668680883,103574610,,0.19283853124579245,-2.7469479447808363,1.7081538315875626,5e-324,-5e-324,0.0
1668680883.112027,68668,1668680883,111743673,,0.10202658746109307,-3.3315784109991133,1.771921225834583,5e-324,-5e-324,0.0
1668680883.1199298,68669,1668680883,119701266,,0.05398000327895153,-3.641076244992086,1.8053449901382077,5e-324,-5e-324,0.0
1668680883.1276867,68670,1668680883,127500850,,0.02855962182511284,-3.956001018161813,1.722195780697207,5e-324,-5e-324,0.0
1668680883.1354504,68671,1668680883,135231173,,0.02855962182511284,-3.956001018161813,1.722195780697207,5e-324,-5e-324,0.0
1668680883.144009,68672,1668680883,143783139,,0.01511026212018608,-4.090089324564341,1.7347777714467163,5e-324,-5e-324,0.0
1668680883.1517875,68673,1668680883,151562036,,0.007994504364899034,-4.16116234858313,1.74118979577351,5e-324,-5e-324,0.0
1668680883.159865,68674,1668680883,159613058,,0.0042297148475676245,-4.1166582070423745,1.8045179905676467,5e-324,-5e-324,0.0
1668680883.1678255,68675,1668680883,167611112,,0.13408219537907454,-2.8679928003043162,1.7605832234046392,5e-324,-5e-324,0.0
1668680883.1755855,68676,1668680883,175338107,,0.13408219537907454,-2.8679928003043162,1.7605832234046392,5e-324,-5e-324,0.0
1668680883.1838708,68677,1668680883,183627954,,0.2027223403373776,-2.207455795826814,1.737272840223273,5e-324,-5e-324,0.0
1668680883.1919613,68678,1668680883,191754247,,0.5979468951040932,-1.3793006403500705,1.632831401147546,5e-324,-5e-324,0.0
1668680883.19978,68679,1668680883,199544393,,0.8070608909504884,-0.9410842492174201,1.5775994125982562,5e-324,-5e-324,0.0
1668680883.2086477,68680,1668680883,208281630,,0.9043377069696206,-0.6635578975174613,1.561735607692205,5e-324,-5e-324,0.0
1668680883.2155027,68681,1668680883,215293016,,0.9043377069696206,-0.6635578975174613,1.561735607692205,5e-324,-5e-324,0.0
1668680883.2236876,68682,1668680883,223449354,,0.9931185951620167,-0.562816772202197,1.5350920485599557,5e-324,-5e-324,0.0
1668680883.2317832,68683,1668680883,231579948,,1.0400628860025836,-0.5093731265596302,1.521101849208193,5e-324,-5e-324,0.0
1668680883.2398632,68684,1668680883,239607411,,1.293496361024931,-0.42386421410593406,1.4920551811054727,5e-324,-5e-324,0.0
1668680883.2477045,68685,1668680883,247487697,,0.9860788027083818,-1.3639900754396188,1.461751868825224,5e-324,-5e-324,0.0
1668680883.2558155,68686,1668680883,255594250,,0.8235271126654713,-1.8613136522308966,1.4457613796976512,5e-324,-5e-324,0.0
1668680883.2635622,68687,1668680883,263350961,,0.8235271126654713,-1.8613136522308966,1.4457613796976512,5e-324,-5e-324,0.0
1668680883.2720525,68688,1668680883,271762998,,0.43570991981810386,-3.0225287540645684,1.324169448079426,5e-324,-5e-324,0.0
1668680883.2799444,68689,1668680883,279677641,,0.2305244494178731,-3.6368258153480237,1.260021081815982,5e-324,-5e-324,0.0
1668680883.2877984,68690,1668680883,287561847,,0.12196537045013471,-4.561917001788856,0.6666491923383406,5e-324,-0.01503627252338651,0.0
1668680883.2955408,68691,1668680883,295278746,,0.12196537045013471,-4.561917001788856,0.6666491923383406,5e-324,-0.01503627252338651,0.0
1668680883.3049018,68692,1668680883,304681940,,0.06452917088231969,-5.348340582084397,0.3527092935658252,5e-324,-0.07487833985924905,0.0
1668680883.3124163,68693,1668680883,312132562,,0.034140952299751864,-5.764409610310694,0.18661065999546803,5e-324,-0.10654053442057637,0.0
1668680883.3204842,68694,1668680883,320151149,,0.018516765909939746,-6.305342672593385,0.0714063336882412,5e-324,-0.18245411404368234,0.0
1668680883.327736,68695,1668680883,327541949,,0.071897370518823,-6.559062570860531,0.03777950652420921,5e-324,-0.22415134283482535,0.0
1668680883.33584,68696,1668680883,335605968,,0.10055217265878232,-6.6932050836363,0.019988298509265215,5e-324,-0.24620939836449807,0.0
1668680883.3435676,68697,1668680883,343292348,,0.10055217265878232,-6.6932050836363,0.019988298509265215,5e-324,-0.24620939836449807,0.0
1668680883.351734,68698,1668680883,351537851,,0.18993130220954343,-6.672637131242217,0.01057536516628328,5e-324,-0.2478933666282645,0.0
1668680883.3601973,68699,1668680883,359976107,,0.23723033032976093,-6.661762044522479,0.005595191023808112,5e-324,-0.2487841974575919,0.0
1668680883.3681538,68700,1668680883,367827693,,0.5367245544522684,-6.560618473621114,0.002960291403715702,5e-324,-0.2438853832876336,0.0
1668680883.3757699,68701,1668680883,375503344,,0.5367245544522684,-6.560618473621114,0.002960291403715702,5e-324,-0.2438853832876336,0.0
1668680883.3838375,68702,1668680883,383572220,,0.7537365946295477,-6.50939599228823,0.0015662244877117212,5e-324,-0.24544847003270404,0.0
1668680883.3917508,68703,1668680883,391539454,,0.8684186991201854,-6.482354738607839,0.000828654619213774,5e-324,-0.24627883624126262,0.0
1668680883.3998752,68704,1668680883,399620462,,1.0744000836356786,-6.348716056813286,0.0004384227697445583,5e-324,-0.23480126714516547,0.0
1668680883.407851,68705,1668680883,407631448,,1.4152167135014504,-6.317270267723719,0.00023195975811112087,5e-324,-0.24310943628098208,0.0
1668680883.4156013,68706,1668680883,415348362,,1.4152167135014504,-6.317270267723719,0.00023195975811112087,5e-324,-0.24310943628098208,0.0
1668680883.4237893,68707,1668680883,423547014,,1.5952037465674849,-6.3007544657096854,0.00012272476042774586,5e-324,-0.2475201184871657,0.0
1668680883.4322383,68708,1668680883,431970670,,1.6191576797435445,-6.397577720511242,6.493094726729468e-05,5e-324,-0.2715000329626177,0.0
1668680883.4397557,68709,1668680883,439570678,,1.63163841737857,-6.4488844224712,3.435352326892817e-05,5e-324,-0.28419412790110343,0.0
1668680883.448009,68710,1668680883,447767948,,1.655226315593744,-6.732305276441849,-0.2530274430442639,5e-324,-0.3352810238611803,0.0
1668680883.4557147,68711,1668680883,455450621,,1.655226315593744,-6.732305276441849,-0.2530274430442639,5e-324,-0.3352810238611803,0.0
1668680883.464027,68712,1668680883,463742346,,1.946844833382499,-7.061507546307865,-0.7524928726916653,5e-324,-0.39142089262460406,0.0
1668680883.471809,68713,1668680883,471597141,,2.10102233639072,-7.235782145412968,-1.0165385518918197,5e-324,-0.42112747384963956,0.0
1668680883.4797306,68714,1668680883,479519160,,2.188694847756972,-7.683941124921519,-1.5501434197206163,5e-324,-0.49646787100535206,0.0
1668680883.487693,68715,1668680883,487488695,,2.1794698646687274,-8.038586203456475,-1.8949641309435994,5e-324,-0.5555294135115367,0.0
1668680883.4955473,68716,1668680883,495342811,,2.1794698646687274,-8.038586203456475,-1.8949641309435994,5e-324,-0.5555294135115367,0.0
1668680883.504383,68717,1668680883,503764792,,2.174617174764304,-8.226004874601832,-2.077995413661994,5e-324,-0.586782465777311,0.0
1668680883.5136817,68718,1668680883,511634654,,2.2188949219164176,-8.214248577708434,-2.097007829235226,5e-324,-0.5878426439015785,0.0
1668680883.5207286,68719,1668680883,520146359,,2.242767500081222,-8.207915985941554,-2.106931315995041,5e-324,-0.5883806392440143,0.0
1668680883.5278146,68720,1668680883,527575457,,2.260591151718712,-8.046621273661692,-1.9224172958014876,5e-324,-0.5678483289032201,0.0
1668680883.5354433,68721,1668680883,535222713,,2.260591151718712,-8.046621273661692,-1.9224172958014876,5e-324,-0.5678483289032201,0.0
1668680883.5444748,68722,1668680883,544230318,,2.2313662744373977,-7.929221265923815,-1.7684160153826036,5e-324,-0.552661201240398,0.0
1668680883.552817,68723,1668680883,552500171,,2.215920061743568,-7.866991877845322,-1.6873095521152097,5e-324,-0.5446264138342569,0.0
1668680883.5600085,68724,1668680883,559774517,,2.2520866883419544,-7.916699332496031,-1.6531304910921487,5e-324,-0.5585077212085117,0.0
1668680883.5676293,68725,1668680883,567424008,,2.3689441756544154,-7.852791602577259,-1.6319101493940398,5e-324,-0.5558729337554533,0.0
1668680883.5756323,68726,1668680883,575440564,,2.3689441756544154,-7.852791602577259,-1.6319101493940398,5e-324,-0.5558729337554533,0.0
1668680883.5836046,68727,1668680883,583434621,,2.4309772053474656,-7.818729002861071,-1.621249046634401,5e-324,-0.5544679550136464,0.0
1668680883.5919428,68728,1668680883,591732776,,2.497475656608904,-8.000105996819062,-1.5924788341516884,5e-324,-0.5860234256070749,0.0
1668680883.6000786,68729,1668680883,599870365,,2.532479527260016,-8.096122920737393,-1.577311370141044,5e-324,-0.6027261166998232,0.0
1668680883.6078546,68730,1668680883,607575398,,2.49062658848388,-8.4210381283158,-1.765716186664307,5e-324,-0.6521352000048968,0.0
1668680883.6156933,68731,1668680883,615478899,,2.5449271949016667,-8.70087535376026,-2.010153366429928,5e-324,-0.695392112841438,0.0
1668680883.623781,68732,1668680883,623520576,,2.5449271949016667,-8.70087535376026,-2.010153366429928,5e-324,-0.695392112841438,0.0
1668680883.6317723,68733,1668680883,631585988,,2.5734906707972836,-8.848894457505047,-2.139773071969536,5e-324,-0.718285729220917,0.0
1668680883.6399357,68734,1668680883,639665773,,2.6166469809024755,-8.904360754490455,-2.283852751363874,5e-324,-0.7325885026670071,0.0
1668680883.6479087,68735,1668680883,647612234,,2.6894708115236714,-8.866321276320772,-2.3429208575081586,5e-324,-0.732233100921506,0.0
1668680883.6557214,68736,1668680883,655484518,,2.6894708115236714,-8.866321276320772,-2.3429208575081586,5e-324,-0.732233100921506,0.0
1668680883.6641881,68737,1668680883,663779565,,2.727768966395887,-8.846297976969769,-2.3741328671754234,5e-324,-0.7320522932218183,0.0
1668680883.6717622,68738,1668680883,671452395,,2.9434942782079276,-8.933743534180099,-2.432063775303345,5e-324,-0.7509116309311732,0.0
1668680883.679706,68739,1668680883,679449598,,3.057508205928649,-8.980178691182491,-2.4623724984607973,5e-324,-0.7608951469578722,0.0
1668680883.6878433,68740,1668680883,687601298,,3.23473542908461,-8.909153314069584,-2.4061015719763237,5e-324,-0.7616176758711639,0.0
1668680883.6956398,68741,1668680883,695437390,,3.23473542908461,-8.909153314069584,-2.4061015719763237,5e-324,-0.7616176758711639,0.0
1668680883.7046618,68742,1668680883,704341922,,3.4979987855355397,-8.936632685113004,-2.437130757134982,5e-324,-0.7772045575339337,0.0
1668680883.712085,68743,1668680883,711815254,,3.63753671037228,-8.950940293994655,-2.4538643126921227,5e-324,-0.7854352454088466,0.0
1668680883.7201478,68744,1668680883,719913320,,4.00224937112652,-9.059386995900638,-2.6088357126343094,5e-324,-0.8094431218634787,0.0
1668680883.7278318,68745,1668680883,727577369,,4.074841609319943,-9.340898282745627,-2.6902796686411588,5e-324,-0.8569574621139832,0.0
1668680883.7354007,68746,1668680883,735204323,,4.074841609319943,-9.340898282745627,-2.6902796686411588,5e-324,-0.8569574621139832,0.0
1668680883.74403,68747,1668680883,743769004,,4.112871422014246,-9.489897563742257,-2.7337208112494578,5e-324,-0.8821186342449175,0.0
1668680883.752055,68748,1668680883,751809428,,3.6172222484422516,-9.670493028503225,-1.6867038690658358,5e-324,-0.8964710300670272,0.0
1668680883.759939,68749,1668680883,759671980,,3.3552392953376624,-9.765977781294627,-1.1325303629636825,5e-324,-0.9040554158049405,0.0
1668680883.7681592,68750,1668680883,767892079,,2.8388970889269745,-9.884985420298747,-0.5991966822334879,5e-324,-0.8923305515929469,0.0
1668680883.7754798,68751,1668680883,775228160,,2.8388970889269745,-9.884985420298747,-0.5991966822334879,5e-324,-0.8923305515929469,0.0
1668680883.7840648,68752,1668680883,783774338,,2.3370683576069218,-9.654329637522235,0.540015906359621,5e-324,-0.8048054243398022,0.0
1668680883.7919974,68753,1668680883,791793605,,2.071630197772796,-9.532184032074358,1.143089061057104,5e-324,-0.7584979067722804,0.0
1668680883.7999213,68754,1668680883,799632168,,1.7344580799939358,-9.419551119670949,1.4107606996716138,5e-324,-0.7306418116413294,0.0
1668680883.8082669,68755,1668680883,807951075,,1.684938578535544,-9.107256845426388,1.4565894941399495,5e-324,-0.6904493540506369,0.0
1668680883.815935,68756,1668680883,815610396,,1.684938578535544,-9.107256845426388,1.4565894941399495,5e-324,-0.6904493540506369,0.0
1668680883.8242452,68757,1668680883,823798960,,1.658791936728226,-8.94197243569716,1.4810004371865788,5e-324,-0.6691847276409615,0.0
1668680883.8316298,68758,1668680883,831443003,,2.06863963222137,-8.935307180887138,1.595944417912354,5e-324,-0.6758641649640741,0.0
1668680883.8398316,68759,1668680883,839625699,,2.2860390817943976,-8.931626335020898,1.6565983109435223,5e-324,-0.6793872462377037,0.0
1668680883.847773,68760,1668680883,847569059,,2.2845244922160513,-8.845441166926424,1.2214458305569873,5e-324,-0.6804837652485306,0.0
1668680883.8558638,68761,1668680883,855648446,,2.44378112856532,-8.876219190410414,1.1800755850932863,5e-324,-0.6943867046253234,0.0
1668680883.8635497,68762,1668680883,863283272,,2.44378112856532,-8.876219190410414,1.1800755850932863,5e-324,-0.6943867046253234,0.0
1668680883.871925,68763,1668680883,871640980,,2.528222452251126,-8.892294084088345,1.1588491146080138,5e-324,-0.7017414589899719,0.0
1668680883.8800254,68764,1668680883,879847656,,2.427935219541372,-8.812685479156862,1.6750490963110016,5e-324,-0.6749914485229892,0.0
1668680883.8877835,68765,1668680883,887541621,,2.0731556778963296,-8.862241324528139,2.1548800070900738,5e-324,-0.686331858382373,0.0
1668680883.8957994,68766,1668680883,895567788,,1.8853772687657342,-8.888489334084024,2.408722170002279,5e-324,-0.6923319993407174,0.0
1668680883.903601,68767,1668680883,903389105,,1.8853772687657342,-8.888489334084024,2.408722170002279,5e-324,-0.6923319993407174,0.0
1668680883.9121017,68768,1668680883,911869070,,1.8895570959969774,-9.085638004796216,2.715514212525099,5e-324,-0.7144508483946741,0.0
1668680883.9198976,68769,1668680883,919559452,,1.8915896288834886,-9.190349520700693,2.8769314216644295,5e-324,-0.7261495954957333,0.0
1668680883.9277723,68770,1668680883,927537165,,2.026212514645235,-9.237928129966722,3.0552516926111366,5e-324,-0.741987350812982,0.0
1668680883.9356635,68771,1668680883,935451358,,2.026212514645235,-9.237928129966722,3.0552516926111366,5e-324,-0.741987350812982,0.0
1668680883.9442961,68772,1668680883,944050753,,1.9138732585712668,-9.184529087140227,3.0643747311196607,5e-324,-0.747140173172232,0.0
1668680883.9521117,68773,1668680883,951858753,,1.854124488066049,-9.156571145676132,3.0686839634251886,5e-324,-0.7498632560916592,0.0
1668680883.9607794,68774,1668680883,960487552,,2.1615673696257875,-9.010835879085263,3.047087923042382,5e-324,-0.7202755862064154,0.0
1668680883.9679575,68775,1668680883,967651086,,2.4526877156221847,-8.85208013427522,3.0325730140400395,5e-324,-0.6935806537145148,0.0
1668680883.9755661,68776,1668680883,975351874,,2.4526877156221847,-8.85208013427522,3.0325730140400395,5e-324,-0.6935806537145148,0.0
1668680883.9838173,68777,1668680883,983564676,,2.606560481494941,-8.767947228553265,3.025371224170367,5e-324,-0.67946341906359,0.0
1668680883.9919052,68778,1668680883,991658015,,2.5906889150930947,-8.572191245541413,2.868331168231043,5e-324,-0.6658342215029138,0.0
1668680883.9996881,68779,1668680883,999501569,,2.5822857217998267,-8.468606401719903,2.785287699691664,5e-324,-0.658623676074441,0.0
1668680884.007989,68780,1668680884,7781036,,2.7391633167102203,-8.525340872083824,2.8318237852500356,5e-324,-0.6701226156907195,0.0
1668680884.015518,68781,1668680884,15285610,,2.7391633167102203,-8.525340872083824,2.8318237852500356,5e-324,-0.6701226156907195,0.0
1668680884.0238276,68782,1668680884,23590542,,2.8568083851566612,-8.526330705407041,3.025546828506951,5e-324,-0.6636397525109929,0.0
1668680884.0321696,68783,1668680884,31885412,,2.91899005826411,-8.526659911774823,3.1285360472409107,5e-324,-0.6602166736189378,0.0
1668680884.0402234,68784,1668680884,40004645,,2.824416137223924,-8.606574378087263,3.2800201554316297,5e-324,-0.6901036469097523,0.0
1668680884.0479977,68785,1668680884,47755402,,2.8865038890665278,-8.560461902247663,3.3579416314427846,5e-324,-0.6925963943574935,0.0
1668680884.0557742,68786,1668680884,55466291,,2.8865038890665278,-8.560461902247663,3.3579416314427846,5e-324,-0.6925963943574935,0.0
1668680884.0641155,68787,1668680884,63885832,,2.9197636563181693,-8.53585261009259,3.3992566580737202,5e-324,-0.6939119993190579,0.0
1668680884.0734694,68788,1668680884,71650685,,3.3053171523171767,-8.668171460526917,3.4545172485923583,5e-324,-0.7143292476282899,0.0
1668680884.0799568,68789,1668680884,79713654,,3.508825795580759,-8.738532906718815,3.483486535205473,5e-324,-0.7251404126301093,0.0
1668680884.0880864,68790,1668680884,87853128,,3.3086004533850693,-8.548245213649789,3.4160019027700965,5e-324,-0.6991002012271954,0.0
1668680884.0956845,68791,1668680884,95399045,,3.3086004533850693,-8.548245213649789,3.4160019027700965,5e-324,-0.6991002012271954,0.0
1668680884.1041927,68792,1668680884,103733424,,3.3757527902760263,-8.547947489820213,3.44658958280923,5e-324,-0.7060394986272274,0.0
1668680884.1117954,68793,1668680884,111556714,,3.410957220786489,-8.547996094465272,3.4626558441007367,5e-324,-0.7097164673119273,0.0
1668680884.1196892,68794,1668680884,119484036,,3.701742674317388,-8.585479123924644,3.5828474013275584,5e-324,-0.7124143767347704,0.0
1668680884.127828,68795,1668680884,127623137,,3.701943304926699,-8.67716625750651,3.672183623207041,5e-324,-0.7419660363128866,0.0
1668680884.1354804,68796,1668680884,135258908,,3.701943304926699,-8.67716625750651,3.672183623207041,5e-324,-0.7419660363128866,0.0
1668680884.1435556,68797,1668680884,143413178,,3.702319795327857,-8.725394050831241,3.719760576327472,5e-324,-0.7575946016498791,0.0
1668680884.1518202,68798,1668680884,151611233,,3.595451397338148,-8.843046534308804,3.742994778464208,5e-324,-0.7730772176697014,0.0
1668680884.1599529,68799,1668680884,159746302,,3.538951259865879,-8.904967747311495,3.755930456242709,5e-324,-0.781279006960129,0.0
1668680884.168161,68800,1668680884,167930139,,3.9081985541306477,-9.066308123145767,3.857072029531462,5e-324,-0.810788634671866,0.0
1668680884.17563,68801,1668680884,175409088,,3.9081985541306477,-9.066308123145767,3.857072029531462,5e-324,-0.810788634671866,0.0
1668680884.1838613,68802,1668680884,183637208,,3.770296383273605,-8.99064972105347,3.871367268540831,5e-324,-0.8075038374155532,0.0
1668680884.1919,68803,1668680884,191652352,,3.6979730949416547,-8.94975930312686,3.8800733570153474,5e-324,-0.8057685394676415,0.0
1668680884.2000592,68804,1668680884,199818886,,3.872419896062186,-8.972491422635313,3.72359470192121,5e-324,-0.8192298541796801,0.0
1668680884.2077522,68805,1668680884,207566414,,4.097502153719549,-9.080542279471985,3.5617756446665454,5e-324,-0.831470992343312,0.0
1668680884.2154806,68806,1668680884,215247198,,4.097502153719549,-9.080542279471985,3.5617756446665454,5e-324,-0.831470992343312,0.0
1668680884.2238588,68807,1668680884,223647323,,4.216089981620627,-9.137669516790202,3.476862510603037,5e-324,-0.8379607789119684,0.0
1668680884.2318175,68808,1668680884,231608421,,3.9967956991335747,-9.044383832881188,3.416800322425756,5e-324,-0.8272092395297517,0.0
1668680884.2398646,68809,1668680884,239643622,,3.880971467221854,-8.995205168183004,3.3844008722803034,5e-324,-0.8215178852674997,0.0
1668680884.2486415,68810,1668680884,248095091,,3.617156531297079,-8.980906256927465,3.505899793076908,5e-324,-0.8123365395366684,0.0
1668680884.255507,68811,1668680884,255296154,,3.617156531297079,-8.980906256927465,3.505899793076908,5e-324,-0.8123365395366684,0.0
1668680884.2639763,68812,1668680884,263774482,,3.6561745499789247,-9.023852601348826,3.6915513175860424,5e-324,-0.8038393266624718,0.0
1668680884.2716875,68813,1668680884,271484161,,3.67735949640177,-9.046044134416949,3.7903462308724674,5e-324,-0.7993315882149732,0.0
1668680884.2798262,68814,1668680884,279552570,,3.3710233868408666,-9.020900172735029,3.914505622875975,5e-324,-0.783490992575756,0.0
1668680884.287843,68815,1668680884,287620346,,3.1904134605517,-8.862079239417454,3.992194313838791,5e-324,-0.7469349067059832,0.0
1668680884.2964222,68816,1668680884,296215586,,3.0952175504988677,-8.778193177412792,4.032742551515938,5e-324,-0.7275864047763565,0.0
1668680884.3040752,68817,1668680884,303804821,,3.0952175504988677,-8.778193177412792,4.032742551515938,5e-324,-0.7275864047763565,0.0
1668680884.312073,68818,1668680884,311845448,,3.496092173152731,-8.71567133998407,4.027564101406226,5e-324,-0.7154684563252021,0.0
1668680884.319809,68819,1668680884,319558585,,3.708309300587493,-8.682741488571867,4.024416527749692,5e-324,-0.7090500425552047,0.0
1668680884.328049,68820,1668680884,327822516,,3.5526348017990435,-8.474002321327248,3.8893644513948713,5e-324,-0.685460953919161,0.0
1668680884.3355,68821,1668680884,335269322,,3.5526348017990435,-8.474002321327248,3.8893644513948713,5e-324,-0.685460953919161,0.0
1668680884.3439393,68822,1668680884,343718618,,3.56974198493433,-8.454262709260396,3.8518792639249693,5e-324,-0.6940301719938939,0.0
1668680884.3517463,68823,1668680884,351513422,,3.57820783970032,-8.443731171216196,3.8327768755165392,5e-324,-0.6985804419056791,0.0
1668680884.3599412,68824,1668680884,359639789,,3.7433054596062187,-8.296688398017881,3.861028985573772,5e-324,-0.6700343250187017,0.0
1668680884.3678386,68825,1668680884,367617988,,3.625312495666998,-8.295385444959141,3.921174792777422,5e-324,-0.6757050981522593,0.0
1668680884.3754363,68826,1668680884,375194105,,3.625312495666998,-8.295385444959141,3.921174792777422,5e-324,-0.6757050981522593,0.0
1668680884.3847811,68827,1668680884,384236813,,3.56323484106756,-8.294728749381482,3.9526206632941663,5e-324,-0.6787011540771448,0.0
1668680884.3921669,68828,1668680884,391908838,,3.3740349591937706,-8.326282718880519,4.121607643284392,5e-324,-0.6675118463196186,0.0
1668680884.3998766,68829,1668680884,399628734,,3.2739425155982,-8.343022266963548,4.210928448279818,5e-324,-0.6615843010282034,0.0
1668680884.408246,68830,1668680884,408002007,,3.565055065757737,-8.36611645351875,4.364479580407016,5e-324,-0.6526910847733083,0.0
1668680884.41579,68831,1668680884,415580853,,3.4189172029400403,-8.217326410190346,4.321564095415345,5e-324,-0.6300011108584576,0.0
1668680884.423523,68832,1668680884,423246871,,3.4189172029400403,-8.217326410190346,4.321564095415345,5e-324,-0.6300011108584576,0.0
1668680884.4316654,68833,1668680884,431465298,,3.3413800253241317,-8.138640573846455,4.298973827062872,5e-324,-0.6180013518851561,0.0
1668680884.439872,68834,1668680884,439667440,,3.3737196694728815,-8.007288404197146,4.219480896739569,5e-324,-0.6055896928177763,0.0
1668680884.4478118,68835,1668680884,447601506,,3.5550984837073716,-7.845410081353121,4.13611627317523,5e-324,-0.5872480371436566,0.0
1668680884.455864,68836,1668680884,455634901,,3.650828350077294,-7.75924588551757,4.093120002960764,5e-324,-0.577556586399993,0.0
1668680884.4640622,68837,1668680884,463827253,,3.650828350077294,-7.75924588551757,4.093120002960764,5e-324,-0.577556586399993,0.0
1668680884.4726124,68838,1668680884,472323575,,3.5385279830347205,-7.5706167973669265,3.894001494741353,5e-324,-0.55955337102837,0.0
1668680884.4804456,68839,1668680884,480198552,,3.479436367828588,-7.4703866372403045,3.7891169146255095,5e-324,-0.5500217021140983,0.0
1668680884.4887683,68840,1668680884,488492587,,3.622981060472177,-7.527147272772693,3.777024469718079,5e-324,-0.5509659437706693,0.0
1668680884.4966805,68841,1668680884,496404462,,3.663481739038289,-7.551175453610975,3.699482386026177,5e-324,-0.5445168822476507,0.0
1668680884.5039766,68842,1668680884,503745329,,3.663481739038289,-7.551175453610975,3.699482386026177,5e-324,-0.5445168822476507,0.0
1668680884.5126088,68843,1668680884,512364504,,3.685307800816852,-7.563945775879789,3.657943079097605,5e-324,-0.5410845760455959,0.0
1668680884.5205545,68844,1668680884,520274441,,3.53059055510702,-7.599833822540015,3.2606661129584866,5e-324,-0.5631309609975723,0.0
1668680884.5285633,68845,1668680884,528300960,,3.5420336647864,-7.518797414900532,2.8408857113918993,5e-324,-0.561153392064311,0.0
1668680884.5368948,68846,1668680884,536624374,,3.5481992347819116,-7.476084601348589,2.618234076985873,5e-324,-0.5601094351548136,0.0
1668680884.5442176,68847,1668680884,543856458,,3.5481992347819116,-7.476084601348589,2.618234076985873,5e-324,-0.5601094351548136,0.0
1668680884.5522413,68848,1668680884,552026680,,3.9929532877779685,-7.207775265501633,2.4274163758074945,5e-324,-0.533979507636723,0.0
1668680884.560159,68849,1668680884,559878201,,4.228298606290627,-7.065880570631642,2.326245594037633,5e-324,-0.5201622726512234,0.0
1668680884.5677178,68850,1668680884,567535976,,4.722512689525401,-7.0398265021189514,1.2307649203859068,5e-324,-0.5484992971076947,0.0
1668680884.5759068,68851,1668680884,575704245,,5.024398598578266,-6.908585840865347,0.9453470460450606,5e-324,-0.53476124167046,0.0
1668680884.5836074,68852,1668680884,583361644,,5.024398598578266,-6.908585840865347,0.9453470460450606,5e-324,-0.53476124167046,0.0
1668680884.5938265,68853,1668680884,592067552,,5.184154868492353,-6.839055474022647,0.7946493982538056,5e-324,-0.5274852859292045,0.0
1668680884.6005352,68854,1668680884,600270664,,5.2555805989831805,-6.831988883389084,0.42043136196939823,5e-324,-0.5380942994206894,0.0
1668680884.6099496,68855,1668680884,608109827,,5.312553969740701,-6.844764376123788,0.2224409035177881,5e-324,-0.5512910645012952,0.0
1668680884.615854,68856,1668680884,615664564,,5.34296123818001,-6.851306473198681,0.11768854570228611,5e-324,-0.558249542155223,0.0
1668680884.6233509,68857,1668680884,623161868,,5.34296123818001,-6.851306473198681,0.11768854570228611,5e-324,-0.558249542155223,0.0
1668680884.6320531,68858,1668680884,631826361,,5.540303875559308,-6.850232019739659,0.07277671430833378,5e-324,-0.5572835891339971,0.0
1668680884.6397707,68859,1668680884,639574750,,5.644362266680287,-6.8499922382239,0.04881412117430444,5e-324,-0.5568007567312538,0.0
1668680884.64774,68860,1668680884,647544225,,5.556378722858396,-6.821207469631908,0.025826468243416643,5e-324,-0.5549129096727434,0.0
1668680884.6557086,68861,1668680884,655480030,,5.556378722858396,-6.821207469631908,0.025826468243416643,5e-324,-0.5549129096727434,0.0
1668680884.6638951,68862,1668680884,663676143,,5.57833719773347,-6.83405023680635,0.013664211213523146,5e-324,-0.5553460483062858,0.0
1668680884.6716638,68863,1668680884,671429837,,5.589200079434066,-6.841477094120892,0.007229430920558238,5e-324,-0.55565657453281,0.0
1668680884.679908,68864,1668680884,679603761,,5.547396701340777,-6.758037219339961,0.003824931466471949,5e-324,-0.5327301845174213,0.0
1668680884.6882265,68865,1668680884,687642939,,5.352403710404246,-6.813500463860917,0.0020236863570552736,5e-324,-0.5360213955509114,0.0
1668680884.6959128,68866,1668680884,695704650,,5.249100403952351,-6.842947581427092,0.0010706875424121218,5e-324,-0.5377808541954153,0.0
1668680884.7039444,68867,1668680884,703685941,,5.249100403952351,-6.842947581427092,0.0010706875424121218,5e-324,-0.5377808541954153,0.0
1668680884.7118914,68868,1668680884,711640742,,5.2091625960927,-6.9409601419040445,0.37779742986676657,5e-324,-0.5323380829920207,0.0
1668680884.7198024,68869,1668680884,719592294,,5.014688076201228,-6.9548994126021855,0.2532268942120954,5e-324,-0.5183848346339412,0.0
1668680884.7278163,68870,1668680884,727605536,,4.911566401566443,-6.962402322566927,0.1875981660782043,5e-324,-0.5110168018329074,0.0
1668680884.735907,68871,1668680884,735631651,,4.81716946285051,-6.954804184166135,0.6517212777828734,5e-324,-0.4989450096338282,0.0
1668680884.7435439,68872,1668680884,743310643,,4.81716946285051,-6.954804184166135,0.6517212777828734,5e-324,-0.4989450096338282,0.0
1668680884.7519104,68873,1668680884,751624168,,4.767242839186042,-6.950797606646121,0.8971855159799753,5e-324,-0.49254270896280755,0.0
1668680884.759839,68874,1668680884,759633355,,4.959146420784055,-6.773012788242351,0.7853417678623416,5e-324,-0.48593527347148824,0.0
1668680884.7678125,68875,1668680884,767587101,,5.173298339408459,-6.665434422149621,0.41550690128171625,5e-324,-0.48990942921300495,0.0
1668680884.775612,68876,1668680884,775382732,,5.173298339408459,-6.665434422149621,0.41550690128171625,5e-324,-0.48990942921300495,0.0
1668680884.783672,68877,1668680884,783439410,,5.286772155312823,-6.608420819062758,0.2198354806502487,5e-324,-0.49199988582818976,0.0
1668680884.7919192,68878,1668680884,791639763,,5.384352158271657,-6.655654303879271,0.37032487443341133,5e-324,-0.49064597104165053,0.0
1668680884.8020084,68879,1668680884,799884064,,5.435832309231538,-6.680694286123477,0.45031724597401157,5e-324,-0.48996168957761177,0.0
1668680884.8078415,68880,1668680884,807634270,,5.24528730946572,-6.844084494763654,0.3082940708158333,5e-324,-0.49455409420441937,0.0
1668680884.8154912,68881,1668680884,815192923,,5.24528730946572,-6.844084494763654,0.3082940708158333,5e-324,-0.49455409420441937,0.0
1668680884.8241346,68882,1668680884,823918814,,4.937478363186655,-6.867765590806938,0.8175562149238774,5e-324,-0.46950651885482975,0.0
1668680884.8327503,68883,1668680884,832364524,,4.77491028457251,-6.879815159587137,1.0879081801200512,5e-324,-0.4562461563137553,0.0
1668680884.8401296,68884,1668680884,839814939,,4.753376716479156,-6.865642495817768,0.9144585383545061,5e-324,-0.45902253694124445,0.0
1668680884.8494518,68885,1668680884,848096049,,4.866154441467238,-6.928778069123709,0.4838197192243188,5e-324,-0.48035289196163455,0.0
1668680884.8565183,68886,1668680884,856269751,,4.925801936910966,-6.9621658875523895,0.2559782766439137,5e-324,-0.49163953951826733,0.0
1668680884.8635247,68887,1668680884,863321115,,4.925801936910966,-6.9621658875523895,0.2559782766439137,5e-324,-0.49163953951826733,0.0
1668680884.8719416,68888,1668680884,871719391,,5.07546791832422,-6.868758014090818,0.9332063072348689,5e-324,-0.4574886544240404,0.0
1668680884.879875,68889,1668680884,879709960,,5.154691042667354,-6.819408455379398,1.2912210272253006,5e-324,-0.43940689293041646,0.0
1668680884.887721,68890,1668680884,887532228,,4.951655937422302,-6.8690825328863525,0.932067477046703,5e-324,-0.4394387053749154,0.0
1668680884.8956237,68891,1668680884,895373618,,4.951655937422302,-6.8690825328863525,0.932067477046703,5e-324,-0.4394387053749154,0.0
1668680884.9039502,68892,1668680884,903715328,,4.7738206381596155,-6.881009165010018,1.209329411230232,5e-324,-0.42405007071969314,0.0
1668680884.9118845,68893,1668680884,911629534,,4.680067684054565,-6.8872358610237985,1.3555412255057582,5e-324,-0.41588469375033266,0.0
1668680884.9203053,68894,1668680884,919999804,,4.780805840965382,-6.767415637264195,1.109368746613806,5e-324,-0.3997586464600513,0.0
1668680884.9278314,68895,1668680884,927579934,,4.8330591292288485,-6.791092226028714,0.698080532635431,5e-324,-0.41438581875622904,0.0
1668680884.93621,68896,1668680884,935877566,,4.860927860073948,-6.803326681705647,0.481263775772715,5e-324,-0.4221088142145617,0.0
1668680884.9435904,68897,1668680884,943386652,,4.860927860073948,-6.803326681705647,0.481263775772715,5e-324,-0.4221088142145617,0.0
1668680884.9517348,68898,1668680884,951506518,,4.830665594025541,-6.624487229379628,1.2483252650328678,5e-324,-0.3740575194224291,0.0
1668680884.9599032,68899,1668680884,959651516,,4.814758758004954,-6.529693207127631,1.6543815399358612,5e-324,-0.34862264142803834,0.0
1668680884.9681623,68900,1668680884,967846143,,4.79882816862552,-6.466764982049293,1.8553131088772101,5e-324,-0.33189269844947356,0.0
1668680884.9756794,68901,1668680884,975472708,,4.9214011953924395,-6.409853509111585,1.6448651506328424,5e-324,-0.3426067606279668,0.0
1668680884.983805,68902,1668680884,983526938,,4.9214011953924395,-6.409853509111585,1.6448651506328424,5e-324,-0.3426067606279668,0.0
1668680884.9923098,68903,1668680884,991995121,,4.986328206794065,-6.379772143280906,1.5332405461760787,5e-324,-0.3482571800160775,0.0
1668680884.9997103,68904,1668680884,999509521,,5.020535902160173,-6.256363936386013,1.594169167223952,5e-324,-0.32393850448401307,0.0
1668680885.0077116,68905,1668680885,7498005,,4.829193176350301,-6.251496987590473,2.0486286546928993,5e-324,-0.3141054653071408,0.0
1668680885.0161526,68906,1668680885,15935104,,4.728088291701097,-6.24916512875615,2.288372385679841,5e-324,-0.3089038513813607,0.0
1668680885.0235207,68907,1668680885,23263702,,4.728088291701097,-6.24916512875615,2.288372385679841,5e-324,-0.3089038513813607,0.0
1668680885.0318534,68908,1668680885,31551150,,4.528312721398519,-6.369022558549938,2.291780373642977,5e-324,-0.3184736288888501,0.0
1668680885.0400438,68909,1668680885,39811930,,4.422541607160291,-6.432893751030376,2.2926615048571657,5e-324,-0.32353669793535744,0.0
1668680885.0479064,68910,1668680885,47683735,,4.318244190796329,-6.407487340270931,2.8627077209366387,5e-324,-0.3027977958091369,0.0
1668680885.0560539,68911,1668680885,55735184,,4.30348929102364,-6.604589215491465,2.7955691410870047,5e-324,-0.329312861127531,0.0
1668680885.0635834,68912,1668680885,63406347,,4.30348929102364,-6.604589215491465,2.7955691410870047,5e-324,-0.329312861127531,0.0
1668680885.0717273,68913,1668680885,71539631,,4.2955578254171485,-6.708679888307684,2.7606280812007755,5e-324,-0.34333958132795644,0.0
1668680885.0798554,68914,1668680885,79581568,,4.606773456723491,-6.755994921797624,2.236051602554823,5e-324,-0.3747287278493488,0.0
1668680885.0878453,68915,1668680885,87637709,,4.9748981985117275,-6.672349319277391,1.8520795966536316,5e-324,-0.37704744321497574,0.0
1668680885.095911,68916,1668680885,95672430,,4.9748981985117275,-6.672349319277391,1.8520795966536316,5e-324,-0.37704744321497574,0.0
1668680885.1037655,68917,1668680885,103557781,,5.169916331990263,-6.628040223860746,1.6484339043602132,5e-324,-0.3782612761217291,0.0
1668680885.1118062,68918,1668680885,111597355,,5.419386952710315,-6.612013782130197,1.196525695850247,5e-324,-0.39643610210064234,0.0
1668680885.1198847,68919,1668680885,119644271,,5.551374332613674,-6.603540776186813,0.9574109744874502,5e-324,-0.4060524369797721,0.0
1668680885.1282616,68920,1668680885,127974024,,5.755053666901718,-6.757048199917431,0.5065448999932968,5e-324,-0.4530876299566795,0.0
1668680885.136427,68921,1668680885,136069116,,6.038389132611449,-6.759297904995794,0.26800166547765264,5e-324,-0.46307072886181877,0.0
1668680885.1435056,68922,1668680885,143249642,,6.038389132611449,-6.759297904995794,0.26800166547765264,5e-324,-0.46307072886181877,0.0
1668680885.1516666,68923,1668680885,151439453,,6.188202563884278,-6.76055727965738,0.14179373378301924,5e-324,-0.46836662305874044,0.0
1668680885.160004,68924,1668680885,159743283,,6.1692800584067005,-6.814744868544045,0.07501991789601856,5e-324,-0.4709865950924474,0.0
1668680885.167889,68925,1668680885,167610113,,6.005082735105562,-7.093832884404241,0.03969137373685095,5e-324,-0.5026864110205345,0.0
1668680885.1755314,68926,1668680885,175335057,,6.005082735105562,-7.093832884404241,0.03969137373685095,5e-324,-0.5026864110205345,0.0
1668680885.1838212,68927,1668680885,183554298,,5.918520133631078,-7.241293093930517,0.02099982502382865,5e-324,-0.5194282166760096,0.0
1668680885.1922297,68928,1668680885,192016438,,5.3810221598074115,-6.876825383772578,2.050906282341913,5e-324,-0.4048937962535464,0.0
1668680885.1998622,68929,1668680885,199635464,,5.340631752661505,-6.993812849746522,2.0222726011975336,5e-324,-0.4201987397306977,0.0
1668680885.2077947,68930,1668680885,207620660,,5.319062040159547,-7.055754442224086,2.0074189494698063,5e-324,-0.42830452213639014,0.0
1668680885.2155657,68931,1668680885,215337818,,5.319062040159547,-7.055754442224086,2.0074189494698063,5e-324,-0.42830452213639014,0.0
1668680885.2239048,68932,1668680885,223664334,,5.752282702808312,-7.0768588930111775,1.1906131133913829,5e-324,-0.45891324909547476,0.0
1668680885.2318518,68933,1668680885,231592662,,5.981191614761061,-7.08817821174801,0.7591800910579654,5e-324,-0.4751470406648889,0.0
1668680885.2398093,68934,1668680885,239605078,,6.1681868456752555,-6.931689027993582,0.5980768370862377,5e-324,-0.44637710411968246,0.0
1668680885.2478867,68935,1668680885,247595789,,6.067364336887912,-6.8206383015859515,0.7117464380250531,5e-324,-0.42359237819633844,0.0
1668680885.256244,68936,1668680885,255957350,,6.067364336887912,-6.8206383015859515,0.7117464380250531,5e-324,-0.42359237819633844,0.0
1668680885.2640676,68937,1668680885,263833146,,6.0139733341402,-6.7619851806773825,0.7716440738717574,5e-324,-0.41156333753105745,0.0
1668680885.2722604,68938,1668680885,271682229,,6.02282773649682,-6.784075297394041,0.6725670046310013,5e-324,-0.41471498285649927,0.0
1668680885.2803385,68939,1668680885,280127450,,6.03927333193414,-6.707612852935251,0.6129869504787873,5e-324,-0.39928464636344563,0.0
1668680885.2890294,68940,1668680885,288368967,,6.0480653716269615,-6.66703001875234,0.5816810712053873,5e-324,-0.39110689848129315,0.0
1668680885.2954202,68941,1668680885,295216284,,6.0480653716269615,-6.66703001875234,0.5816810712053873,5e-324,-0.39110689848129315,0.0
1668680885.3038862,68942,1668680885,303661040,,6.011946005923127,-6.766028408512992,0.43101875068420414,5e-324,-0.42081302419927713,0.0
1668680885.311997,68943,1668680885,311693492,,5.993005970720836,-6.818136266916859,0.3520528689007588,5e-324,-0.4365237055664912,0.0
1668680885.3198526,68944,1668680885,319617470,,6.334394017710004,-6.878094944205104,0.18626336027238183,0.002050155571700392,-0.4565664228493037,0.0
1668680885.3277848,68945,1668680885,327581328,,6.604782828599225,-7.002736922400562,0.09854781041349533,0.015873432423924777,-0.4798362447959109,0.0
1668680885.3354452,68946,1668680885,335262661,,6.604782828599225,-7.002736922400562,0.09854781041349533,0.015873432423924777,-0.4798362447959109,0.0
1668680885.3437824,68947,1668680885,343566902,,6.7476594260140725,-7.068871862404597,0.052139459543156415,0.023146337758821522,-0.4921725340758825,0.0
1668680885.3521786,68948,1668680885,351919468,,6.609700289278052,-7.045946154277811,0.02758583097935745,0.012246213650862016,-0.4845266080249969,0.0
1668680885.3599677,68949,1668680885,359736694,,6.552677448815931,-7.063655687638985,0.014595050993802636,0.006479199877976497,-0.48524413062427607,0.0
1668680885.3677256,68950,1668680885,367527323,,6.5222318126140735,-7.073291457940186,0.0077219175913569305,0.0034280008707683832,-0.48565282579099966,0.0
1668680885.3759956,68951,1668680885,375731807,,6.5222318126140735,-7.073291457940186,0.0077219175913569305,0.0034280008707683832,-0.48565282579099966,0.0
1668680885.3839018,68952,1668680885,383674700,,6.383921749322856,-6.853926248599327,0.004085495234859194,0.0018136791874460243,-0.45027990926241634,0.0
1668680885.3916492,68953,1668680885,391478078,,6.310663732203585,-6.737976219584137,0.002161544864547579,0.0009595774093947496,-0.4315735290695666,0.0
1668680885.3998277,68954,1668680885,399576552,,6.2192167547248225,-6.5390565776506655,0.001143625419407212,0.0005076911126258055,-0.39975547230427705,0.0
1668680885.4076679,68955,1668680885,407470300,,6.406721374246473,-6.436466882389433,0.007795449299797401,0.005392374501303429,-0.3785773009875373,0.0
1668680885.4164917,68956,1668680885,415728348,,6.406721374246473,-6.436466882389433,0.007795449299797401,0.005392374501303429,-0.3785773009875373,0.0
1668680885.4246836,68957,1668680885,424358764,,6.505844150868681,-6.382283213861305,0.011248428143045847,0.00797484812412796,-0.3673708627369206,0.0
1668680885.431698,68958,1668680885,431481619,,6.1228434969295895,-5.946888169995982,0.5349661740781307,0.004219315166781681,-0.28849627829461044,0.0
1668680885.4399612,68959,1668680885,439719831,,5.89309249133625,-5.642916004410202,0.9054751446750531,0.002232346020831666,-0.2360892527140273,0.0
1668680885.4481034,68960,1668680885,447891839,,5.771390750159618,-5.482399254267797,1.101082705312458,0.001181084739996818,-0.20840262597589856,0.0
1668680885.455567,68961,1668680885,455339517,,5.771390750159618,-5.482399254267797,1.101082705312458,0.001181084739996818,-0.20840262597589856,0.0
1668680885.4637918,68962,1668680885,463548882,,5.601634462959362,-5.483832129159147,1.4904806679266827,0.0006248857256159844,-0.18263098785991694,0.0
1668680885.4719615,68963,1668680885,471690579,,5.511945246027289,-5.484574065038815,1.6962644300456855,0.0003306131701266985,-0.16899881635717906,0.0
1668680885.479827,68964,1668680885,479587500,,5.305670494815421,-5.35007862882402,1.9121424411706305,0.00017492009143508152,-0.14231868116406948,0.0
1668680885.4876437,68965,1668680885,487438367,,5.209229762642256,-5.242552825608452,2.048762079871995,9.25463385984648e-05,-0.11454662276740962,0.0
1668680885.4956589,68966,1668680885,495329212,,5.209229762642256,-5.242552825608452,2.048762079871995,9.25463385984648e-05,-0.11454662276740962,0.0
1668680885.503726,68967,1668680885,503514708,,5.157821560462953,-5.1859161110589564,2.121291862352373,4.8964213988879467e-05,-0.099856616360537,0.0
1668680885.5119185,68968,1668680885,511738950,,5.367943870823258,-5.175915865138331,2.01690857019437,2.5905879020788734e-05,-0.09420915219157888,0.0
1668680885.519843,68969,1668680885,519544644,,5.331009030177526,-5.037519284176688,2.1293033804794836,1.3706225693568009e-05,-0.07400490362043496,0.0
1668680885.5280154,68970,1668680885,527795921,,5.311783943705549,-4.964301257611233,2.1881495314243145,7.251659849575882e-06,-0.06325757705479779,0.0
1668680885.5355625,68971,1668680885,535309547,,5.311783943705549,-4.964301257611233,2.1881495314243145,7.251659849575882e-06,-0.06325757705479779,0.0
1668680885.5439148,68972,1668680885,543709743,,5.5337710349929985,-4.516228110567378,2.5302187971194106,3.836692299516743e-06,-0.033468180224479796,0.0
1668680885.551769,68973,1668680885,551573371,,5.650925904360167,-4.279464644761365,2.7113218632403355,2.0299087528260158e-06,-0.017707271439877333,0.0
