Time,header.seq,header.stamp.secs,header.stamp.nsecs,header.frame_id,pose.position.x,pose.position.y,pose.position.z,pose.orientation.x,pose.orientation.y,pose.orientation.z,pose.orientation.w
1668680672.840116,42384,1668680672,839593787,,-0.09879822180007684,-0.6160097984799553,0.07819229671913487,0.9955612194603667,0.0935231636708494,-0.0043474312788613426,0.009611243668683035
1668680672.8484392,42385,1668680672,848289193,,-0.09879829540530011,-0.6160097984731374,0.07819229671898968,0.995561219450728,0.09352316368441606,-0.004347432137015554,0.009611244146908551
1668680672.855778,42386,1668680672,855612516,,-0.09879836296790659,-0.6160097984665023,0.07819229671884781,0.995561219440684,0.0935231636980772,-0.0043474330092553365,0.009611244659824993
1668680672.8633518,42387,1668680672,863224822,,-0.09879842483207135,-0.6160097984600476,0.0781922967187091,0.9955612194302392,0.09352316371182995,-0.0043474338953573295,0.009611245207091558
1668680672.8717058,42388,1668680672,871556842,,-0.09879848132601501,-0.616009798453772,0.07819229671857375,0.9955612194193982,0.09352316372567195,-0.00434743479509803,0.009611245788365638
1668680672.8796744,42389,1668680672,879517270,,-0.09879853276261802,-0.616009798447674,0.07819229671844155,0.9955612194081656,0.09352316373960075,-0.0043474357082539505,0.00961124640330269
1668680672.887576,42390,1668680672,887460033,,-0.09879857944001506,-0.6160097984417511,0.07819229671831264,0.9955612193965456,0.09352316375361393,-0.004347436634601967,0.009611247051557276
1668680672.8964896,42391,1668680672,896315956,,-0.09879862164217217,-0.616009798436001,0.07819229671818678,0.9955612193845431,0.09352316376770907,-0.004347437573918654,0.009611247732781578
1668680672.9038079,42392,1668680672,903630361,,-0.09879865963944617,-0.6160097984304216,0.07819229671806437,0.9955612193721625,0.0935231637818836,-0.004347438525980891,0.009611248446627108
1668680672.9120274,42393,1668680672,911866890,,-0.09879869368912622,-0.6160097984250101,0.07819229671794498,0.9955612193594084,0.09352316379613523,-0.004347439490565623,0.00961124919274333
1668680672.9208705,42394,1668680672,920749490,,-0.09879872403596002,-0.6160097984197639,0.07819229671782878,0.9955612193462855,0.09352316381046111,-0.0043474404674501135,0.009611249970778795
1668680672.9275236,42395,1668680672,927413630,,-0.0987987509126603,-0.6160097984146804,0.07819229671771577,0.9955612193327984,0.09352316382485926,-0.004347441456411738,0.009611250780380609
1668680672.9356308,42396,1668680672,935507228,,-0.0987987745403978,-0.6160097984097566,0.07819229671760584,0.9955612193189516,0.09352316383932711,-0.004347442457227922,0.009611251621194616
1668680672.9433565,42397,1668680672,943259667,,-0.09879879512927653,-0.6160097984049895,0.07819229671749899,0.9955612193047497,0.09352316385386236,-0.00434744346967656,0.009611252492865466
1668680672.951775,42398,1668680672,951653275,,-0.0987988128787942,-0.6160097984003763,0.07819229671739525,0.9955612192901975,0.09352316386846249,-0.004347444493535614,0.009611253395036583
1668680672.9597085,42399,1668680672,959606563,,-0.09879882797828665,-0.6160097983959136,0.0781922967172944,0.9955612192752995,0.09352316388312501,-0.004347445528583669,0.009611254327350731
1668680672.9679582,42400,1668680672,967760976,,-0.09879884060735632,-0.6160097983915989,0.07819229671719656,0.9955612192600606,0.09352316389784773,-0.004347446574599481,0.009611255289449247
1668680672.9755573,42401,1668680672,975350693,,-0.09879885093628824,-0.6160097983874281,0.07819229671710168,0.995561219244485,0.09352316391262835,-0.004347447631361923,0.009611256280972499
1668680672.9837801,42402,1668680672,983600127,,-0.09879885912644995,-0.6160097983833986,0.07819229671700952,0.9955612192285779,0.09352316392746415,-0.004347448698650509,0.009611257301559992
1668680672.9917028,42403,1668680672,991570734,,-0.09879886533067729,-0.616009798379507,0.07819229671692011,0.9955612192123435,0.0935231639423534,-0.0043474497762450645,0.009611258350850645
1668680672.9996998,42404,1668680672,999545709,,-0.09879886969364816,-0.6160097983757502,0.07819229671683356,0.9955612191957868,0.09352316395729303,-0.004347450863925977,0.009611259428482325
1668680673.0078764,42405,1668680673,7660386,,-0.09879887235224032,-0.6160097983721251,0.07819229671674972,0.9955612191789124,0.09352316397228107,-0.004347451961473872,0.009611260534092052
1668680673.0159388,42406,1668680673,15789692,,-0.09879887343587859,-0.6160097983686278,0.07819229671666861,0.9955612191617248,0.0935231639873156,-0.004347453068670033,0.009611261667316434
1668680673.0237436,42407,1668680673,23600390,,-0.09879887306686853,-0.6160097983652558,0.07819229671658985,0.9955612191442289,0.09352316400239374,-0.004347454185296059,0.00961126282779107
1668680673.0320358,42408,1668680673,31845427,,-0.09879887136071684,-0.6160097983620054,0.07819229671651393,0.9955612191264291,0.0935231640175137,-0.0043474553111342564,0.009611264015151366
1668680673.0399036,42409,1668680673,39747974,,-0.09879886842644195,-0.616009798358874,0.07819229671644032,0.9955612191083305,0.09352316403267275,-0.004347456445967498,0.009611265229031997
1668680673.048841,42410,1668680673,48607146,,-0.09879886436687044,-0.6160097983558573,0.07819229671636915,0.9955612190899377,0.09352316404786888,-0.004347457589579068,0.009611266469066963
1668680673.0556715,42411,1668680673,55470409,,-0.09879885927892407,-0.6160097983529532,0.07819229671630029,0.9955612190712552,0.09352316406309999,-0.004347458741752865,0.009611267734889945
1668680673.064084,42412,1668680673,63887374,,-0.09879885325389501,-0.6160097983501582,0.07819229671623393,0.9955612190522876,0.09352316407836368,-0.004347459902273556,0.009611269026134446
1668680673.0723908,42413,1668680673,72227985,,-0.09879884637771101,-0.6160097983474688,0.07819229671616999,0.9955612190330398,0.09352316409365756,-0.004347461070926301,0.009611270342433371
1668680673.0797222,42414,1668680673,79533452,,-0.09879883873118867,-0.6160097983448828,0.07819229671610807,0.9955612190135166,0.0935231641089798,-0.004347462247496981,0.009611271683419388
1668680673.087622,42415,1668680673,87520463,,-0.09879883039027894,-0.6160097983423966,0.07819229671604822,0.9955612189937223,0.0935231641243282,-0.004347463431772164,0.00961127304872476
1668680673.0961921,42416,1668680673,95989138,,-0.09879882142630146,-0.6160097983400068,0.07819229671599055,0.9955612189736619,0.09352316413970031,-0.004347464623539029,0.009611274437981883
1668680673.1034074,42417,1668680673,103212741,,-0.09879881190616943,-0.6160097983377112,0.07819229671593497,0.99556121895334,0.09352316415509392,-0.004347465822585671,0.009611275850822904
1668680673.111653,42418,1668680673,111509728,,-0.09879880189260627,-0.6160097983355066,0.07819229671588136,0.9955612189327613,0.09352316417050739,-0.00434746702870099,0.009611277286879888
1668680673.1196404,42419,1668680673,119468851,,-0.09879879144435269,-0.6160097983333901,0.0781922967158297,0.9955612189119304,0.09352316418593812,-0.004347468241674223,0.009611278745784558
1668680673.127713,42420,1668680673,127584574,,-0.09879878061636564,-0.6160097983313593,0.07819229671577999,0.9955612188908519,0.09352316420138407,-0.004347469461295874,0.009611280227169079
1668680673.1357741,42421,1668680673,135634138,,-0.09879876946000851,-0.6160097983294112,0.07819229671573213,0.9955612188695308,0.09352316421684319,-0.004347470687356944,0.00961128173066516
1668680673.1435356,42422,1668680673,143385362,,-0.09879875802323425,-0.6160097983275428,0.07819229671568614,0.9955612188479713,0.09352316423231358,-0.004347471919649553,0.009611283255905195
1668680673.1516755,42423,1668680673,151525928,,-0.09879874635075994,-0.6160097983257515,0.07819229671564185,0.9955612188261784,0.09352316424779278,-0.004347473157966383,0.009611284802521106
1668680673.1598043,42424,1668680673,159673673,,-0.09879873448423457,-0.6160097983240354,0.0781922967155991,0.9955612188041566,0.09352316426327895,-0.004347474402101174,0.009611286370145529
1668680673.1675775,42425,1668680673,167427359,,-0.09879872246239858,-0.6160097983223916,0.07819229671555815,0.9955612187819105,0.09352316427877022,-0.004347475651848423,0.009611287958410783
1668680673.175516,42426,1668680673,175393407,,-0.0987987103212383,-0.6160097983208174,0.07819229671551858,0.9955612187594449,0.0935231642942643,-0.004347476907003741,0.009611289566949984
1668680673.1838477,42427,1668680673,183733094,,-0.09879869809413186,-0.6160097983193106,0.07819229671548085,0.9955612187367643,0.09352316430975928,-0.004347478167363549,0.009611291195396474
1668680673.1917827,42428,1668680673,191667708,,-0.09879868581198907,-0.616009798317869,0.07819229671544446,0.9955612187138732,0.09352316432525341,-0.004347479432725142,0.009611292843383563
1668680673.200167,42429,1668680673,199995186,,-0.098798673503387,-0.6160097983164898,0.07819229671540939,0.9955612186907764,0.09352316434074436,-0.004347480702886764,0.009611294510545222
1668680673.2082336,42430,1668680673,208100167,,-0.09879866119469607,-0.6160097983151712,0.078192296715376,0.9955612186674783,0.09352316435623019,-0.004347481977647967,0.009611296196516139
1668680673.2158597,42431,1668680673,215637990,,-0.09879864891020379,-0.6160097983139108,0.07819229671534378,0.9955612186439836,0.09352316437170916,-0.004347483256808952,0.009611297900931003
1668680673.2234964,42432,1668680673,223399703,,-0.09879863667223047,-0.6160097983127067,0.07819229671531272,0.9955612186202969,0.09352316438717923,-0.00434748454017099,0.009611299623425355
1668680673.2317948,42433,1668680673,231597011,,-0.09879862450124127,-0.6160097983115568,0.07819229671528323,0.9955612185964225,0.09352316440263869,-0.004347485827536651,0.00961130136363529
1668680673.239687,42434,1668680673,239552139,,-0.09879861241595246,-0.6160097983104589,0.07819229671525495,0.9955612185723652,0.09352316441808527,-0.004347487118709297,0.00961130312119756
1668680673.2476602,42435,1668680673,247550369,,-0.0987986004334318,-0.6160097983094116,0.0781922967152278,0.9955612185481296,0.09352316443351744,-0.00434748841349342,0.00961130489574924
1668680673.2555687,42436,1668680673,255417238,,-0.09879858856919618,-0.6160097983084121,0.07819229671520166,0.9955612185237201,0.09352316444893324,-0.004347489711694668,0.009611306686928391
1668680673.2638643,42437,1668680673,263673529,,-0.09879857683730321,-0.6160097983074591,0.07819229671517665,0.9955612184991411,0.09352316446433072,-0.004347491013119791,0.00961130849437405
1668680673.2719533,42438,1668680673,271751378,,-0.09879856525043806,-0.6160097983065506,0.07819229671515261,0.9955612184743973,0.09352316447970825,-0.004347492317576449,0.009611310317725249
1668680673.2797265,42439,1668680673,279559822,,-0.09879855381999822,-0.6160097983056855,0.07819229671512971,0.9955612184494929,0.0935231644950639,-0.004347493624873884,0.009611312156623
1668680673.287744,42440,1668680673,287632974,,-0.0987985425561717,-0.616009798304861,0.07819229671510797,0.9955612184244326,0.09352316451039577,-0.004347494934821992,0.009611314010708314
1668680673.2954965,42441,1668680673,295353934,,-0.09879853146801318,-0.6160097983040768,0.07819229671508715,0.9955612183992207,0.09352316452570207,-0.004347496247232212,0.009611315879623385
1668680673.3037977,42442,1668680673,303647943,,-0.09879852056351479,-0.61600979830333,0.0781922967150672,0.9955612183738618,0.09352316454098125,-0.0043474975619168564,0.009611317763011041
1668680673.3116972,42443,1668680673,311594731,,-0.09879850984967531,-0.6160097983026199,0.07819229671504802,0.9955612183483602,0.09352316455623128,-0.004347498878689659,0.009611319660515321
1668680673.3200178,42444,1668680673,319847919,,-0.09879849933256427,-0.616009798301945,0.07819229671502982,0.9955612183227203,0.09352316457145073,-0.0043475001973655395,0.009611321571781895
1668680673.3276205,42445,1668680673,327518083,,-0.09879848901738367,-0.6160097983013033,0.07819229671501252,0.9955612182969464,0.09352316458663792,-0.004347501517760671,0.009611323496456338
1668680673.33598,42446,1668680673,335800539,,-0.09879847890852629,-0.6160097983006941,0.07819229671499611,0.995561218271043,0.09352316460179101,-0.004347502839692301,0.009611325434186082
1668680673.3434315,42447,1668680673,343314710,,-0.09879846900963034,-0.6160097983001155,0.07819229671498021,0.9955612182450144,0.09352316461690852,-0.0043475041629790455,0.009611327384619596
1668680673.3520794,42448,1668680673,351858035,,-0.0987984593236328,-0.6160097982995667,0.07819229671496519,0.9955612182188649,0.0935231646319885,-0.004347505487440714,0.009611329347406182
1668680673.3597472,42449,1668680673,359611994,,-0.09879844985281844,-0.616009798299046,0.0781922967149508,0.9955612181925989,0.09352316464702944,-0.004347506812898537,0.00961133132219676
1668680673.3677795,42450,1668680673,367658657,,-0.09879844059886715,-0.6160097982985524,0.07819229671493716,0.9955612181662205,0.09352316466202966,-0.004347508139174922,0.00961133330864324
1668680673.3755505,42451,1668680673,375378329,,-0.0987984315628981,-0.6160097982980847,0.07819229671492417,0.9955612181397341,0.09352316467698776,-0.004347509466093581,0.009611335306398693
1668680673.3838599,42452,1668680673,383711032,,-0.09879842274551227,-0.6160097982976419,0.07819229671491168,0.9955612181131439,0.0935231646919022,-0.004347510793479542,0.009611337315117749
1668680673.3918114,42453,1668680673,391648953,,-0.09879841414683213,-0.6160097982972228,0.07819229671489972,0.9955612180864543,0.09352316470677098,-0.004347512121159345,0.009611339334456412
1668680673.4005334,42454,1668680673,400416404,,-0.0987984057665386,-0.6160097982968261,0.07819229671488846,0.9955612180596692,0.09352316472159282,-0.004347513448960568,0.009611341364071819
1668680673.4076715,42455,1668680673,407552480,,-0.09879839760390706,-0.6160097982964513,0.07819229671487801,0.995561218032793,0.09352316473636639,-0.0043475147767124255,0.009611343403622704
1668680673.4155369,42456,1668680673,415435280,,-0.09879838965784121,-0.6160097982960971,0.07819229671486783,0.9955612180058299,0.09352316475108985,-0.004347516104245251,0.009611345452769197
1668680673.4233797,42457,1668680673,423277685,,-0.0987983819269036,-0.6160097982957625,0.07819229671485821,0.9955612179787837,0.09352316476576213,-0.004347517431390877,0.009611347511172635
1668680673.4314654,42458,1668680673,431367368,,-0.09879837440934658,-0.6160097982954471,0.07819229671484902,0.995561217951659,0.09352316478038145,-0.0043475187579825264,0.009611349578496216
1668680673.4398084,42459,1668680673,439679085,,-0.0987983671031392,-0.6160097982951493,0.07819229671484045,0.9955612179244595,0.0935231647949464,-0.004347520083854727,0.009611351654404528
1668680673.4477909,42460,1668680673,447604085,,-0.09879836000599439,-0.6160097982948688,0.07819229671483235,0.9955612178971895,0.09352316480945543,-0.004347521408843581,0.009611353738563692
1668680673.4554498,42461,1668680673,455336763,,-0.09879835311539312,-0.6160097982946048,0.07819229671482446,0.9955612178698531,0.09352316482390739,-0.004347522732786405,0.009611355830641533
1668680673.4636939,42462,1668680673,463574140,,-0.0987983464286084,-0.6160097982943561,0.07819229671481724,0.9955612178424541,0.09352316483830052,-0.004347524055522048,0.009611357930307447
1668680673.4717553,42463,1668680673,471579297,,-0.09879833994272605,-0.6160097982941224,0.07819229671481037,0.9955612178149966,0.09352316485263387,-0.0043475253768908316,0.00961136003723242
1668680673.479764,42464,1668680673,479623917,,-0.0987983336546662,-0.616009798293903,0.07819229671480397,0.9955612177874846,0.09352316486690578,-0.004347526696734483,0.009611362151089113
1668680673.4877477,42465,1668680673,487583056,,-0.09879832756120216,-0.6160097982936968,0.07819229671479777,0.9955612177599221,0.09352316488111513,-0.00434752801489605,0.00961136427155198
1668680673.4958453,42466,1668680673,495466734,,-0.09879832165897828,-0.6160097982935033,0.07819229671479189,0.9955612177323129,0.0935231648952604,-0.004347529331220243,0.009611366398297043
1668680673.5038416,42467,1668680673,503718564,,-0.09879831594452672,-0.6160097982933224,0.07819229671478632,0.9955612177046612,0.09352316490934043,-0.004347530645553217,0.009611368531002463
1668680673.512709,42468,1668680673,512418102,,-0.09879831041428311,-0.6160097982931526,0.0781922967147814,0.9955612176769704,0.09352316492335387,-0.004347531957742387,0.009611370669347787
1668680673.5204089,42469,1668680673,520044512,,-0.0987983050646018,-0.616009798292994,0.0781922967147764,0.9955612176492447,0.09352316493729944,-0.0043475332676368595,0.009611372813014529
1668680673.5275736,42470,1668680673,527458980,,-0.09879829989176879,-0.6160097982928457,0.07819229671477194,0.9955612176214879,0.09352316495117582,-0.004347534575087169,0.009611374961686096
1668680673.535444,42471,1668680673,535253513,,-0.09879829489201437,-0.6160097982927074,0.0781922967147675,0.9955612175937038,0.09352316496498203,-0.004347535879945428,0.009611377115047793
1668680673.5437963,42472,1668680673,543633323,,-0.0987982900615257,-0.6160097982925783,0.07819229671476341,0.9955612175658959,0.09352316497871659,-0.004347537182065144,0.009611379272786772
1668680673.5515864,42473,1668680673,551450737,,-0.09879828539645702,-0.6160097982924579,0.07819229671475957,0.9955612175380683,0.09352316499237856,-0.004347538481301376,0.009611381434591894
1668680673.559722,42474,1668680673,559596732,,-0.09879828089293609,-0.616009798292334,0.07819218837502344,0.9955612175102244,0.09352316500596661,-0.004347539777510781,0.009611383600154663
1668680673.5676303,42475,1668680673,567530774,,-0.0987982765470561,-0.6160097982921319,0.07819187750661014,0.9955612174823683,0.09352316501947952,-0.0043475410705513095,0.009611385769167672
1668680673.575625,42476,1668680673,575412530,,-0.09879827235489964,-0.6160097982917586,0.07819138882683978,0.9955612174545033,0.09352316503291638,-0.004347542360282747,0.009611387941325877
1668680673.5836427,42477,1668680673,583548891,,-0.0987982683125665,-0.6160097982911618,0.07819074007403352,0.9955612174266333,0.09352316504627593,-0.004347543646566191,0.009611390116326479
1668680673.5917578,42478,1668680673,591617397,,-0.09879826441620189,-0.616009798290386,0.0781899923802783,0.9955612173987617,0.09352316505955696,-0.0043475449292643435,0.009611392293868386
1668680673.5996282,42479,1668680673,599537462,,-0.09879826066201777,-0.6160097982896185,0.0781892272173227,0.9955612173708921,0.09352316507275867,-0.004347546208241553,0.009611394473652989
1668680673.6083221,42480,1668680673,608165375,,-0.09879825704622215,-0.6160097982889642,0.07818848566322488,0.9955612173430282,0.09352316508587968,-0.004347547483363569,0.009611396655383119
1668680673.6154926,42481,1668680673,615357640,,-0.09879825356502955,-0.6160097982884637,0.0781877875199874,0.9955612173151734,0.09352316509891924,-0.004347548754497733,0.009611398838764074
1668680673.623686,42482,1668680673,623590623,,-0.09879825021467495,-0.6160097982881164,0.07818713772575035,0.9955612172873312,0.09352316511187611,-0.004347550021513158,0.009611401023503555
1668680673.6317184,42483,1668680673,631556988,,-0.09879824699142696,-0.6160097982879029,0.07818653744087216,0.9955612172595051,0.09352316512474937,-0.00434755128428026,0.009611403209310978
1668680673.6400034,42484,1668680673,639675600,,-0.09879824389159979,-0.6160097982878118,0.07818598959331526,0.9955612172316985,0.09352316513753801,-0.004347552542670974,0.009611405395898187
1668680673.6476,42485,1668680673,647487586,,-0.09879824091155351,-0.6160097982878259,0.07818549411283796,0.9955612172039149,0.09352316515024134,-0.004347553796559096,0.009611407582978918
1668680673.6558442,42486,1668680673,655631835,,-0.09879823804769865,-0.6160097982879256,0.07818504942229353,0.9955612171761575,0.093523165162858,-0.00434755504581988,0.00961140977026924
1668680673.6635823,42487,1668680673,663437707,,-0.0987982352964998,-0.616009798288093,0.07818465322341045,0.9955612171484299,0.09352316517538721,-0.004347556290330177,0.009611411957487862
1668680673.6716373,42488,1668680673,671540765,,-0.09879823265447905,-0.6160097982883119,0.07818430275605975,0.9955612171207352,0.09352316518782794,-0.004347557529968328,0.00961141414435528
1668680673.6796288,42489,1668680673,679471734,,-0.09879823011821787,-0.6160097982885682,0.07818399525150391,0.9955612170930767,0.09352316520017957,-0.004347558764614217,0.009611416330594202
1668680673.6876907,42490,1668680673,687558475,,-0.09879822768436004,-0.61600979828885,0.0781837281561533,0.9955612170654577,0.09352316521244115,-0.004347559994149577,0.009611418515929993
1668680673.695304,42491,1668680673,695206023,,-0.09879822534961283,-0.6160097982891477,0.07818349892805791,0.9955612170378815,0.09352316522461199,-0.004347561218457555,0.009611420700089912
1668680673.7038977,42492,1668680673,703781936,,-0.09879822184916585,-0.6160097997757202,0.07818330507028926,0.995561217010351,0.09352316523669069,-0.0043475624374229175,0.009611422882803686
1668680673.7119021,42493,1668680673,711804093,,-0.09879821223572248,-0.6160098085732336,0.07818314419322386,0.9955612169828698,0.09352316524867704,-0.004347563650932028,0.00961142506380374
1668680673.7197745,42494,1668680673,719627459,,-0.09879818691874621,-0.6160098359766201,0.0781830140430071,0.9955612169554406,0.09352316526056986,-0.0043475648588726795,0.009611427242824168
1668680673.7277186,42495,1668680673,727615604,,-0.09879813205046158,-0.6160098982963288,0.0781829124669033,0.9955612169280669,0.09352316527236848,-0.004347566061134542,0.009611429419602045
1668680673.7356615,42496,1668680673,735508896,,-0.09879802988985403,-0.6160100164294877,0.0781828374172523,0.9955612169007514,0.09352316528407233,-0.004347567257608533,0.009611431593876578
1668680673.7436554,42497,1668680673,743485320,,-0.09879785914568888,-0.6160102154557788,0.07818278694949782,0.9955612168734973,0.09352316529568033,-0.0043475684481876905,0.00961143376539017
1668680673.7516274,42498,1668680673,751489623,,-0.09879759529952803,-0.6160105242568701,0.0781827592226437,0.9955612168463076,0.09352316530719189,-0.0043475696327663375,0.009611435933887082
1668680673.7597475,42499,1668680673,759645063,,-0.09879721090968914,-0.6160109751582947,0.07818275249722263,0.9955612168191853,0.0935231653186062,-0.004347570811240956,0.009611438099115232
1668680673.767834,42500,1668680673,767730867,,-0.09879667589705267,-0.6160116035927067,0.07818276512847211,0.9955612167921332,0.09352316532992287,-0.004347571983509525,0.009611440260824989
1668680673.7753694,42501,1668680673,775213262,,-0.0987959578135874,-0.616012447783491,0.07818279556269035,0.9955612167651541,0.09352316534114101,-0.004347573149472429,0.009611442418770953
1668680673.7839658,42502,1668680673,783779853,,-0.09879502209443229,-0.6160135484477438,0.078182842333272,0.9955612167382512,0.09352316535225996,-0.004347574309032162,0.009611444572710631
1668680673.791787,42503,1668680673,791595866,,-0.09879383229433282,-0.6160149485176751,0.0781829040570808,0.9955612167114268,0.09352316536327915,-0.00434757546209334,0.009611446722406127
1668680673.8001006,42504,1668680673,799945799,,-0.09879235030920676,-0.6160166928795318,0.07818297943076542,0.9955612166846839,0.09352316537419793,-0.004347576608563306,0.009611448867623986
1668680673.8085847,42505,1668680673,808362449,,-0.09879053658357566,-0.6160188281291684,0.07818306722683535,0.9955612166580251,0.09352316538501544,-0.004347577748351759,0.009611451008135095
1668680673.8158832,42506,1668680673,815733724,,-0.09878835030456916,-0.6160214023434342,0.07818316629011915,0.9955612166314531,0.0935231653957314,-0.004347578881371472,0.00961145314371604
1668680673.8234258,42507,1668680673,823322866,,-0.09878574958318301,-0.6160244648665746,0.0781832755343365,0.9955612166049703,0.09352316540634492,-0.004347580007538029,0.009611455274148497
1668680673.831904,42508,1668680673,831744853,,-0.09878269162343938,-0.6160280661108883,0.07818339393878662,0.9955612165785791,0.09352316541685579,-0.004347581126770439,0.009611457399220823
1668680673.839777,42509,1668680673,839577952,,-0.09877913288007302,-0.6160322573708975,0.07818352054517733,0.995561216552282,0.09352316542726331,-0.004347582238990861,0.009611459518727302
1668680673.8475118,42510,1668680673,847417743,,-0.09877502920533884,-0.6160370906503384,0.07818365445457387,0.9955612165260813,0.09352316543756681,-0.004347583344125302,0.009611461632469533
1668680673.8556485,42511,1668680673,855538531,,-0.09877033598551026,-0.6160426185012923,0.07818379482445664,0.9955612164999791,0.09352316544776575,-0.004347584442103134,0.009611463740255923
1668680673.8643734,42512,1668680673,864219294,,-0.09876500826761725,-0.6160488938748249,0.0781839408659091,0.9955612164739777,0.09352316545785974,-0.00434758553285803,0.009611465841903229
1668680673.8716288,42513,1668680673,871501379,,-0.09875900087694232,-0.6160559699825056,0.07818409184092273,0.9955612164480789,0.09352316546784809,-0.004347586616327609,0.009611467937235722
1668680673.8797586,42514,1668680673,879652301,,-0.09875226852577383,-0.6160639001682308,0.07818424705981455,0.9955612164222847,0.09352316547773061,-0.004347587692453709,0.009611470026086196
1668680673.887715,42515,1668680673,887604296,,-0.0987447659138954,-0.6160727377897871,0.07818440587875286,0.9955612163965969,0.09352316548750658,-0.004347588761182713,0.009611472108296897
1668680673.8954484,42516,1668680673,895347988,,-0.09873644782126362,-0.6160825361096102,0.07818456769738773,0.9955612163710171,0.09352316549717551,-0.004347589822465425,0.009611474183718494
1668680673.903781,42517,1668680673,903661951,,-0.09872726919331021,-0.6160933481942407,0.07818473195658633,0.9955612163455472,0.09352316550673712,-0.004347590876257629,0.009611476252211742
1668680673.9117103,42518,1668680673,911583892,,-0.09871718521928313,-0.6161052268219743,0.07818489813626461,0.9955612163201883,0.09352316551619072,-0.004347591922519548,0.009611478313646338
1668680673.9196968,42519,1668680673,919563056,,-0.09870615140402182,-0.6161182243982517,0.07818506575331571,0.9955612162949421,0.09352316552553584,-0.004347592961216498,0.00961148036790229
1668680673.9277797,42520,1668680673,927638721,,-0.09869412363354411,-0.6161323928783327,0.07818523435963064,0.9955612162698093,0.09352316553477227,-0.0043475939923190085,0.009611482414870327
1668680673.9355352,42521,1668680673,935417536,,-0.09868105823480418,-0.6161477836968386,0.07818540354020422,0.9955612162447917,0.09352316554389946,-0.0043475950158022,0.009611484454450652
1668680673.9441328,42522,1668680673,943791637,,-0.09866691202996614,-0.6161644477037546,0.07818557291133077,0.9955612162198897,0.0935231655529168,-0.004347596031646918,0.009611486486554499
1668680673.952063,42523,1668680673,951842669,,-0.09865164238551445,-0.6161824351065059,0.07818574211887938,0.9955612161951046,0.09352316556182391,-0.004347597039838836,0.009611488511103614
1668680673.9595723,42524,1668680673,959479149,,-0.09863520725651928,-0.6162017954177452,0.07818591083664789,0.9955612161704368,0.09352316557062058,-0.004347598040368866,0.009611490528030368
1668680673.9682813,42525,1668680673,968157409,,-0.0986175652263465,-0.6162225774084978,0.07818607876479455,0.9955612161458871,0.09352316557930626,-0.004347599033233499,0.009611492537278095
1668680673.9762933,42526,1668680673,976186431,,-0.09859867554209634,-0.6162448290663363,0.07818624562834155,0.9955612161214559,0.09352316558788057,-0.004347600018433887,0.009611494538800154
1668680673.98344,42527,1668680673,983279503,,-0.0985784981460383,-0.6162685975582642,0.07818641117574955,0.9955612160971435,0.09352316559634309,-0.004347600995976993,0.009611496532561688
1668680673.9947572,42528,1668680673,991456685,,-0.09855699370329513,-0.6162939291980148,0.07818657517755943,0.9955612160729502,0.09352316560469337,-0.004347601965874746,0.009611498518537872
1668680673.9998405,42529,1668680673,999649731,,-0.09853412362601896,-0.6163208694174727,0.07818673742509884,0.9955612160488762,0.09352316561293114,-0.0043476029281443885,0.009611500496715098
1668680674.0077338,42530,1668680674,7589088,,-0.09850985009413919,-0.6163494627415267,0.07818693298151175,0.9955612160249212,0.09352316562105618,-0.004347603882808144,0.009611502467089686
1668680674.0157142,42531,1668680674,15549429,,-0.09848413607290986,-0.6163797527661137,0.07818725945941274,0.9955612160010852,0.09352316562906778,-0.004347604829893617,0.00961150442966904
1668680674.0235264,42532,1668680674,23379643,,-0.09845694532817327,-0.6164117821412706,0.07818780589140395,0.995561215977368,0.09352316563696572,-0.004347605769432983,0.009611506384470095
1668680674.0317192,42533,1668680674,31579918,,-0.09842824243927689,-0.6164455925582006,0.07818858845526351,0.9955612159537691,0.09352316564474955,-0.004347606701463665,0.00961150833152043
1668680674.0396626,42534,1668680674,39484326,,-0.09839799280921034,-0.6164812247383704,0.07818952323400978,0.995561215930288,0.093523165652419,-0.004347607626027826,0.00961151027085768
1668680674.0476844,42535,1668680674,47526009,,-0.09836616267186798,-0.6165187184236348,0.07819052044330366,0.995561215906924,0.09352316565997378,-0.004347608543172398,0.00961151220252857
1668680674.0554082,42536,1668680674,55311561,,-0.09833271909637943,-0.616558112366561,0.0781915546103095,0.9955612158836765,0.0935231656674137,-0.004347609452948865,0.009611514126589967
1668680674.0637639,42537,1668680674,63598494,,-0.09829762999108106,-0.6165994443277105,0.07819261439690074,0.9955612158605447,0.09352316567473824,-0.004347610355413429,0.009611516043107492
1668680674.0718086,42538,1668680674,71625006,,-0.09826086410402365,-0.6166427510703416,0.07819385863121972,0.9955612158375274,0.09352316568194728,-0.004347611250626303,0.009611517952155698
1668680674.079672,42539,1668680674,79565398,,-0.09822239102240592,-0.6166880683588369,0.07819551943423093,0.9955612158146238,0.09352316568904036,-0.004347612138652295,0.00961151985381802
1668680674.087653,42540,1668680674,87563475,,-0.09818218117365358,-0.6167354309681671,0.078197742603815,0.9955612157918324,0.09352316569601722,-0.004347613019560295,0.0096115217481865
1668680674.0960538,42541,1668680674,95785968,,-0.09814020582071195,-0.6167848726824401,0.07820071745230348,0.9955612157691524,0.09352316570287744,-0.00434761389342289,0.009611523635360449
1668680674.1037,42542,1668680674,103509744,,-0.09809643705878344,-0.6168364263029277,0.07820452105680747,0.9955612157465821,0.09352316570962114,-0.004347614760316794,0.009611525515447665
1668680674.1122246,42543,1668680674,111827141,,-0.09805084781132112,-0.6168901236587806,0.07820915571900394,0.9955612157241202,0.09352316571624786,-0.0043476156203223195,0.009611527388562984
1668680674.11973,42544,1668680674,119624101,,-0.09800336628370433,-0.61694599559704,0.07821482301261974,0.9955612157017643,0.09352316572275733,-0.004347616473554627,0.009611529254898573
1668680674.1276047,42545,1668680674,127486294,,-0.09795394661822468,-0.6170040719928201,0.07822182964355347,0.9955612156795117,0.09352316572914897,-0.004347617320149106,0.009611531114689865
1668680674.1354115,42546,1668680674,135254941,,-0.09790260238860743,-0.6170643817812531,0.07823035928894209,0.9955612156573616,0.093523165735423,-0.004347618160154994,0.009611532967980717
1668680674.1436784,42547,1668680674,143582735,,-0.09784932355757311,-0.6171269529656627,0.07824037971363226,0.9955612156353127,0.09352316574157903,-0.004347618993647717,0.009611534814872117
1668680674.1517498,42548,1668680674,151582309,,-0.09779363899651282,-0.6171918125496002,0.07825257509608875,0.9955612156133542,0.09352316574761603,-0.004347619821087344,0.009611536656318597
1668680674.1597738,42549,1668680674,159621400,,-0.09773487704712075,-0.6172589864978508,0.07826800623468795,0.9955612155914599,0.09352316575353149,-0.0043476206435056125,0.00961153849454267
1668680674.1676383,42550,1668680674,167516302,,-0.09767200580693486,-0.6173284998282624,0.07828799899898928,0.9955612155695984,0.09352316575932264,-0.004347621462175893,0.009611540332301055
1668680674.1754897,42551,1668680674,175318642,,-0.09760348058381048,-0.6174003764566384,0.07831405869925698,0.9955612155477069,0.0935231657649829,-0.004347622279575091,0.009611542175017836
1668680674.183872,42552,1668680674,183694004,,-0.09752874902750479,-0.6174746395995203,0.07834638265473141,0.9955612155257406,0.09352316577050869,-0.004347623097475404,0.009611544026548418
1668680674.1918561,42553,1668680674,191683581,,-0.09744770324513283,-0.6175513118262687,0.07838479736346667,0.9955612155036841,0.0935231657758983,-0.004347623916510278,0.009611545888216909
1668680674.1996367,42554,1668680674,199541321,,-0.09735978576598671,-0.6176313112890649,0.0784298528709048,0.9955612154814872,0.09352316578114722,-0.00434762473869176,0.009611547764404196
1668680674.2076776,42555,1668680674,207516438,,-0.09726530641949087,-0.6177168093155486,0.0784821207842214,0.9955612154590975,0.09352316578625083,-0.0043476255660869064,0.009611549659608571
1668680674.2163386,42556,1668680674,216126180,,-0.09716522203917846,-0.6178096063560918,0.0785416366042808,0.9955612154365076,0.09352316579120908,-0.004347626399017899,0.009611551574454502
1668680674.2233639,42557,1668680674,223273156,,-0.097059748361846,-0.617910183799404,0.07860798777887806,0.9955612154137039,0.09352316579602113,-0.004347627238048497,0.009611553510100908
1668680674.2317886,42558,1668680674,231647724,,-0.09694889222384029,-0.6180182730934703,0.07868053572743144,0.9955612153906652,0.09352316580068526,-0.0043476280840502885,0.009611555468386813
1668680674.2398217,42559,1668680674,239660925,,-0.09683280623702374,-0.618133543247902,0.07875866458591357,0.995561215367391,0.09352316580520217,-0.00434762893707147,0.0096115574493243
1668680674.2480164,42560,1668680674,247834374,,-0.0967131384583241,-0.6182586938493824,0.07884159264280846,0.9955612153438955,0.0935231658095741,-0.004347629796580734,0.009611559451638458
1668680674.2556362,42561,1668680674,255412251,,-0.09659236117608509,-0.6183981787469612,0.07892787076302894,0.9955612153202356,0.0935231658138069,-0.0043476306603994095,0.00961156147040382
1668680674.263884,42562,1668680674,263736433,,-0.09647124699834023,-0.6185530643020655,0.0790163609923001,0.9955612152964318,0.09352316581790339,-0.0043476315277488475,0.009611563503800564
1668680674.2716362,42563,1668680674,271481215,,-0.0963501298067846,-0.6187233352340755,0.07910634178462478,0.9955612152724999,0.0935231658218657,-0.004347632398042528,0.009611565550434197
1668680674.2797475,42564,1668680674,279598439,,-0.09622953393975414,-0.618910952392463,0.07919563519759064,0.9955612152484359,0.09352316582569409,-0.004347633271476443,0.009611567610645473
1668680674.2877114,42565,1668680674,287571983,,-0.09610963300856214,-0.6191181864606663,0.07928147559337397,0.9955612152241877,0.09352316582938452,-0.004347634150113675,0.009611569688912223
1668680674.2956982,42566,1668680674,295571163,,-0.09599042095873886,-0.6193459348050028,0.07936223402450672,0.9955612151997186,0.09352316583293459,-0.004347635035432458,0.009611571788409606
1668680674.3033266,42567,1668680674,303234450,,-0.09587180172407453,-0.6195944834148467,0.07943678462503624,0.9955612151750074,0.09352316583634315,-0.0043476359282944915,0.009611573910944476
1668680674.3117347,42568,1668680674,311636971,,-0.09575361886418186,-0.6198632211784676,0.07950470146698639,0.9955612151500403,0.09352316583961018,-0.004347636829273739,0.009611576057681976
1668680674.3198211,42569,1668680674,319667928,,-0.09563570790817491,-0.6201510422243907,0.07956596785844944,0.9955612151248321,0.09352316584273777,-0.004347637737840191,0.009611578227338448
1668680674.3275309,42570,1668680674,327418777,,-0.09551792093516366,-0.6204572737270746,0.07962036626835278,0.9955612150993806,0.0935231658457273,-0.00434763865410325,0.009611580420047202
1668680674.3355672,42571,1668680674,335412315,,-0.0954001044983189,-0.6207808901499194,0.07966800292252495,0.9955612150736949,0.09352316584858027,-0.004347639577742187,0.009611582634986697
1668680674.343784,42572,1668680674,343601986,,-0.09528210373824224,-0.6211205405050827,0.07970920444179032,0.9955612150477958,0.09352316585129986,-0.0043476405079969,0.009611584870361808
1668680674.3516788,42573,1668680674,351562909,,-0.0951637695861806,-0.6214748618227306,0.0797443382522966,0.9955612150217089,0.09352316585388969,-0.004347641443885494,0.00961158712388529
1668680674.3599732,42574,1668680674,359846912,,-0.09504496288893416,-0.6218412850937866,0.07977403647624826,0.9955612149954863,0.093523165856355,-0.004347642383415081,0.009611589391032405
1668680674.3676245,42575,1668680674,367465404,,-0.09492394737955254,-0.6222143832605771,0.07979930294094457,0.9955612149691704,0.09352316585870048,-0.0043476433249634155,0.00961159166810139
1668680674.375942,42576,1668680674,375776158,,-0.09479827394025578,-0.622588886007431,0.07982097554113003,0.9955612149426833,0.09352316586092102,-0.004347644271603008,0.009611593961796984
1668680674.383725,42577,1668680674,383484107,,-0.09466523047330659,-0.6229597974462638,0.07983993207568178,0.9955612149159407,0.09352316586301067,-0.0043476452266831495,0.009611596279429462
1668680674.3917236,42578,1668680674,391537013,,-0.09452317703780527,-0.6233240838461825,0.0798568018534394,0.9955612148888353,0.09352316586496198,-0.004347646194433014,0.009611598630250708
1668680674.40019,42579,1668680674,399432986,,-0.09437158651783094,-0.6236804204715295,0.07987195420579524,0.9955612148613667,0.09352316586677664,-0.004347647174914072,0.009611601014264545
1668680674.4077404,42580,1668680674,407634885,,-0.09421022518517613,-0.6240283603757487,0.07988567056972616,0.9955612148334957,0.09352316586845336,-0.004347648169702953,0.009611603434831938
1668680674.4156349,42581,1668680674,415491879,,-0.09403936562056803,-0.6243702809202102,0.07989726501317078,0.9955612148051882,0.0935231658699912,-0.004347649180176504,0.009611605894863597
1668680674.4234195,42582,1668680674,423201293,,-0.09385870887362435,-0.6247082377330113,0.07990579836067346,0.9955612147762999,0.09352316587138103,-0.004347650212024322,0.009611608406823048
1668680674.431605,42583,1668680674,431470190,,-0.09366861237213384,-0.6250430018624971,0.07991112043113663,0.9955612147468041,0.09352316587262308,-0.004347651266341512,0.009611610972976312
1668680674.440129,42584,1668680674,439927776,,-0.09347133587951041,-0.6253789796796058,0.07991327384334565,0.9955612147167727,0.09352316587372543,-0.004347652340370084,0.009611613587044817
1668680674.4477093,42585,1668680674,447613949,,-0.0932708467543508,-0.6257236862039988,0.07991219489953419,0.9955612146863516,0.09352316587470143,-0.004347653428472398,0.009611616236375221
1668680674.4558628,42586,1668680674,455724510,,-0.0930702057991146,-0.6260815736238973,0.07990797598734896,0.9955612146557486,0.09352316587556916,-0.004347654522543199,0.009611618902858207
1668680674.4633753,42587,1668680674,463273825,,-0.09287082835396222,-0.6264553736414312,0.07989997123318843,0.9955612146250563,0.09352316587633698,-0.004347655619028068,0.009611621578490274
1668680674.4718947,42588,1668680674,471774067,,-0.09267301688337838,-0.6268457482668415,0.07988764949089186,0.9955612145942786,0.09352316587700682,-0.004347656717802538,0.009611624262880382
1668680674.4797816,42589,1668680674,479672821,,-0.09247681805488184,-0.6272522882015081,0.07987092984951875,0.9955612145634479,0.09352316587758255,-0.0043476578176404514,0.009611626953194967
1668680674.4876049,42590,1668680674,487472884,,-0.09228172790575413,-0.6276763846626702,0.07984797578554546,0.9955612145324861,0.09352316587806013,-0.004347658921625906,0.009611629656153189
1668680674.4953804,42591,1668680674,495262082,,-0.09208589585830389,-0.6281196235762881,0.07981583672442238,0.9955612145011002,0.0935231658784205,-0.0043476600412622225,0.009611632397121924
1668680674.5040808,42592,1668680674,503877054,,-0.09188815298253156,-0.6285816379621962,0.0797735836105045,0.9955612144690709,0.0935231658786513,-0.004347661185158193,0.009611635195021454
1668680674.5116792,42593,1668680674,511547320,,-0.09168795621609165,-0.6290613768816937,0.07972119129581355,0.9955612144364012,0.0935231658787562,-0.004347662353243752,0.009611638049506899
1668680674.5199797,42594,1668680674,519768194,,-0.09148448412034578,-0.6295585991839141,0.07965819670586875,0.9955612144029646,0.09352316587872926,-0.0043476635505421335,0.00961164097151986
1668680674.528388,42595,1668680674,528034072,,-0.09127722654849044,-0.6300724959513595,0.07958505169611103,0.9955612143687061,0.09352316587857122,-0.004347664779249771,0.009611643965718605
1668680674.53552,42596,1668680674,535332223,,-0.09106585119379558,-0.630601647858263,0.07950262403258194,0.9955612143336234,0.09352316587828542,-0.0043476660395285575,0.009611647032241816
1668680674.5437624,42597,1668680674,543583211,,-0.0908504052993291,-0.631144513614261,0.07941178339211187,0.9955612142977779,0.09352316587788005,-0.004347667329061018,0.009611650165729766
1668680674.5516853,42598,1668680674,551590490,,-0.09063104014478596,-0.6316988178679959,0.07931435719887185,0.9955612142612912,0.09352316587736668,-0.004347668643149548,0.009611653355552011
1668680674.5602121,42599,1668680674,559563806,,-0.09040785370082184,-0.6322620643330955,0.07921256181067277,0.9955612142243062,0.09352316587675728,-0.00434766997629109,0.00961165658930558
1668680674.5676475,42600,1668680674,567460758,,-0.09018069529451421,-0.6328321846505471,0.07910806528654737,0.9955612141869178,0.09352316587606119,-0.0043476713248406,0.009611659858722182
1668680674.5753906,42601,1668680674,575251067,,-0.08994803284823037,-0.6334080591129903,0.07900136777890769,0.995561214149012,0.09352316587527493,-0.004347672693296949,0.009611663173593198
1668680674.5838692,42602,1668680674,583695609,,-0.0897087863174805,-0.6339891302781607,0.07889233257122451,0.99556121411035,0.09352316587438793,-0.004347674091048027,0.009611666554533828
1668680674.594288,42603,1668680674,591577013,,-0.08946264866482619,-0.6345746863121432,0.0787810846448516,0.9955612140709574,0.09352316587340624,-0.004347675517159172,0.009611669999237807
1668680674.6006675,42604,1668680674,600502631,,-0.08920816203161153,-0.6351656861441484,0.07866617156478463,0.9955612140305743,0.09352316587232025,-0.004347676981839631,0.009611673530098635
1668680674.608276,42605,1668680674,608164872,,-0.08894490629012321,-0.6357646709732451,0.07854551837561054,0.9955612139888979,0.09352316587111896,-0.004347678496982316,0.00961167717320663
1668680674.6158478,42606,1668680674,615650855,,-0.0886737696660514,-0.6363733478900511,0.07841826022133938,0.9955612139459552,0.09352316586981016,-0.004347680061637747,0.009611680926130422
1668680674.6238086,42607,1668680674,623609761,,-0.08839543451098375,-0.6369913944122307,0.07828463409482972,0.9955612139018566,0.09352316586840623,-0.004347681671594381,0.00961168477920487
1668680674.631814,42608,1668680674,631676048,,-0.08810959959660772,-0.6376195707748297,0.0781446184203338,0.9955612138565826,0.09352316586691244,-0.00434768332771718,0.009611688734025303
1668680674.639752,42609,1668680674,639619547,,-0.0878155380740937,-0.6382596539257573,0.07799778522098023,0.995561213809829,0.09352316586532095,-0.0043476850419525105,0.009611692816750795
1668680674.6476045,42610,1668680674,647504363,,-0.08751575509773385,-0.6389107372642202,0.07784887328237343,0.9955612137619072,0.0935231658636538,-0.004347686802282635,0.009611697000365429
1668680674.6558287,42611,1668680674,655703083,,-0.0872146121030377,-0.6395701964669384,0.07770580621172757,0.9955612137138714,0.09352316586196456,-0.004347688567729746,0.009611701193679364
1668680674.6637547,42612,1668680674,663549151,,-0.08691466544977629,-0.6402357012504358,0.07757319983076634,0.9955612136664341,0.09352316586028703,-0.004347690310594589,0.009611705335122763
1668680674.6725175,42613,1668680674,672304652,,-0.08661667494182644,-0.6409057786149472,0.07745214995548232,0.9955612136199036,0.09352316585863434,-0.004347692018860414,0.009611709398023416
1668680674.6802175,42614,1668680674,680111376,,-0.08632071360567682,-0.6415793553375945,0.07734409825216818,0.9955612135743437,0.09352316585700796,-0.004347693690047991,0.009611713376916796
1668680674.6877673,42615,1668680674,687650769,,-0.08602629209510555,-0.6422547060473309,0.07725159931775627,0.9955612135297999,0.0935231658554085,-0.0043476953223757775,0.009611717267892561
1668680674.6954625,42616,1668680674,695323165,,-0.08573243750125603,-0.6429299261667651,0.07717552178107998,0.9955612134861848,0.09352316585383112,-0.004347696919222324,0.009611721078491712
1668680674.7037666,42617,1668680674,703604998,,-0.08543879635423832,-0.643604001160704,0.07711538046410038,0.9955612134434765,0.09352316585227419,-0.004347698481431651,0.009611724810620023
1668680674.7126243,42618,1668680674,712422011,,-0.08514466990692046,-0.6442760524202482,0.07706995863462848,0.9955612134016263,0.09352316585073477,-0.004347700010906611,0.009611728468524169
1668680674.7202742,42619,1668680674,720175502,,-0.08484906249805847,-0.6449450998903766,0.07703806594648596,0.9955612133604802,0.09352316584920746,-0.004347701513622179,0.009611732065471012
1668680674.7284715,42620,1668680674,728325350,,-0.08455151784501344,-0.6456104982933596,0.07701843530626258,0.9955612133199792,0.09352316584768992,-0.00434770299189328,0.009611735606587036
1668680674.7360713,42621,1668680674,735919831,,-0.08425179008771194,-0.6462721000303051,0.07701081734376826,0.9955612132800881,0.09352316584618152,-0.004347704447072473,0.009611739094853487
1668680674.7440274,42622,1668680674,743896000,,-0.08394975771160126,-0.646930008905087,0.07701565575622109,0.9955612132407687,0.09352316584468076,-0.004347705880667287,0.0096117425335908
1668680674.7518272,42623,1668680674,751653032,,-0.08364548333442297,-0.6475840775580525,0.07703243324913686,0.9955612132020321,0.0935231658431886,-0.004347707292267353,0.009611745921861098
1668680674.7598116,42624,1668680674,759684348,,-0.0833390814314148,-0.6482343370243691,0.07706121263434024,0.9955612131639047,0.0935231658417058,-0.004347708680831062,0.009611749257329955
1668680674.7676706,42625,1668680674,767577757,,-0.0830312165055972,-0.6488814678072731,0.07710284992227659,0.995561213126441,0.0935231658402338,-0.004347710044262426,0.009611752535332354
1668680674.7755651,42626,1668680674,775423322,,-0.08272283262401711,-0.6495261578519294,0.07715750098548556,0.9955612130897907,0.09352316583877573,-0.004347711376734684,0.009611755742943115
1668680674.7833102,42627,1668680674,783190618,,-0.08241444161820918,-0.6501693331434233,0.07722555148487929,0.995561213054012,0.09352316583733238,-0.004347712675977301,0.009611758875146087
1668680674.7918603,42628,1668680674,791708431,,-0.08210621309833394,-0.6508115137781108,0.07730689676700857,0.995561213019099,0.09352316583590241,-0.004347713942232231,0.009611761932504903
1668680674.7996366,42629,1668680674,799536393,,-0.08179820191052932,-0.6514527510077266,0.0774009018975066,0.9955612129850575,0.09352316583448542,-0.004347715175246787,0.009611764914486362
1668680674.807989,42630,1668680674,807882601,,-0.08148989859100984,-0.652093646413885,0.07750762649953326,0.9955612129517973,0.09352316583307896,-0.004347716378523474,0.009611767828877208
1668680674.8159697,42631,1668680674,815809317,,-0.08118101374498139,-0.6527347186333624,0.07762688338918013,0.9955612129191761,0.09352316583168029,-0.0043477175576086095,0.00961177068798425
1668680674.8238826,42632,1668680674,823665905,,-0.08087198757814852,-0.6533761387023226,0.07775799461991785,0.9955612128872705,0.0935231658302906,-0.004347718709503906,0.009611773485150528
1668680674.8317199,42633,1668680674,831598083,,-0.08056293134585611,-0.6540176202461713,0.07789995321652046,0.9955612128561215,0.09352316582891015,-0.0043477198326312095,0.009611776216880061
1668680674.8405893,42634,1668680674,840415408,,-0.08025234410554813,-0.6546593140009496,0.07805176622121945,0.9955612128255419,0.0935231658275368,-0.004347720934267324,0.009611778899300379
1668680674.8483217,42635,1668680674,848160194,,-0.07993727101589235,-0.655301337908095,0.07821253204278916,0.9955612127949635,0.09352316582616597,-0.004347722036484877,0.009611781581297845
1668680674.8563943,42636,1668680674,856220576,,-0.07961561041079589,-0.655943143947335,0.07838127695000842,0.9955612127639717,0.09352316582479704,-0.004347723155422185,0.009611784298512413
1668680674.863285,42637,1668680674,863124144,,-0.07928786828352342,-0.6565835472840995,0.07855694250509777,0.9955612127326054,0.09352316582343394,-0.004347724289638936,0.009611787047564548
1668680674.8714588,42638,1668680674,871364902,,-0.07895535272808141,-0.6572214783038075,0.07873852221888912,0.9955612127012461,0.09352316582208231,-0.0043477254243722225,0.009611789795548095
1668680674.8797069,42639,1668680674,879526616,,-0.07861886669095923,-0.6578562937427812,0.07892513026000644,0.9955612126700488,0.09352316582074462,-0.004347726553639306,0.009611792529085957
1668680674.8876898,42640,1668680674,887592368,,-0.07827843453344671,-0.6584876568232696,0.07911601864818475,0.9955612126391273,0.09352316581942301,-0.004347727673053422,0.009611795238357401
1668680674.895367,42641,1668680674,895198008,,-0.07793256043904365,-0.6591161105464488,0.07931093871508603,0.9955612126081845,0.09352316581811924,-0.004347728794164721,0.009611797948880695
1668680674.903729,42642,1668680674,903572207,,-0.07758059285066073,-0.6597419193181541,0.07950957603477507,0.9955612125769964,0.0935231658168361,-0.00434772992571197,0.009611800679897937
1668680674.9116588,42643,1668680674,911528429,,-0.0772224431761126,-0.6603651163085934,0.07971145148623009,0.9955612125455845,0.09352316581557703,-0.004347731066909528,0.00961180342949689
1668680674.9197552,42644,1668680674,919622535,,-0.07685804941988968,-0.6609854322098879,0.07991662693852943,0.9955612125139007,0.09352316581434553,-0.004347732219672182,0.00961180620175906
1668680674.9275863,42645,1668680674,927465948,,-0.07648839597288061,-0.6616030139089596,0.08012512738817733,0.9955612124821206,0.09352316581314396,-0.0043477333772437825,0.009611808981539337
1668680674.9356499,42646,1668680674,935535282,,-0.07611463179229011,-0.6622186489299234,0.08033655409509971,0.9955612124504398,0.0935231658119738,-0.004347734532065027,0.009611811751943915
1668680674.9433868,42647,1668680674,943289587,,-0.07573649445570002,-0.6628333628640329,0.08055042601199051,0.9955612124188341,0.09352316581083703,-0.004347735685129771,0.00961181451506329
1668680674.9516194,42648,1668680674,951530735,,-0.07535349671479791,-0.6634477700902089,0.08076619966747203,0.9955612123870904,0.09352316580973882,-0.004347736844720447,0.009611817289146063
1668680674.959654,42649,1668680674,959527349,,-0.07496559967906799,-0.664062005761746,0.08098333892706361,0.9955612123552345,0.09352316580868161,-0.0043477380098787535,0.009611820071915123
1668680674.9676843,42650,1668680674,967543735,,-0.0745730391707449,-0.6646762167052087,0.08120129116510372,0.9955612123232475,0.09352316580766895,-0.004347739181387778,0.009611822864963577
1668680674.9758604,42651,1668680674,975716678,,-0.07417551737084459,-0.665290160086371,0.08142019536646994,0.995561212291172,0.09352316580670307,-0.004347740357647422,0.009611825664590248
1668680674.983761,42652,1668680674,983658697,,-0.07377198299958483,-0.6659036525685885,0.08164059867898636,0.9955612122587643,0.09352316580579169,-0.004347741548130284,0.009611828491646825
1668680674.9915578,42653,1668680674,991465945,,-0.07336245061277272,-0.6665164244203996,0.0818623125553542,0.9955612122260046,0.09352316580493884,-0.0043477427536590075,0.009611831347768702
1668680674.9996176,42654,1668680674,999430780,,-0.07294723808094418,-0.667128155137442,0.08208498706969126,0.9955612121929949,0.09352316580414678,-0.004347743970358337,0.009611834224173351
1668680675.0077865,42655,1668680675,7617889,,-0.0725272726789762,-0.6677384744536313,0.08231055956501857,0.9955612121598929,0.09352316580341505,-0.004347745192148254,0.009611837107214815
1668680675.0157466,42656,1668680675,15569952,,-0.07210396496953979,-0.6683470255144922,0.08254181471213756,0.9955612121270481,0.09352316580273845,-0.004347746405561334,0.009611839966902206
1668680675.0235856,42657,1668680675,23424468,,-0.07167798943298159,-0.6689535679374142,0.08277904362765474,0.995561212094646,0.09352316580211344,-0.0043477476034198,0.009611842787253539
1668680675.031667,42658,1668680675,31480861,,-0.07124897655922399,-0.6695588609576169,0.08302160339813579,0.9955612120626282,0.0935231658015425,-0.004347748787993969,0.00961184557325917
1668680675.0396276,42659,1668680675,39462969,,-0.07081623724095856,-0.6701640996410733,0.08326904999012814,0.9955612120307419,0.0935231658010343,-0.004347749969102907,0.009611848346634196
1668680675.047756,42660,1668680675,47597451,,-0.07037857150428989,-0.6707702872089606,0.08352071091524056,0.9955612119987376,0.09352316580059929,-0.004347751156410943,0.00961185112869245
1668680675.05578,42661,1668680675,55645510,,-0.0699353258100895,-0.671377700276514,0.08377661699885423,0.9955612119663371,0.09352316580024933,-0.004347752360737425,0.009611853943270434
1668680675.063395,42662,1668680675,63250583,,-0.06948718716282797,-0.6719856822204768,0.0840371806676509,0.9955612119337376,0.09352316579998217,-0.004347753574511926,0.009611856773385377
1668680675.0717447,42663,1668680675,71584134,,-0.06903469713147733,-0.672593787734898,0.08430195456121005,0.9955612119010931,0.09352316579979583,-0.0043477547918193546,0.009611859605762605
1668680675.0796459,42664,1668680675,79542344,,-0.06857634905028541,-0.6732021582336624,0.08457046086122352,0.9955612118682173,0.09352316579970046,-0.004347756019917682,0.009611862456341595
1668680675.087723,42665,1668680675,87587420,,-0.06810990112427633,-0.6738114275835857,0.08484273058817308,0.9955612118344804,0.09352316579972536,-0.004347757283195411,0.009611865379005111
1668680675.0955381,42666,1668680675,95396165,,-0.06763480858299385,-0.6744219856778642,0.08511865835733379,0.9955612117996931,0.09352316579988496,-0.0043477585890823855,0.009611868389916508
1668680675.1042187,42667,1668680675,104089551,,-0.06715144407448137,-0.6750336902430314,0.08539766153767223,0.9955612117639018,0.09352316580018473,-0.004347759935859534,0.00961187148492067
1668680675.1122108,42668,1668680675,112082463,,-0.06666153239110731,-0.6756464960631173,0.08567806350083991,0.9955612117274435,0.09352316580061673,-0.004347761310621541,0.009611874635077735
1668680675.1198359,42669,1668680675,119677219,,-0.06616715426652789,-0.6762605487935098,0.0859578496952778,0.9955612116908301,0.09352316580116238,-0.004347762693671364,0.009611877796454988
1668680675.1284232,42670,1668680675,128154898,,-0.06566738367582713,-0.6768767541533398,0.08623585155261942,0.9955612116540018,0.09352316580182858,-0.004347764087361059,0.00961188097408795
1668680675.1356206,42671,1668680675,135457610,,-0.06515991660404985,-0.6774980933924485,0.086511288781032,0.99556121161617,0.09352316580266007,-0.0043477655222082905,0.009611884235447048
1668680675.1433613,42672,1668680675,143258475,,-0.06464406133208439,-0.6781274181043676,0.08678355158892612,0.9955612115769225,0.09352316580368637,-0.004347767014223887,0.009611887615675122
1668680675.1518028,42673,1668680675,151660503,,-0.06412016888613574,-0.6787650067497447,0.08705225995218988,0.9955612115362524,0.09352316580491732,-0.004347768563803346,0.009611891115207502
1668680675.1598537,42674,1668680675,159717757,,-0.0635892635115582,-0.6794113413385146,0.08731555314313401,0.995561211494397,0.09352316580634931,-0.004347770161932974,0.009611894713608954
1668680675.1675968,42675,1668680675,167503096,,-0.06305233992581008,-0.6800676426451479,0.08757068527961666,0.9955612114515229,0.09352316580798185,-0.0043477718022933015,0.009611898396465377
1668680675.1766028,42676,1668680675,176444417,,-0.0625101760923746,-0.6807339630499109,0.08781620683137306,0.9955612114078217,0.09352316580981097,-0.004347773477603081,0.009611902147264432
1668680675.1832952,42677,1668680675,183158382,,-0.06196347571713534,-0.6814098733361162,0.08805153925621674,0.9955612113635065,0.0935231658118307,-0.0043477751797369995,0.00961190594766305
1668680675.1918874,42678,1668680675,191713444,,-0.0614128691219249,-0.682094542898788,0.0882767202919871,0.9955612113187977,0.09352316581403328,-0.0043477769002851635,0.009611909778734457
1668680675.1997375,42679,1668680675,199616873,,-0.06085892986353262,-0.6827870358427459,0.08849194819580586,0.9955612112739177,0.09352316581640883,-0.004347778630727572,0.00961191362135864
1668680675.210536,42680,1668680675,207621736,,-0.06030221531749401,-0.6834865408118787,0.08869744595673733,0.9955612112290709,0.09352316581894735,-0.004347780363243126,0.009611917458018048
1668680675.2154422,42681,1668680675,215269273,,-0.059742697761794084,-0.6841920601503017,0.08889328867596845,0.9955612111843717,0.09352316582164422,-0.004347782093467206,0.009611921278904069
1668680675.2238123,42682,1668680675,223621272,,-0.05918032729502677,-0.6849026021921295,0.08907954351858727,0.9955612111398339,0.09352316582450063,-0.004347783820884888,0.009611925082778375
1668680675.231628,42683,1668680675,231454362,,-0.05861531034690167,-0.6856172757276686,0.08925643873425358,0.995561211095602,0.09352316582750857,-0.004347785539953587,0.009611928857254332
1668680675.239903,42684,1668680675,239781704,,-0.058047270985683054,-0.6863365846283696,0.08942467260262298,0.9955612110516064,0.09352316583067496,-0.00434778725338548,0.009611932608279998
1668680675.2478628,42685,1668680675,247747225,,-0.05747604262554246,-0.6870617218211079,0.08958415595423061,0.9955612110076753,0.09352316583401547,-0.004347788967806775,0.009611936350473933
1668680675.2555897,42686,1668680675,255418366,,-0.056901992552401436,-0.6877928215155208,0.08973387301697569,0.9955612109638937,0.09352316583752615,-0.00434779067998347,0.00961194007654823
1668680675.2641428,42687,1668680675,263926694,,-0.05632556501429603,-0.6885292947527764,0.08987382015292751,0.9955612109204134,0.09352316584119699,-0.004347792384092782,0.009611943773497094
1668680675.2717612,42688,1668680675,271566916,,-0.055747222757253134,-0.6892698928643053,0.0900038204033807,0.9955612108774394,0.093523165845012,-0.004347794072261485,0.009611947423807004
1668680675.2796464,42689,1668680675,279530800,,-0.055167393740550144,-0.6900132895220006,0.09012337155160198,0.9955612108351809,0.09352316584895355,-0.00434779573644538,0.00961195100963769
1668680675.2877188,42690,1668680675,287605404,,-0.05458545356038766,-0.6907590040181143,0.09023260898851831,0.9955612107936105,0.09352316585302409,-0.004347797377679729,0.009611954533322633
1668680675.2955217,42691,1668680675,295344524,,-0.05400065794425547,-0.6915069597785886,0.09033207542328782,0.9955612107524533,0.09352316585724804,-0.00434779900651712,0.00961195801830507
1668680675.304085,42692,1668680675,303851034,,-0.05341334324674933,-0.6922566652955252,0.09042238764035822,0.9955612107118156,0.09352316586161633,-0.004347800618892589,0.009611961455547985
1668680675.3116465,42693,1668680675,311516806,,-0.05282390099327429,-0.6930075741581917,0.09050411075121612,0.9955612106718501,0.09352316586611512,-0.004347802208911604,0.009611964831983892
1668680675.3196454,42694,1668680675,319538455,,-0.05223232642800793,-0.6937605376553321,0.09057722549979633,0.9955612106325558,0.09352316587074416,-0.004347803776618867,0.009611968147748895
1668680675.3278801,42695,1668680675,327695568,,-0.05163869602786039,-0.6945178058039176,0.0906415915009169,0.9955612105937837,0.09352316587551836,-0.0043478053277087045,0.00961197141551037
1668680675.3356047,42696,1668680675,335473764,,-0.05104344257717522,-0.6952809222338984,0.09069758896734986,0.9955612105555418,0.09352316588043671,-0.00434780686188299,0.009611974634613505
1668680675.3436747,42697,1668680675,343537961,,-0.05044697250848989,-0.6960497244397038,0.09074570531903774,0.9955612105179374,0.0935231658854884,-0.004347808375001972,0.00961197779589179
