Time,header.seq,header.stamp.secs,header.stamp.nsecs,header.frame_id,twist.linear.x,twist.linear.y,twist.linear.z,twist.angular.x,twist.angular.y,twist.angular.z
1668680672.84012,42384,1668680672,839593787,,-9.589326027559705e-06,8.636197384748782e-10,-1.8342451545414104e-11,-1.3459370734151457e-07,2.0108846128542526e-07,2.0412129534915814e-09
1668680672.8484552,42385,1668680672,848289193,,-8.81197976494917e-06,8.40752509421276e-10,-1.7940811132055518e-11,-1.4360311711166125e-07,2.038076239783994e-07,2.0782933141089117e-09
1668680672.855789,42386,1668680672,855612516,,-8.0786718832526e-06,8.180526843065121e-10,-1.753709608792803e-11,-1.5252264747978705e-07,2.0647912005973654e-07,2.1148133900720123e-09
1668680672.863363,42387,1668680672,863224822,,-7.387369279346296e-06,7.955497001742061e-10,-1.7132191882973778e-11,-1.6135186996715509e-07,2.0910298585754686e-07,2.1507729451738876e-09
1668680672.8717105,42388,1668680672,871556842,,-6.736116632885485e-06,7.732702954201217e-10,-1.6726881700549487e-11,-1.7009037105686802e-07,2.1167926350768585e-07,2.186171832840568e-09
1668680672.8796866,42389,1668680672,879517270,,-6.123034117671415e-06,7.512389778566507e-10,-1.6321939706420408e-11,-1.787377521312404e-07,2.1420800090555698e-07,2.2210099705303874e-09
1668680672.8875859,42390,1668680672,887460033,,-5.546315144644164e-06,7.294780738797265e-10,-1.5918032108742552e-11,-1.872936294135183e-07,2.1668925165448372e-07,2.2552873499390343e-09
1668680672.8965023,42391,1668680672,896315956,,-5.004224138864384e-06,7.080076932620539e-10,-1.5515810951664997e-11,-1.9575763387647072e-07,2.1912307500509072e-07,2.2890040339637873e-09
1668680672.9038243,42392,1668680672,903630361,,-4.495094352045769e-06,6.868459447004758e-10,-1.5115822504057787e-11,-2.041294112001081e-07,2.215095358126953e-07,2.3221601523912698e-09
1668680672.9120274,42393,1668680672,911866890,,-4.017325712122862e-06,6.660090807951719e-10,-1.471866937760525e-11,-2.124086216743765e-07,2.2384870448086674e-07,2.3547559108658348e-09
1668680672.92088,42394,1668680672,920749490,,-3.569382711343324e-06,6.455115232719721e-10,-1.4324807250892872e-11,-2.2059494014652655e-07,2.2614065690829903e-07,2.3867915806006557e-09
1668680672.9275327,42395,1668680672,927413630,,-3.1497923335428854e-06,6.253659695070389e-10,-1.3934700071295453e-11,-2.2868805593287683e-07,2.283854744325215e-07,2.4182675167303894e-09
1668680672.935642,42396,1668680672,935507228,,-2.7571420223582526e-06,6.055836011782658e-10,-1.3548778078897564e-11,-2.3668767274789537e-07,2.3058324377781892e-07,2.4491841256741494e-09
1668680672.943368,42397,1668680672,943259667,,-2.3900776904290963e-06,5.861740308650239e-10,-1.3167412899582847e-11,-2.445935086293627e-07,2.3273405700709646e-07,2.4795418895626657e-09
1668680672.951786,42398,1668680672,951653275,,-2.0473017706729306e-06,5.671454728793816e-10,-1.2790945975960196e-11,-2.524052958594756e-07,2.348380114605448e-07,2.5093413541756888e-09
1668680672.9597187,42399,1668680672,959606563,,-1.7275713099216534e-06,5.485048465478466e-10,-1.2419707899908026e-11,-2.6012278088987233e-07,2.3689520970759051e-07,2.538583137290346e-09
1668680672.9679642,42400,1668680672,967760976,,-1.4296961054934422e-06,5.302577625266548e-10,-1.2053947241810137e-11,-2.677457242473765e-07,2.389057594830952e-07,2.5672679250537226e-09
1668680672.9755776,42401,1668680672,975350693,,-1.1525368851764135e-06,5.124087847048604e-10,-1.1693925922266532e-11,-2.752739004656674e-07,2.4086977363635397e-07,2.595396465460286e-09
1668680672.9837987,42402,1668680672,983600127,,-8.95003530244543e-07,4.949612064369482e-10,-1.133987350871761e-11,-2.8270709800383577e-07,2.4278737008356875e-07,2.622969567824183e-09
1668680672.9917116,42403,1668680672,991570734,,-6.560533420224313e-07,4.779174475526666e-10,-1.0991945181908443e-11,-2.9004511916016616e-07,2.446586717441699e-07,2.6499881199104806e-09
1668680672.9997094,42404,1668680672,999545709,,-4.3468935200195936e-07,4.6127890003281073e-10,-1.0650295999764142e-11,-2.972877799794117e-07,2.4648380648934635e-07,2.676453051741344e-09
1668680673.0078914,42405,1668680673,7660386,,-2.2995867497980188e-07,4.4504616979710524e-10,-1.0315091056647788e-11,-3.044349101739737e-07,2.482629070811573e-07,2.7023653813231095e-09
1668680673.0159667,42406,1668680673,15789692,,-4.095090572988862e-08,4.2921905323825405e-10,-9.986453244279604e-12,-3.114863530413366e-07,2.4999611112348784e-07,2.7277261799300987e-09
1668680673.0237534,42407,1668680673,23600390,,1.3320344168500618e-07,4.137964339290204e-10,-9.664497326834924e-12,-3.184419653656145e-07,2.5168356100052255e-07,2.752536567051695e-09
1668680673.0320458,42408,1668680673,31845427,,2.933344520030749e-07,3.987767081164119e-10,-9.349241529227723e-12,-3.2530161734163557e-07,2.533254038261996e-07,2.7767977428958617e-09
1668680673.039909,42409,1668680673,39747974,,4.402342844254262e-07,3.841574921376663e-10,-9.040820491091866e-12,-3.320651924709596e-07,2.549217913827271e-07,2.800510952448893e-09
1668680673.0488458,42410,1668680673,48607146,,5.746586068045656e-07,3.699359832009212e-10,-8.739232919017934e-12,-3.387325874771757e-07,2.564728800634539e-07,2.82367751671341e-09
1668680673.055689,42411,1668680673,55470409,,6.973279881869163e-07,3.5610855245240355e-10,-8.44450979464483e-12,-3.453037122203233e-07,2.5797883082049014e-07,2.8462988078890337e-09
1668680673.064098,42412,1668680673,63887374,,8.089292507278236e-07,3.426713563801575e-10,-8.156646709975437e-12,-3.5177848959995107e-07,2.5943980910769886e-07,2.868376253408816e-09
1668680673.0724056,42413,1668680673,72227985,,9.101167813171886e-07,3.2962002352460297e-10,-7.875688760000197e-12,-3.581568554542594e-07,2.6085598481979196e-07,2.8899113442034214e-09
1668680673.07974,42414,1668680673,79533452,,1.0015138036613951e-06,3.1694966760157876e-10,-7.60166150668274e-12,-3.6443875847396575e-07,2.6222753223949913e-07,2.9109056322142397e-09
1668680673.0876403,42415,1668680673,87520463,,1.0837136110455867e-06,3.0465525564571814e-10,-7.334486936920899e-12,-3.706241601050236e-07,2.6355462997834186e-07,2.9313607185950623e-09
1668680673.0962005,42416,1668680673,95989138,,1.15728076101927e-06,2.927312898687598e-10,-7.074108042436087e-12,-3.7671303445718596e-07,2.648374609192422e-07,2.95127825715739e-09
1668680673.1034172,42417,1668680673,103212741,,1.2227522322761962e-06,2.8117189838243514e-10,-6.820504199134506e-12,-3.827053681967889e-07,2.660762121630753e-07,2.9706599696492128e-09
1668680673.1116607,42418,1668680673,111509728,,1.280638544439743e-06,2.6997111043330154e-10,-6.573630037173633e-12,-3.8860116045107045e-07,2.6727107496547977e-07,2.989507633327766e-09
1668680673.1196554,42419,1668680673,119468851,,1.3314248416887287e-06,2.591226717390351e-10,-6.333417376107685e-12,-3.944004227092511e-07,2.6842224467687875e-07,3.007823062548211e-09
1668680673.1277347,42420,1668680673,127584574,,1.3755719407484547e-06,2.4862009371439494e-10,-6.099797540123001e-12,-4.0010317873292906e-07,2.695299206989807e-07,3.0256081415018807e-09
1668680673.1357856,42421,1668680673,135634138,,1.413517344102756e-06,2.3845683574119817e-10,-5.872711623365538e-12,-4.057094644405459e-07,2.705943064124088e-07,3.0428648050979003e-09
1668680673.1435435,42422,1668680673,143385362,,1.4456762190433116e-06,2.2862614443939683e-10,-5.6520822952961676e-12,-4.1121932782245427e-07,2.716156091282461e-07,3.0595950392194144e-09
1668680673.1516857,42423,1668680673,151525928,,1.472442343550869e-06,2.1912107013240256e-10,-5.437839192364482e-12,-4.166328288198179e-07,2.7259404002262375e-07,3.0758008741264703e-09
1668680673.1598146,42424,1668680673,159673673,,1.4941890195539455e-06,2.099345915705461e-10,-5.229877262551842e-12,-4.219500392420808e-07,2.7352981408702644e-07,3.0914844043312235e-09
1668680673.1675875,42425,1668680673,167427359,,1.5112699544877634e-06,2.0105973074163867e-10,-5.028066352023106e-12,-4.271710426459975e-07,2.744231500655753e-07,3.10664776786977e-09
1668680673.1755257,42426,1668680673,175393407,,1.5240201116807525e-06,1.924894121716041e-10,-4.832345573893936e-12,-4.3229593424978784e-07,2.7527427040014343e-07,3.1212931480123068e-09
1668680673.1838584,42427,1668680673,183733094,,1.532756530775748e-06,1.842164430381318e-10,-4.642560328434385e-12,-4.3732482081056497e-07,2.760834011680437e-07,3.1354227833525637e-09
1668680673.191791,42428,1668680673,191667708,,1.5377791185128452e-06,1.7623365917201277e-10,-4.458678507235232e-12,-4.422578205232036e-07,2.7685077202726757e-07,3.1490389606931513e-09
1668680673.2001839,42429,1668680673,199995186,,1.5393714107256367e-06,1.6853392253755564e-10,-4.280551398944578e-12,-4.470950629264427e-07,2.775766161600799e-07,3.1621440038223735e-09
1668680673.2082422,42430,1668680673,208100167,,1.537801306816917e-06,1.6111000945349182e-10,-4.108035912114539e-12,-4.5183668878859197e-07,2.782611702169222e-07,3.1747402969804287e-09
1668680673.215868,42431,1668680673,215637990,,1.5333217765646248e-06,1.5395478153647376e-10,-3.9410899169146525e-12,-4.564828499907347e-07,2.7890467424863705e-07,3.186830266883253e-09
1668680673.2235074,42432,1668680673,223399703,,1.5261715408932979e-06,1.4706109662081437e-10,-3.779548558275096e-12,-4.610337094363752e-07,2.7950737165886673e-07,3.1984163826107117e-09
1668680673.2318127,42433,1668680673,231597011,,1.516575726722766e-06,1.40421945828756e-10,-3.6232606641791706e-12,-4.6548944093224526e-07,2.800695091456601e-07,3.2095011610102464e-09
1668680673.2397227,42434,1668680673,239552139,,1.5047464970439773e-06,1.340303059416051e-10,-3.47218686270644e-12,-4.6985022908004496e-07,2.8059133663521513e-07,3.2200871553174103e-09
1668680673.2476695,42435,1668680673,247550369,,1.490883656804215e-06,1.2787922260644393e-10,-3.326202409638577e-12,-4.7411626916633263e-07,2.810731072330964e-07,3.2301769763405864e-09
1668680673.2555795,42436,1668680673,255417238,,1.4751752350655262e-06,1.2196194164657833e-10,-3.185175857871293e-12,-4.78287767063874e-07,2.815150771635826e-07,3.239773265428777e-09
1668680673.2638958,42437,1668680673,263673529,,1.4577980446638006e-06,1.162715371250467e-10,-3.0489524622064875e-12,-4.823649391116251e-07,2.819175057105293e-07,3.248878709318399e-09
1668680673.271964,42438,1668680673,271751378,,1.4389182196867506e-06,1.1080133569070378e-10,-2.917424463017804e-12,-4.863480119968029e-07,2.822806551614557e-07,3.257496040872741e-09
1668680673.2797344,42439,1668680673,279559822,,1.418691731361291e-06,1.055447047174224e-10,-2.790452024388208e-12,-4.902372226695918e-07,2.8260479075396283e-07,3.265628025662423e-09
1668680673.2877529,42440,1668680673,287632974,,1.3972648835676954e-06,1.0049526804170787e-10,-2.6679479094916323e-12,-4.9403281819323e-07,2.828901806074946e-07,3.2732774747937087e-09
1668680673.2955065,42441,1668680673,295353934,,1.3747747880020856e-06,9.564647480490136e-11,-2.5498356113249656e-12,-4.977350556609489e-07,2.8313709568005875e-07,3.2804472409782733e-09
1668680673.3038092,42442,1668680673,303647943,,1.3513498200986581e-06,9.099218831715978e-11,-2.4359903068011357e-12,-5.013442020735986e-07,2.8334580969919795e-07,3.287140216504983e-09
1668680673.3117056,42443,1668680673,311594731,,1.327110055926599e-06,8.652610541587704e-11,-2.32628034315892e-12,-5.04860534237693e-07,2.835165991145188e-07,3.2933593273292985e-09
1668680673.3200407,42444,1668680673,319847919,,1.3021676912038645e-06,8.224220780147106e-11,-2.2205643495388356e-12,-5.082843386438316e-07,2.8364974303383473e-07,3.299107542847613e-09
1668680673.3276317,42445,1668680673,327518083,,1.276627442595782e-06,7.813460238248936e-11,-2.118763857696572e-12,-5.116159113340811e-07,2.8374552316924157e-07,3.304387861914855e-09
1668680673.3359845,42446,1668680673,335800539,,1.2505869321271278e-06,7.419737439441459e-11,-2.0207829720778713e-12,-5.148555578244324e-07,2.83804223775782e-07,3.3092033174595464e-09
1668680673.343447,42447,1668680673,343314710,,1.224137055216782e-06,7.042491765652432e-11,-1.9265371263754462e-12,-5.180035929668907e-07,2.838261316026104e-07,3.3135569838178394e-09
1668680673.3521006,42448,1668680673,351858035,,1.1973623327452142e-06,6.68115813956485e-11,-1.835849503611686e-12,-5.210603408379741e-07,2.8381153583262847e-07,3.317451963367335e-09
1668680673.359756,42449,1668680673,359611994,,1.1703412481173314e-06,6.335200233724524e-11,-1.7486534551060708e-12,-5.240261346338311e-07,2.8376072802729134e-07,3.320891401870873e-09
1668680673.3677912,42450,1668680673,367658657,,1.1431465694294709e-06,6.004080796936561e-11,-1.6648228410076036e-12,-5.26901316542578e-07,2.836740020673555e-07,3.3238784759057175e-09
1668680673.3755558,42451,1668680673,375378329,,1.1158456575592225e-06,5.687280892907355e-11,-1.5842725931929693e-12,-5.296862376362987e-07,2.8355165409944536e-07,3.3264163943998614e-09
1668680673.3838692,42452,1668680673,383711032,,1.0885007604692806e-06,5.384292961768875e-11,-1.5069006657721516e-12,-5.323812577600706e-07,2.83393982480327e-07,3.328508393947723e-09
1668680673.3918421,42453,1668680673,391648953,,1.0611692944791942e-06,5.094628124461048e-11,-1.4325756946812312e-12,-5.349867454075718e-07,2.832012877211977e-07,3.3301577409882913e-09
1668680673.4005432,42454,1668680673,400416404,,1.033904112794728e-06,4.81780374007508e-11,-1.361183817539267e-12,-5.375030776035758e-07,2.829738724274669e-07,3.3313677467357757e-09
1668680673.4076796,42455,1668680673,407552480,,1.0067537616914575e-06,4.5533456459141994e-11,-1.2926649037816394e-12,-5.399306397968692e-07,2.8271204125124544e-07,3.332141742545135e-09
1668680673.4155478,42456,1668680673,415435280,,9.797627250664871e-07,4.30080390626027e-11,-1.2269877151234107e-12,-5.42269825736519e-07,2.824161008281987e-07,3.332483084249945e-09
1668680673.42339,42457,1668680673,423277685,,9.529716577858272e-07,4.059734450690675e-11,-1.1639901752785725e-12,-5.445210373580916e-07,2.8208635973022613e-07,3.3323951676637363e-09
1668680673.4314747,42458,1668680673,431367368,,9.264176078819748e-07,3.8297013438065715e-11,-1.103598566394977e-12,-5.466846846754047e-07,2.817231284052747e-07,3.331881401910739e-09
1668680673.4398165,42459,1668680673,439679085,,9.001342286168759e-07,3.610295298897117e-11,-1.0457109493564843e-12,-5.487611856516663e-07,2.813267191242923e-07,3.330945233024856e-09
1668680673.4478061,42460,1668680673,447604085,,8.741519802081407e-07,3.401101434305407e-11,-9.902781178754863e-13,-5.507509660885565e-07,2.8089744592881766e-07,3.329590134297086e-09
1668680673.4554603,42461,1668680673,455336763,,8.484983221138949e-07,3.20172709791426e-11,-9.372240894148062e-13,-5.526544595094245e-07,2.8043562457145263e-07,3.327819607249613e-09
1668680673.4637022,42462,1668680673,463574140,,8.231978959061216e-07,3.011794614831909e-11,-8.864071767365143e-13,-5.544721070397715e-07,2.799415724682036e-07,3.3256371723991233e-09
1668680673.4717605,42463,1668680673,471579297,,7.982726994169804e-07,2.8309264027389257e-11,-8.378168653407801e-13,-5.562043572916947e-07,2.7941560864159665e-07,3.323046384505515e-09
1668680673.4797845,42464,1668680673,479623917,,7.737422520863233e-07,2.6587668658210332e-11,-7.913614190359538e-13,-5.578516662491057e-07,2.788580536650743e-07,3.3200508091736735e-09
1668680673.4877524,42465,1668680673,487583056,,7.496237523717262e-07,2.494972424277051e-11,-7.46987294488755e-13,-5.594144971510978e-07,2.782692296112202e-07,3.3166540458618492e-09
1668680673.4958458,42466,1668680673,495466734,,7.259322272298191e-07,2.3391996037025035e-11,-7.04576844629124e-13,-5.608933203727481e-07,2.7764946000290315e-07,3.3128597084392883e-09
1668680673.503852,42467,1668680673,503718564,,7.02680674036298e-07,2.191118715279692e-11,-6.64052675930353e-13,-5.622886133131933e-07,2.7699906975347013e-07,3.3086714424570214e-09
1668680673.512725,42468,1668680673,512418102,,6.79880195286036e-07,2.0504237039153228e-11,-6.253436267485041e-13,-5.636008602669811e-07,2.763183851159747e-07,3.3040929072955866e-09
1668680673.5204465,42469,1668680673,520044512,,6.575401263873979e-07,1.916800145057886e-11,-5.884629676761636e-13,-5.648305523206919e-07,2.756077336362537e-07,3.299127784881421e-09
1668680673.5275838,42470,1668680673,527458980,,6.35668156983451e-07,1.7899560281510493e-11,-5.53248418403336e-13,-5.65978187231514e-07,2.748674440947828e-07,3.2937797804483443e-09
1668680673.5354605,42471,1668680673,535253513,,6.142704457601476e-07,1.6696062762078082e-11,-5.197012715661995e-13,-5.670442693084388e-07,2.7409784645710135e-07,3.2880526198384873e-09
1668680673.5438118,42472,1668680673,543633323,,5.93351729187239e-07,1.5554749291237012e-11,-4.876927043288403e-13,-5.680293092955861e-07,2.7329927181924015e-07,3.2819500402522694e-09
1668680673.5515957,42473,1668680673,551450737,,5.729154246567658e-07,1.4472916774739258e-11,-4.571863430927665e-13,-5.689338242567836e-07,2.7247205236038365e-07,3.275475805855086e-09
1668680673.5597315,42474,1668680673,559596732,,5.52965873436049e-07,1.9612689786192057e-11,-2.708493280954691e-05,-5.697583374666167e-07,2.716165212892061e-07,3.2686336902726323e-09
1668680673.567639,42475,1668680673,567530774,,5.335067659099911e-07,3.855698247285208e-11,-5.0632168599592904e-05,-5.705033782714673e-07,2.707330127932052e-07,3.2614274894948137e-09
1668680673.5756366,42476,1668680673,575412530,,5.14536044889632e-07,6.531252491766728e-11,-7.153777130019269e-05,-5.711694820021689e-07,2.6982186199260164e-07,3.253861018258916e-09
1668680673.583652,42477,1668680673,583548891,,4.960517136538935e-07,9.682065129515881e-11,-9.065042703230849e-05,-5.717571898457983e-07,2.688834048815989e-07,3.2459381001777544e-09
1668680673.5917659,42478,1668680673,591617397,,4.780409413854877e-07,1.0143092572791137e-10,-9.627301064618024e-05,-5.722670487230175e-07,2.6791797828628327e-07,3.2376625772780043e-09
1668680673.5996423,42479,1668680673,599537462,,4.605047141787766e-07,8.949916429336238e-11,-9.501772850136285e-05,-5.7269961118347e-07,2.669259198119157e-07,3.229038313351171e-09
1668680673.6083317,42480,1668680673,608165375,,4.434429724906771e-07,7.051621521888703e-11,-9.037079688858696e-05,-5.730554352759346e-07,2.659075677916009e-07,3.220069173282808e-09
1668680673.6155028,42481,1668680673,615357640,,4.2685362488919407e-07,5.0080093601933495e-11,-8.416501356663321e-05,-5.733350844549647e-07,2.648632612401696e-07,3.2107590472858135e-09
1668680673.6237018,42482,1668680673,623590623,,4.1073361737368634e-07,3.278951378137215e-11,-7.828354674711107e-05,-5.735391274539334e-07,2.637933398056459e-07,3.20111183017798e-09
1668680673.6317282,42483,1668680673,631556988,,3.9507700913889865e-07,1.654889963816258e-11,-7.178767382198349e-05,-5.736681381611632e-07,2.626981437144697e-07,3.191131433779486e-09
1668680673.640089,42484,1668680673,639675600,,3.7987846316745076e-07,2.437044117021372e-12,-6.517421635447069e-05,-5.737226955200393e-07,2.6157801373091615e-07,3.1808217822613102e-09
1668680673.647611,42485,1668680673,647487586,,3.651319206927556e-07,-9.244864684184388e-12,-5.869590383321849e-05,-5.737033834062582e-07,2.60433291111316e-07,3.1701868075100534e-09
1668680673.6558523,42486,1668680673,655631835,,3.5083079205168117e-07,-1.85628598385303e-11,-5.2476732966052995e-05,-5.736107905233616e-07,2.592643175465e-07,3.1592304451870134e-09
1668680673.663591,42487,1668680673,663437707,,3.3696807521127705e-07,-2.5738863353295757e-11,-4.6572988422169525e-05,-5.734455102847385e-07,2.5807143511917055e-07,3.1479566541033218e-09
1668680673.6716504,42488,1668680673,671540765,,3.23536448158939e-07,-3.1005512803566046e-11,-4.104384976404147e-05,-5.73208140687487e-07,2.568549862575332e-07,3.1363693979739015e-09
1668680673.6796288,42489,1668680673,679471734,,3.1052827077286493e-07,-3.4713817064566476e-11,-3.583228964326181e-05,-5.728992842137195e-07,2.5561531369046653e-07,3.124472651574867e-09
1668680673.6877093,42490,1668680673,687558475,,2.979357017859582e-07,-3.710244407165782e-11,-3.094154834765519e-05,-5.72519547720412e-07,2.5435276040239566e-07,3.112270389708909e-09
1668680673.6953132,42491,1668680673,695206023,,2.857506994954182e-07,-3.839437884654429e-11,-2.6365475765242018e-05,-5.720695423137181e-07,2.530676695804298e-07,3.099766597643756e-09
1668680673.7039075,42492,1668680673,703781936,,5.893607660721032e-07,-3.71605656582526e-07,-2.2098966631291172e-05,-5.715498854513131e-07,2.5176037987729084e-07,3.0869652622639116e-09
1668680673.7119133,42493,1668680673,711804093,,1.8139998450183411e-06,-1.8277733164381196e-06,-1.812030001078284e-05,-5.70961201442508e-07,2.504312261046342e-07,3.073870393444577e-09
1668680673.7197833,42494,1668680673,719627459,,4.515244182857388e-06,-5.023073814037517e-06,-1.4417254540997276e-05,-5.703041226784506e-07,2.4908054559302325e-07,3.060485988206805e-09
1668680673.7277267,42495,1668680673,727615604,,9.20182747606936e-06,-1.0556853552848476e-05,-1.0976771869702973e-05,-5.695792964198826e-07,2.477086804625344e-07,3.0468160604207742e-09
1668680673.7356696,42496,1668680673,735508896,,1.633832610597425e-05,-1.897643562748004e-05,-7.785641685654022e-06,-5.687873936984315e-07,2.463159806262802e-07,3.0328646227187252e-09
1668680673.7436614,42497,1668680673,743485320,,2.6347719382478395e-05,-3.078013522345937e-05,-4.831298592515934e-06,-5.679291195489614e-07,2.4490280725977367e-07,3.0186356830572765e-09
1668680673.7516499,42498,1668680673,751489623,,3.961382958672752e-05,-4.6420133395076004e-05,-2.1004180358793533e-06,-5.670052238094396e-07,2.434695364563586e-07,3.0041332607026305e-09
1668680673.7597592,42499,1668680673,759645063,,5.648364646809934e-05,-6.630521475151245e-05,4.1905710183650005e-07,-5.660165120170386e-07,2.4201656292319615e-07,2.989361369743924e-09
1668680673.7678502,42500,1668680673,767730867,,7.726954071695963e-05,-9.080337441192877e-05,2.738745663241573e-06,-5.649638558559215e-07,2.4054430352331596e-07,2.9743240228066216e-09
1668680673.7753797,42501,1668680673,775213262,,0.00010225137080193845,-0.00012024429942050988,4.869793251762312e-06,-5.638482029246753e-07,2.3905320058868327e-07,2.959025218997541e-09
1668680673.7839975,42502,1668680673,783779853,,0.0001316784874280537,-0.00015492172964883086,6.822828003131205e-06,-5.62670585472993e-07,2.3754372487852357e-07,2.943468960486372e-09
1668680673.7918038,42503,1668680673,791595866,,0.00016577163974207902,-0.00019509570305047396,8.60808832302357e-06,-5.614321280357782e-07,2.3601637814950794e-07,2.9276592400373502e-09
1668680673.800113,42504,1668680673,799945799,,0.00020472478728107666,-0.00024099468997681303,1.0235281318106767e-05,-5.60134053750412e-07,2.3447169529925797e-07,2.911600044072128e-09
1668680673.8086097,42505,1668680673,808362449,,0.00024870682153440286,-0.000292817621106575,1.1713664512558474e-05,-5.587776893516842e-07,2.3291024603622848e-07,2.895295347546921e-09
1668680673.8158941,42506,1668680673,815733724,,0.00029786320086331257,-0.0003507358133917478,1.3052059375782702e-05,-5.573644688204872e-07,2.3133263609796532e-07,2.878749127206877e-09
1668680673.8234348,42507,1668680673,823322866,,0.00035231750239896466,-0.00041489479827507003,1.4258866382139025e-05,-5.558959356472554e-07,2.2973950799394144e-07,2.861965339088883e-09
1668680673.8319821,42508,1668680673,831744853,,0.00041217289441928385,-0.0004854160562901663,1.5342079198870077e-05,-5.543737438118492e-07,2.28131541305465e-07,2.844947938579305e-09
1668680673.8397827,42509,1668680673,839577952,,0.00047751353258611507,-0.0005623986620133878,1.630930552131769e-05,-5.527996574651896e-07,2.2650945254961539e-07,2.8277008616572896e-09
1668680673.8475294,42510,1668680673,847417743,,0.0005484058833082242,-0.000645920843201831,1.716777626734373e-05,-5.511755494626062e-07,2.2487399464407248e-07,2.8102280357367865e-09
1668680673.8556578,42511,1668680673,855538531,,0.0006248999773819502,-0.0007360414578152355,1.7924363558700736e-05,-5.495033987654699e-07,2.2322595598764895e-07,2.792533385087559e-09
1668680673.864383,42512,1668680673,864219294,,0.0007070305969500063,-0.0008328013924917135,1.858559519812195e-05,-5.477852868658568e-07,2.215661592100594e-07,2.7746208236794495e-09
1668680673.8716478,42513,1668680673,871501379,,0.0007948183987113769,-0.0009362248859166716,1.9157669727603568e-05,-5.460233932639117e-07,2.198954595971099e-07,2.756494252038194e-09
1668680673.8797696,42514,1668680673,879652301,,0.0008882709762085381,-0.0010463207804049244,1.9646469366197193e-05,-5.44219990176817e-07,2.1821474325142362e-07,2.7381575693884858e-09
1668680673.88773,42515,1668680673,887604296,,0.0009873838639153417,-0.001163083704891492,2.005757385933568e-05,-5.42377436524803e-07,2.1652492500736416e-07,2.7196146563067403e-09
1668680673.8954568,42516,1668680673,895347988,,0.0010921414857491141,-0.0012864951924106893,2.0396273457861955e-05,-5.404981712916889e-07,2.1482694615022316e-07,2.700869393152533e-09
1668680673.9038231,42517,1668680673,903661951,,0.0012025180505319472,-0.0014165247350308929,2.0667581447056474e-05,-5.385847064244834e-07,2.131217719532585e-07,2.6819256585507156e-09
1668680673.9117181,42518,1668680673,911583892,,0.0013184783968316289,-0.0015531307790976898,2.0876246320825703e-05,-5.366396192787144e-07,2.114103890818366e-07,2.6627873218020015e-09
1668680673.919705,42519,1668680673,919563056,,0.001439978789520195,-0.0016962616635345833,2.102676339831623e-05,-5.346655447807946e-07,2.096938028938773e-07,2.6434582504723803e-09
1668680673.9277916,42520,1668680673,927638721,,0.001566967670298234,-0.001845856503842345,2.112338612869444e-05,-5.326651673373457e-07,2.0797303465467406e-07,2.6239423216688207e-09
1668680673.9355588,42521,1668680673,935417536,,0.0016993863643461036,-0.002001846024339051,2.117013695311295e-05,-5.306412125577378e-07,2.0624911870520185e-07,2.6042433934163334e-09
1668680673.9441402,42522,1668680673,943791637,,0.0018371697451785964,-0.0021641533410829395,2.1170817766520633e-05,-5.28596438969532e-07,2.0452309961192577e-07,2.5843653389187593e-09
1668680673.952083,42523,1668680673,951842669,,0.001980246859698227,-0.0023326946978250614,2.112901999468493e-05,-5.265336296466706e-07,2.0279602929632165e-07,2.564312036150429e-09
1668680673.9595811,42524,1668680673,959479149,,0.0021285415153614973,-0.0025073801572465327,2.1048134280338384e-05,-5.244555839293571e-07,2.0106896420453912e-07,2.5440873721929713e-09
1668680673.9682813,42525,1668680673,968157409,,0.002281972831297612,-0.0026881142496445846,2.0931359806962914e-05,-5.223651092467905e-07,1.993429625077748e-07,2.5236952293575254e-09
1668680673.976305,42526,1668680673,976186431,,0.0024404557551430082,-0.0028747965811455247,2.078171325880622e-05,-5.2026501306116e-07,1.9761908135170554e-07,2.5031395099045506e-09
1668680673.9834507,42527,1668680673,983279503,,0.002603901547283766,-0.003067322403437763,2.0602037430115668e-05,-5.181580950828056e-07,1.9589837418474332e-07,2.4824241230334e-09
1668680673.9921227,42528,1668680673,991456685,,0.002772218234128374,-0.0032655831469376867,2.0395009493274755e-05,-5.160471396307336e-07,1.9418188817138624e-07,2.4615529900864908e-09
1668680673.9998448,42529,1668680673,999649731,,0.0029453110319654615,-0.0034694669192209993,2.0163148936263025e-05,-5.139349083426776e-07,1.9247066168604464e-07,2.440530051488199e-09
1668680674.0077443,42530,1668680674,7589088,,0.003123082799132028,-0.0036788588085593524,2.8722008627937514e-05,-5.118241331360183e-07,1.9076572193901776e-07,2.4193592624080495e-09
1668680674.0157237,42531,1668680674,15549429,,0.0033054343470366146,-0.003893641486177561,5.2893403494781115e-05,-5.097175095348508e-07,1.890680826844497e-07,2.3980445953628027e-09
1668680674.0235355,42532,1668680674,23379643,,0.003492264682531791,-0.004113695904324633,8.371030197864814e-05,-5.076176903047959e-07,1.8737874208076487e-07,2.3765900445532617e-09
1668680674.0317292,42533,1668680674,31579918,,0.003683471414897751,-0.004338901423629344,0.00011192599590833059,-5.055272794820219e-07,1.8569868063915418e-07,2.3549996362726144e-09
1668680674.0396705,42534,1668680674,39484326,,0.0038789509966753333,-0.0045691363273016716,0.00012176336132844037,-5.034488267445064e-07,1.8402885933185907e-07,2.3332774098244746e-09
1668680674.0477016,42535,1668680674,47526009,,0.004078599332539437,-0.004804277187879699,0.00012753316120607425,-5.013848221644914e-07,1.8237021782400043e-07,2.3114274366048404e-09
1668680674.0554173,42536,1668680674,55311561,,0.00428231167679154,-0.0050442002015151826,0.00013100232461183594,-4.993376913732739e-07,1.807236728090843e-07,2.289453814030562e-09
1668680674.0637734,42537,1668680674,63598494,,0.00448998297380296,-0.005288781168335612,0.00013393760582924906,-4.973097910753935e-07,1.7909011653031276e-07,2.2673606603351715e-09
1668680674.071814,42538,1668680674,71625006,,0.00470150849185974,-0.0055378945525964285,0.00017711462243076472,-4.953034049688746e-07,1.7747041538461938e-07,2.2451521336508407e-09
1668680674.0796802,42539,1668680674,79565398,,0.0049167829698186305,-0.005791416762554499,0.00023807976775260735,-4.933207400591969e-07,1.7586540868797982e-07,2.222832412926423e-09
1668680674.0876622,42540,1668680674,87563475,,0.005135701690249588,-0.006049223808932725,0.0003177063183795782,-4.913639233079174e-07,1.7427590754038767e-07,2.2004057204788596e-09
1668680674.0960703,42541,1668680674,95785968,,0.005358160538272065,-0.0063111918260669265,0.00042599983595732527,-4.894349986835599e-07,1.7270269387232575e-07,2.177876309850113e-09
1668680674.1037233,42542,1668680674,103509744,,0.005584055331370298,-0.006577199640291648,0.0005248948032476557,-4.87535924582338e-07,1.7114651954075835e-07,2.1552484675418926e-09
1668680674.112235,42543,1668680674,111827141,,0.005813283449447362,-0.006847124642184594,0.0006337642048165374,-4.856685715561829e-07,1.6960810560808252e-07,2.13252651128093e-09
1668680674.1197398,42544,1668680674,119624101,,0.0060571275321469435,-0.0071208431972035,0.0007830535422803543,-4.838898322840035e-07,1.6810696915091957e-07,2.1097122278324054e-09
1668680674.1276133,42545,1668680674,127486294,,0.006297819560150036,-0.007398237448104242,0.0009685993360358215,-4.821185726553698e-07,1.666154871327345e-07,2.086814072238541e-09
1668680674.1354232,42546,1668680674,135254941,,0.006538270199759011,-0.007679190056077081,0.0011638073139288855,-4.803687563033609e-07,1.651385011296148e-07,2.063835782828427e-09
1668680674.1436884,42547,1668680674,143582735,,0.0067814714751791814,-0.007963585616204999,0.0013412935061795433,-4.786568914765346e-07,1.6368172783148578e-07,2.0407811152783895e-09
1668680674.1517618,42548,1668680674,151582309,,0.007139710695008972,-0.008251278940688488,0.0017075536886808436,-4.776183989778474e-07,1.624625177538085e-07,2.0176313848818683e-09
1668680674.159779,42549,1668680674,159621400,,0.0075508238722176504,-0.008542169403971072,0.0021502360523103174,-4.769659643009115e-07,1.613829145267337e-07,1.9944062720766986e-09
1668680674.167648,42550,1668680674,167516302,,0.008167048023064128,-0.008836101916066125,0.0028479717808319845,-4.777004733967231e-07,1.6078553431036775e-07,1.9710829114727435e-09
1668680674.1755064,42551,1668680674,175318642,,0.008964333394453287,-0.009132971725923377,0.003666977794373154,-4.798928442826178e-07,1.6069527308706748e-07,1.9476773804871783e-09
1668680674.1838844,42552,1668680674,183694004,,0.00971863315161558,-0.009432726348511162,0.00441403448943776,-4.821608384574612e-07,1.6063964391175613e-07,1.924244139028808e-09
1668680674.191866,42553,1668680674,191683581,,0.010542898294492049,-0.009735227612149056,0.005189669713867106,-4.853211293846869e-07,1.608983130842092e-07,1.9007739965326564e-09
1668680674.199646,42554,1668680674,199541321,,0.011436595894273106,-0.010264504893704117,0.0060742337717414226,-4.901210978053305e-07,1.6172761512747887e-07,1.8772718934911836e-09
1668680674.2076933,42555,1668680674,207516438,,0.012183409928383621,-0.011109849979790627,0.0069927639269953676,-4.951347810118597e-07,1.6263983958545152e-07,1.8537844835575523e-09
1668680674.216343,42556,1668680674,216126180,,0.012837881666203933,-0.0120892463847418,0.007886206484335743,-5.002102244588383e-07,1.6358308315095414e-07,1.8303251206330806e-09
1668680674.2233727,42557,1668680674,223273156,,0.01353074733784806,-0.013054940699971455,0.008701600903704124,-5.060755662072611e-07,1.6480692059640204e-07,1.8069014409705098e-09
1668680674.2317984,42558,1668680674,231647724,,0.014183497688115424,-0.013967209878425143,0.00943539825090137,-5.117902405628425e-07,1.659894753588487e-07,1.7835332238869128e-09
1668680674.2398336,42559,1668680674,239660925,,0.014838215157545733,-0.014850153469946155,0.010096825665464925,-5.178230939918715e-07,1.672914766762644e-07,1.7602311067066445e-09
1668680674.248031,42560,1668680674,247834374,,0.015079049542793072,-0.016437317026770006,0.010635146309409529,-5.222186336258311e-07,1.6804305310040742e-07,1.7369856317173138e-09
1668680674.2556455,42561,1668680674,255412251,,0.01511566189764078,-0.01843373124532231,0.010934279379845752,-5.26061118510387e-07,1.6861535013016054e-07,1.7137973887249025e-09
1668680674.2638936,42562,1668680674,263736433,,0.015163266776386096,-0.020287481326313167,0.01118815726145724,-5.295962270322177e-07,1.6909249351789498e-07,1.6906703398378298e-09
1668680674.271652,42563,1668680674,271481215,,0.015116448869889006,-0.02228007574603637,0.011306869722269724,-5.326623281698222e-07,1.6941909248679304e-07,1.6676013625538388e-09
1668680674.2797556,42564,1668680674,279598439,,0.015033012261621627,-0.02462404952911144,0.011016196883135832,-5.369412517931783e-07,1.701715278727093e-07,1.6446503256495326e-09
1668680674.2877216,42565,1668680674,287571983,,0.01494277935613008,-0.027184303560818066,0.01044350421819539,-5.422874082931513e-07,1.7130044544552258e-07,1.6218418899538456e-09
1668680674.2957237,42566,1668680674,295571163,,0.014860821044163622,-0.029752614314099823,0.00974562766160102,-5.479745505385688e-07,1.7255743060958992e-07,1.5991695537231898e-09
1668680674.3033338,42567,1668680674,303234450,,0.014794619961760486,-0.03238436224008211,0.008891450323307695,-5.543931483195587e-07,1.7407659583213667e-07,1.5766714114850977e-09
1668680674.311746,42568,1668680674,311636971,,0.014751707614580145,-0.03479989917328013,0.008087172291832756,-5.602556624637826e-07,1.754170196171254e-07,1.5542900230758327e-09
1668680674.3198283,42569,1668680674,319667928,,0.014726656704637704,-0.03715517755666162,0.007228785532393009,-5.662366229401217e-07,1.768098619612992e-07,1.5320706717170118e-09
1668680674.327545,42570,1668680674,327418777,,0.014720711321674821,-0.0394025082069198,0.006370148159547495,-5.720876296581487e-07,1.7817016551827016e-07,1.510005551152993e-09
1668680674.3355763,42571,1668680674,335412315,,0.014734007542063405,-0.041501406531915086,0.005538339937351724,-5.775614647813838e-07,1.7941327707889955e-07,1.488079319489355e-09
1668680674.3437898,42572,1668680674,343601986,,0.014766760752715909,-0.04341099533463134,0.004761383416495992,-5.82393893923882e-07,1.8044860111915764e-07,1.46626679548012e-09
1668680674.3516865,42573,1668680674,351562909,,0.014817330425849831,-0.04516915102885341,0.004021428071252254,-5.86730921159058e-07,1.813260517459633e-07,1.4445758200754e-09
1668680674.3599842,42574,1668680674,359846912,,0.014884756123067822,-0.04643653234586359,0.0034026309382488413,-5.885329614171747e-07,1.8134633808411082e-07,1.422775300352619e-09
1668680674.3676343,42575,1668680674,367465404,,0.015369355789053426,-0.04683795726129546,0.0029137894864582578,-5.925306662191892e-07,1.821302113337326e-07,1.4013736976403735e-09
1668680674.3759518,42576,1668680674,375776158,,0.01604913727962319,-0.04678771936681637,0.002504329567050924,-5.97364919148306e-07,1.8321279660971426e-07,1.3802601284140792e-09
1668680674.3837268,42577,1668680674,383484107,,0.01721170922320461,-0.04594019035263281,0.0022350691321491325,-6.0623597967211e-07,1.856917071995333e-07,1.3599027945399023e-09
1668680674.3917387,42578,1668680674,391537013,,0.01830161855089285,-0.04513144672544025,0.001982623025371723,-6.142358940241133e-07,1.878863549133105e-07,1.3397036049966893e-09
1668680674.4002056,42579,1668680674,399432986,,0.01959589433931084,-0.043952760133129556,0.0018058381821605702,-6.239931395982806e-07,1.9069763107135672e-07,1.3200578061201007e-09
1668680674.4077492,42580,1668680674,407634885,,0.020744368958110822,-0.043032231011287496,0.001623533889470802,-6.328530878359174e-07,1.9321649003607895e-07,1.3005895319051497e-09
1668680674.4156473,42581,1668680674,415491879,,0.02197057529100533,-0.04244786798339033,0.00127523339838641,-6.457955457201932e-07,1.97149882891429e-07,1.2821534250972988e-09
1668680674.4234393,42582,1668680674,423201293,,0.02319371892069161,-0.042041267931811184,0.0008581975220513621,-6.602853768989617e-07,2.0163094464724363e-07,1.2644173486009436e-09
1668680674.4316158,42583,1668680674,431470190,,0.02433049672726896,-0.04164969205049717,0.00047241099863695485,-6.734434143943662e-07,2.0567374530680756e-07,1.246884935579562e-09
1668680674.440133,42584,1668680674,439927776,,0.02498900797342095,-0.042344605999908615,6.570913906120303e-05,-6.843760840197569e-07,2.0897159872597555e-07,1.229347845743689e-09
1668680674.4477174,42585,1668680674,447613949,,0.02513384523601592,-0.04383182830575615,-0.00033593345000237305,-6.898996896139938e-07,2.104322264868605e-07,1.2110616745553138e-09
1668680674.455868,42586,1668680674,455724510,,0.02502704326873262,-0.04563980932074726,-0.0007194098910130486,-6.921387171229657e-07,2.1078115031137289e-07,1.192342564959592e-09
1668680674.463382,42587,1668680674,463273825,,0.02481809413554431,-0.0478099390878294,-0.0012825781088280884,-6.947158847361249e-07,2.112585241859609e-07,1.1739511932007396e-09
1668680674.471905,42588,1668680674,471774067,,0.024635495950174054,-0.04978346750871062,-0.0017986239038910916,-6.963153316420995e-07,2.1141353620285526e-07,1.155577952771658e-09
1668680674.479795,42589,1668680674,479672821,,0.024414975068849633,-0.051851246109297804,-0.002382138796025561,-6.976655651123246e-07,2.114954401652002e-07,1.1373859215568771e-09
1668680674.48762,42590,1668680674,487472884,,0.024358485482603436,-0.05417254785277195,-0.0033574368387101487,-7.047604112007206e-07,2.135588813222903e-07,1.1210013056706103e-09
1668680674.4953892,42591,1668680674,495262082,,0.024600618039495828,-0.056636798550166845,-0.0046785563502570945,-7.20153212676114e-07,2.184825531406382e-07,1.1073548328299765e-09
1668680674.5040886,42592,1668680674,503877054,,0.024836124455079826,-0.05886642645207527,-0.005885891300934075,-7.336815835541307e-07,2.227878411766547e-07,1.093755058745316e-09
1668680674.5116897,42593,1668680674,511547320,,0.025214152033353105,-0.06106790334895616,-0.007213414985966018,-7.506899641049922e-07,2.2830597048561357e-07,1.0817940848673047e-09
1668680674.5199857,42594,1668680674,519768194,,0.0256549962462805,-0.06323724582340874,-0.008536492953971695,-7.69268983919684e-07,2.3438484583531913e-07,1.0710088926835226e-09
1668680674.5284004,42595,1668680674,528034072,,0.026160496368070007,-0.06523651619728096,-0.009750958661823779,-7.883424101767572e-07,2.4065691913311565e-07,1.0611226619605674e-09
1668680674.5355418,42596,1668680674,535332223,,0.026684388565129894,-0.06705104071364229,-0.010857079239815378,-8.065401461487343e-07,2.4665331749100516e-07,1.0517041126867355e-09
1668680674.5437818,42597,1668680674,543583211,,0.027178045688480826,-0.06866500292187872,-0.011854109787191017,-8.223172225467739e-07,2.518443783651285e-07,1.0421866286636217e-09
1668680674.5517068,42598,1668680674,551590490,,0.027664034919869972,-0.06991071903708987,-0.012503214667982404,-8.346576711036786e-07,2.5588069092015095e-07,1.032114338439527e-09
1668680674.560214,42599,1668680674,559563806,,0.028133242949484313,-0.07090059829018627,-0.01294623617395931,-8.442141119597776e-07,2.5898392854968935e-07,1.0216144596952859e-09
1668680674.5676568,42600,1668680674,567460758,,0.02865691884420969,-0.07162921896016819,-0.013178308522915171,-8.529032246914082e-07,2.6180931051019915e-07,1.0113510584552898e-09
1668680674.5754004,42601,1668680674,575251067,,0.029509374074401237,-0.07233908676733022,-0.01349647276626464,-8.70978851344093e-07,2.678706418428843e-07,1.0055448695922564e-09
1668680674.5838895,42602,1668680674,583695609,,0.030302859713191167,-0.07292842263963409,-0.013762662604890364,-8.863385971476798e-07,2.7302708925538814e-07,9.994325228523948e-10
1668680674.5943027,42603,1668680674,591577013,,0.03123218113137433,-0.0734602898156746,-0.014049618346183432,-9.053518714260316e-07,2.794599093726858e-07,9.957369095925372e-10
1668680674.6006782,42604,1668680674,600502631,,0.032390363102055154,-0.07428926627264174,-0.014679190924724793,-9.345370857165736e-07,2.894058764707757e-07,9.976275638923227e-10
1668680674.608284,42605,1668680674,608164872,,0.03342461298379415,-0.07545647129460269,-0.01548490164645332,-9.637002830017094e-07,2.99379662546239e-07,1.000775046167135e-09
1668680674.615853,42606,1668680674,615650855,,0.03436061357122467,-0.07671227015802307,-0.016330516306004284,-9.91020780517814e-07,3.0875813117879104e-07,1.0043253589886447e-09
1668680674.6238177,42607,1668680674,623609761,,0.03522413522670317,-0.07779891131977794,-0.017076789621368077,-1.014502590788893e-06,3.1685669871781355e-07,1.0072183642684251e-09
1668680674.6318233,42608,1668680674,631676048,,0.03623584544961388,-0.07924460021226239,-0.01792814955991587,-1.0469440891950482e-06,3.28058097607848e-07,1.0159684482591302e-09
1668680674.639762,42609,1668680674,639619547,,0.03728087794369881,-0.08077556170779546,-0.018781242383826634,-1.0818534342484e-06,3.401458452216826e-07,1.0275663792080891e-09
1668680674.6476135,42610,1668680674,647504363,,0.03766575904519324,-0.08199482809051813,-0.01844738651554189,-1.090741109760181e-06,3.4336248174869806e-07,1.026376067470025e-09
1668680674.6558383,42611,1668680674,655703083,,0.03762049538385322,-0.08286967260524412,-0.01731962441443533,-1.0806527412933996e-06,3.401003802487503e-07,1.0151117446621782e-09
1668680674.663761,42612,1668680674,663549151,,0.037366443117929575,-0.08350629271167584,-0.015831971547711415,-1.0605403712199857e-06,3.3340986782277177e-07,9.980718057578386e-10
1668680674.6725287,42613,1668680674,672304652,,0.037131390675381654,-0.08401282679877367,-0.01443043072245575,-1.0396745118311426e-06,3.264581337491818e-07,9.8036037621263e-10
1668680674.6802278,42614,1668680674,680111376,,0.03685906194200346,-0.08438112278264913,-0.012582203018830115,-1.0160579958583922e-06,3.1856018913706784e-07,9.60695481500018e-10
1668680674.6877773,42615,1668680674,687650769,,0.03674633486429386,-0.08445632880782983,-0.010541974944490027,-9.94882525103707e-07,3.1149245684290033e-07,9.422615188103833e-10
1668680674.695475,42616,1668680674,695323165,,0.03671726650043251,-0.08434847543582015,-0.008476719473488614,-9.747022935803267e-07,3.047617142845453e-07,9.24234438981486e-10
1668680674.7037766,42617,1668680674,703604998,,0.03669293662794977,-0.0841700504847557,-0.006557917884502681,-9.540172806738042e-07,2.9785482508377925e-07,9.056550370756256e-10
1668680674.712628,42618,1668680674,712422011,,0.03683857579896115,-0.0838425495517992,-0.004796793729373336,-9.376416579931317e-07,2.924210559785388e-07,8.898245196231613e-10
1668680674.7202835,42619,1668680674,720175502,,0.03706315269211419,-0.08341911662861343,-0.0031756166725815335,-9.229907592056769e-07,2.8757845675240687e-07,8.751330077272357e-10
1668680674.7284818,42620,1668680674,728325350,,0.03732285869615361,-0.0829303068285377,-0.001731301751579794,-9.088869801252919e-07,2.829249480596537e-07,8.608154883349428e-10
1668680674.7360814,42621,1668680674,735919831,,0.037608969457652255,-0.08246990054564252,-0.0001724304458456526,-8.960113944422605e-07,2.7869438532748987e-07,8.474052570761614e-10
1668680674.7440462,42622,1668680674,743896000,,0.03789901916414912,-0.08200707395995271,0.0013827874620217801,-8.832687852644702e-07,2.7451246017041325e-07,8.341350665741487e-10
1668680674.7518356,42623,1668680674,751653032,,0.038169437791648435,-0.08150986758927976,0.0028123118435499288,-8.695306231126364e-07,2.6999247540828754e-07,8.201378187688846e-10
1668680674.7598224,42624,1668680674,759684348,,0.03843093728890223,-0.08105472012367257,0.004383276841227331,-8.559625219801059e-07,2.6553301011840794e-07,8.062865652913587e-10
1668680674.7676797,42625,1668680674,767577757,,0.03853521856809159,-0.08072764794674218,0.006026729039818402,-8.384237943173146e-07,2.5971498137972344e-07,7.892422548838596e-10
1668680674.7755733,42626,1668680674,775423322,,0.03856067536486595,-0.08044452206337255,0.007636680434947573,-8.187492907510592e-07,2.53163733930032e-07,7.703183507734579e-10
1668680674.7833195,42627,1668680674,783190618,,0.038537113400816767,-0.08034884855029435,0.009376531518584117,-7.994306085555439e-07,2.467313698784751e-07,7.515047334427649e-10
1668680674.7918704,42628,1668680674,791708431,,0.038520016133692714,-0.08019589263388235,0.010960356308197418,-7.798386043449427e-07,2.402025110427499e-07,7.322787515251505e-10
1668680674.799645,42629,1668680674,799536393,,0.038482822259259586,-0.08011295457307571,0.012541457849362295,-7.603747962941923e-07,2.337145147846692e-07,7.129776907754959e-10
1668680674.8080015,42630,1668680674,807882601,,0.03859316904386893,-0.08011035141049208,0.014140201430776761,-7.467134374071699e-07,2.2921260542808214e-07,6.986685813226146e-10
1668680674.8159792,42631,1668680674,815809317,,0.038628204240337354,-0.08015714946470362,0.015674482383268837,-7.310495523356678e-07,2.2402617128199596e-07,6.825499193618967e-10
1668680674.8239148,42632,1668680674,823665905,,0.03862847682675554,-0.08019733385006407,0.017103755004656423,-7.142003258403008e-07,2.1843356085536614e-07,6.652768058668102e-10
1668680674.8317392,42633,1668680674,831598083,,0.03863567368061611,-0.0801725710752452,0.018386306979161313,-6.969948818292713e-07,2.127179362528507e-07,6.475700115027294e-10
1668680674.8406014,42634,1668680674,840415408,,0.03901144118064044,-0.08025029528844972,0.01956729631479972,-6.930563863910685e-07,2.1154951041543052e-07,6.424643178570832e-10
1668680674.8483331,42635,1668680674,848160194,,0.0397572350663462,-0.08025509589047285,0.020624523458608702,-7.007017203132212e-07,2.1436250840123523e-07,6.489825898903234e-10
1668680674.856414,42636,1668680674,856220576,,0.0406583334788561,-0.08019585259291927,0.021562063398892377,-7.129659974130717e-07,2.1877887995506995e-07,6.608082830927842e-10
1668680674.8632913,42637,1668680674,863124144,,0.04127733518734344,-0.07990461274393146,0.02235472344627609,-7.133590661716031e-07,2.191494633315555e-07,6.615563374889888e-10
1668680674.871468,42638,1668680674,871364902,,0.04185163762962157,-0.07957782992828356,0.02304057670720004,-7.118563020704028e-07,2.1888399145031552e-07,6.608551900155746e-10
1668680674.8797128,42639,1668680674,879526616,,0.04226979836247234,-0.07912583979581814,0.023611809989251647,-7.037256131459677e-07,2.1635854392343216e-07,6.536753499597481e-10
1668680674.887707,42640,1668680674,887592368,,0.04283824704204424,-0.07871471660720514,0.024110624804789114,-7.011915308998426e-07,2.1575817184802705e-07,6.526326701283836e-10
1668680674.8953838,42641,1668680674,895198008,,0.04363043417390575,-0.07839840619998924,0.024619699564378084,-7.073588130621263e-07,2.1815217680519125e-07,6.613650599396337e-10
1668680674.9037583,42642,1668680674,903572207,,0.04436156595692891,-0.07805353319505844,0.025039914188419467,-7.111261580939818e-07,2.1974242354156834e-07,6.681808439878978e-10
1668680674.9116654,42643,1668680674,911528429,,0.045176007719362324,-0.07774543496590754,0.02542920749549113,-7.18209546797478e-07,2.2248643038189422e-07,6.793182405484544e-10
1668680674.919766,42644,1668680674,919622535,,0.04592249482555969,-0.07733329785813017,0.025864967095923293,-7.218465289558426e-07,2.2406895748474515e-07,6.87318812975235e-10
1668680674.9275904,42645,1668680674,927465948,,0.04649094581719859,-0.07706187830604384,0.02626037286730873,-7.205788729720787e-07,2.2398710640501168e-07,6.903297794513819e-10
1668680674.9356604,42646,1668680674,935535282,,0.04695016467799953,-0.07684665088109477,0.026596481358539172,-7.1595811987422e-07,2.2276833035054025e-07,6.898987214842833e-10
1668680674.943405,42647,1668680674,943289587,,0.047584427528032366,-0.0768315017713148,0.026871579382333165,-7.196719587208075e-07,2.244162342853774e-07,6.996841578343904e-10
1668680674.9516265,42648,1668680674,951530735,,0.04816520578495774,-0.07677003306910603,0.02707190711149117,-7.209465262204189e-07,2.2524507602757898e-07,7.071929014612621e-10
1668680674.959663,42649,1668680674,959527349,,0.04880932209359988,-0.07678858412150429,0.027212930018235246,-7.253293312225887e-07,2.271543813442932e-07,7.190665146650232e-10
1668680674.9677048,42650,1668680674,967543735,,0.0493309884493696,-0.0767639287851165,0.027275137460749433,-7.247430948004435e-07,2.2737814693628636e-07,7.254749578855524e-10
1668680674.9758704,42651,1668680674,975716678,,0.050049723166749195,-0.07672160368941626,0.0274509730263284,-7.312135521675032e-07,2.3003422063364032e-07,7.412677971441184e-10
1668680674.9837706,42652,1668680674,983658697,,0.05083414049598198,-0.07665118645324082,0.027649936036758003,-7.398289747759029e-07,2.3344552394942084e-07,7.605793772569314e-10
1668680674.9915667,42653,1668680674,991465945,,0.05154916508609577,-0.07654150608616417,0.02777860312500323,-7.454348741758616e-07,2.3584727572171019e-07,7.768643367489503e-10
1668680674.9996316,42654,1668680674,999430780,,0.05225414262186216,-0.0763909274164859,0.02789010520796493,-7.502213900751004e-07,2.3798748022578128e-07,7.928365325371445e-10
1668680675.007797,42655,1668680675,7617889,,0.05273731860226356,-0.07618852818386947,0.02850326862278459,-7.460192203102758e-07,2.3706512250693326e-07,7.97563889931574e-10
1668680675.015751,42656,1668680675,15569952,,0.053089666736556,-0.07594882929393881,0.029310837305527367,-7.364238853112791e-07,2.343039218330109e-07,7.953911834723826e-10
1668680675.0235958,42657,1668680675,23424468,,0.05340423217183489,-0.07568643538917284,0.029996676843851124,-7.251573459338394e-07,2.3097433426294556e-07,7.911102606339426e-10
1668680675.031672,42658,1668680675,31480861,,0.05384919138153708,-0.07563635881819843,0.030643457614906916,-7.211164980998721e-07,2.3012445850940574e-07,7.969968712773223e-10
1668680675.039644,42659,1668680675,39462969,,0.054335910644558214,-0.0756728255682873,0.031218325414281496,-7.195549691104254e-07,2.3013435417615705e-07,8.067787132803872e-10
1668680675.0477605,42660,1668680675,47597451,,0.055080997267328624,-0.07587346821969022,0.03169695466016046,-7.296511139937619e-07,2.3415274404093786e-07,8.33725394278062e-10
1668680675.0558317,42661,1668680675,55645510,,0.05573081284189294,-0.07597921712803934,0.03227968047359892,-7.350162299092069e-07,2.3657328403420622e-07,8.547789698276631e-10
1668680675.0634046,42662,1668680675,63250583,,0.056304159598250816,-0.07601573481694993,0.03286137341697528,-7.36614576722942e-07,2.3772193919000678e-07,8.710821092217103e-10
1668680675.0717537,42663,1668680675,71584134,,0.0568185942666762,-0.07601019136604305,0.033332213922008136,-7.354056155133709e-07,2.3792386369143187e-07,8.838425824553298e-10
1668680675.079657,42664,1668680675,79542344,,0.057768893240442334,-0.07608181512912846,0.03379445769208447,-7.522396248027703e-07,2.443232675463508e-07,9.243567855587997e-10
1668680675.0877342,42665,1668680675,87587420,,0.05884366426880737,-0.07623481053558519,0.03427304706976828,-7.749946038292446e-07,2.5278328403535374e-07,9.751947999125932e-10
1668680675.0955627,42666,1668680675,95396165,,0.05993006005099591,-0.07640399864334212,0.034708946766372095,-7.985133398261471e-07,2.61542542950334e-07,1.0287493773519785e-09
1668680675.1042275,42667,1668680675,104089551,,0.06091156779904299,-0.07652152471283347,0.03504188117259395,-8.172745145961294e-07,2.6870992080431713e-07,1.076421465850963e-09
1668680675.112223,42668,1668680675,112082463,,0.06156671819585361,-0.07667953900073288,0.035058511177081496,-8.230065808715378e-07,2.714460704540504e-07,1.104769734028288e-09
1668680675.1198716,42669,1668680675,119677219,,0.062028077507870934,-0.07683340183877746,0.03488787214116907,-8.205693498757397e-07,2.7140302541559663e-07,1.1208137890017511e-09
1668680675.1284456,42670,1668680675,128154898,,0.0629151557587962,-0.07721749038813425,0.03461231645918576,-8.38397953116716e-07,2.7831738612458384e-07,1.1704839736337291e-09
1668680675.135625,42671,1668680675,135457610,,0.06395262956388145,-0.07811659401831438,0.03424647877789782,-8.682987385256764e-07,2.894027215445856e-07,1.2415358879858118e-09
1668680675.1433704,42672,1668680675,143258475,,0.06501236781530356,-0.0792137624425011,0.03381859914041214,-9.014533577110561e-07,3.016502552674605e-07,1.3199983744938137e-09
1668680675.1518145,42673,1668680675,151660503,,0.06596179358530888,-0.08018267962787073,0.0333578938248539,-9.284466183049223e-07,3.118378569108224e-07,1.3901297335472407e-09
1668680675.1598637,42674,1668680675,159717757,,0.06676568972492719,-0.08140035686047126,0.03246453747844234,-9.518545399652767e-07,3.208422050616014e-07,1.4559822791859744e-09
1668680675.1676054,42675,1668680675,167503096,,0.06746633155815554,-0.0826744651445175,0.03131749795692703,-9.712134434083485e-07,3.285009880188254e-07,1.5165314837251032e-09
1668680675.1766112,42676,1668680675,176444417,,0.0680756816682635,-0.083905216423596,0.030061850668129098,-9.858140231875116e-07,3.3456705218022284e-07,1.5702698585862152e-09
1668680675.1833062,42677,1668680675,183158382,,0.06860038993125847,-0.08507199585280935,0.02877021121869352,-9.956466515372757e-07,3.390319877928649e-07,1.616869305109958e-09
1668680675.1918979,42678,1668680675,191713444,,0.06905210828265855,-0.08609510055341256,0.027524068334937615,-1.000274094248299e-06,3.4174068782623357e-07,1.6552189896490432e-09
1668680675.1997492,42679,1668680675,199616873,,0.06943346237934048,-0.0870278974257494,0.026281957816055395,-1.0004176890869012e-06,3.429343111804699e-07,1.6862870266809438e-09
1668680675.210536,42680,1668680675,207621736,,0.06974582264034872,-0.08784815604553982,0.02509159308049058,-9.958822095360552e-07,3.425406977430531e-07,1.7094006210527368e-09
1668680675.2154555,42681,1668680675,215269273,,0.07013414134878619,-0.08853154114234078,0.023868253304713073,-9.930601561346534e-07,3.4274439918505206e-07,1.7362592197311955e-09
1668680675.223838,42682,1668680675,223621272,,0.07045894295921458,-0.08910388366594824,0.022694691170069267,-9.858526645612495e-07,3.414578791352714e-07,1.7553673514747459e-09
1668680675.2316425,42683,1668680675,231454362,,0.07079568191238321,-0.08956446010173202,0.021528406748194832,-9.777624760941859e-07,3.3987588517365996e-07,1.77316863969601e-09
1668680675.239911,42684,1668680675,239781704,,0.07121479756565102,-0.09026247263876418,0.020529276483051754,-9.760702632989485e-07,3.4049177915964485e-07,1.8038111559981473e-09
1668680675.2478735,42685,1668680675,247747225,,0.07159294776487658,-0.09102157814282427,0.019340670480224968,-9.729831336554489e-07,3.406432972446159e-07,1.8323566275402214e-09
1668680675.2556446,42686,1668680675,255418366,,0.07192017848431756,-0.09175314477907476,0.01808768797975849,-9.670101690539053e-07,3.398179014013625e-07,1.8557254066742246e-09
1668680675.26416,42687,1668680675,263926694,,0.07218719883913939,-0.09236501774260743,0.01689827008784697,-9.566760311109559e-07,3.375065215391153e-07,1.8707247140259398e-09
1668680675.2717783,42688,1668680675,271566916,,0.07239866734446494,-0.0927845308573445,0.015601039419202281,-9.414163909145495e-07,3.335103280145864e-07,1.875882532642592e-09
1668680675.2796552,42689,1668680675,279530800,,0.0725587514935828,-0.09306475255438867,0.014286069969953932,-9.221015866920637e-07,3.281212739903762e-07,1.87264129203335e-09
1668680675.287728,42690,1668680675,287605404,,0.0729265810723593,-0.09336386930896115,0.013022627033057243,-9.1269933215842e-07,3.261200602244947e-07,1.889963546775064e-09
1668680675.2955327,42691,1668680675,295344524,,0.0732725797546645,-0.09362505661640601,0.01184336926946209,-9.017531224069777e-07,3.2359344015681427e-07,1.9042883936393196e-09
1668680675.30412,42692,1668680675,303851034,,0.07355626053667018,-0.0938013481726624,0.010734146109235562,-8.868534345311254e-07,3.1971377398992695e-07,1.9103369719442043e-09
1668680675.3116572,42693,1668680675,311516806,,0.07380441743029299,-0.0939259039566531,0.009696147854974479,-8.696736485636026e-07,3.1504937481703285e-07,1.9114434202105457e-09
1668680675.3196511,42694,1668680675,319538455,,0.07408956924356137,-0.09431484685268482,0.008581863279364266,-8.571506741983197e-07,3.119742472564545e-07,1.9226346070766454e-09
1668680675.3278933,42695,1668680675,327695568,,0.07431860026188306,-0.09500187567359793,0.007508773308014765,-8.451891873289662e-07,3.0909080433886085e-07,1.9351734936723375e-09
1668680675.3356154,42696,1668680675,335473764,,0.07449538622838078,-0.09577684945832593,0.006489677750468696,-8.315955764409948e-07,3.0564795821304974e-07,1.9441845355849807e-09
1668680675.3436944,42697,1668680675,343537961,,0.07462263195995252,-0.09642338428099155,0.005538591476338324,-8.141228179419291e-07,3.008735331997206e-07,1.9444578724936434e-09
1668680675.3517127,42698,1668680675,351480819,,0.0746935930421982,-0.09692091632245521,0.0046423827587618914,-7.922932175387929e-07,2.945987754563763e-07,1.934610999176911e-09
1668680675.3597445,42699,1668680675,359574035,,0.07471858803154424,-0.09729409357454862,0.0038033836763806156,-7.669439064575791e-07,2.871048578119602e-07,1.9162530728866756e-09
1668680675.3682342,42700,1668680675,368102097,,0.07476801951977333,-0.0975559254588537,0.002976225484327208,-7.415991626904487e-07,2.7959490942527226e-07,1.8973504989361345e-09
1668680675.3758929,42701,1668680675,375772836,,0.07487409078200061,-0.09793312767111868,0.002084295327328632,-7.202141020521205e-07,2.7342427073471717e-07,1.8872283458204464e-09
1668680675.3833885,42702,1668680675,383228191,,0.07498707697624214,-0.09831915704294546,0.0011939751048898742,-6.992587605805095e-07,2.67388048431471e-07,1.877752286993939e-09
1668680675.391754,42703,1668680675,391612060,,0.07505688317169694,-0.09860371060598248,0.0003719151774909827,-6.752220341437864e-07,2.6028327143210947e-07,1.8604912332964574e-09
1668680675.4002588,42704,1668680675,399989888,,0.07523902546620988,-0.09863404685318594,9.880210661943832e-05,-6.538397046567009e-07,2.540717567050578e-07,1.8491610742632503e-09
1668680675.407672,42705,1668680675,407425675,,0.0753729435516654,-0.09858484211296209,0.00020922277155886894,-6.294563455825622e-07,2.4681832953192887e-07,1.8300573001450715e-09
1668680675.4154668,42706,1668680675,415343729,,0.07546320210695193,-0.09846543314098229,0.000501203452439325,-6.024430876474564e-07,2.3864621403286643e-07,1.803872995420619e-09
1668680675.4237866,42707,1668680675,423596898,,0.0755126559191031,-0.09828495159400132,0.0007692256719600318,-5.730865719451653e-07,2.296501467663123e-07,1.7711260791308803e-09
1668680675.4317467,42708,1668680675,431608192,,0.07601733595851984,-0.09818501829721486,0.0012202408324895856,-5.659051424188131e-07,2.2823157925068796e-07,1.7936125640272138e-09
1668680675.4398952,42709,1668680675,439747442,,0.07670877702867622,-0.09809508108427621,0.0017431254688698,-5.675279670356876e-07,2.2983490221683417e-07,1.8388147116077391e-09
1668680675.4476905,42710,1668680675,447560372,,0.07729066824985543,-0.09789490799754506,0.00233188043008246,-5.628704111038281e-07,2.2930027644913267e-07,1.8685166192078384e-09
1668680675.455472,42711,1668680675,455326003,,0.07800234069605544,-0.09734977165936327,0.0030320761941934433,-5.608113590872647e-07,2.2966332600526246e-07,1.9053414401781765e-09
1668680675.4638784,42712,1668680675,463694114,,0.07862083885049438,-0.09678020088474598,0.003670931822585817,-5.541707103985574e-07,2.2846605132222086e-07,1.9306352905257285e-09
1668680675.4718432,42713,1668680675,471710610,,0.07926475214497873,-0.09603476186429628,0.004338079038389684,-5.470314644285493e-07,2.2710217073475952e-07,1.9548706542416028e-09
1668680675.4798317,42714,1668680675,479633897,,0.08007846608735618,-0.09538132742486656,0.004618427185515281,-5.489489360183683e-07,2.2884636137997239e-07,2.003543886353043e-09
