Time,header.seq,header.stamp.secs,header.stamp.nsecs,header.frame_id,wrench.force.x,wrench.force.y,wrench.force.z,wrench.torque.x,wrench.torque.y,wrench.torque.z
1668680672.8401396,42384,1668680672,839593787,,-6.384079639652847e-191,-3.0416570465943155e-204,5e-324,5e-324,-5e-324,0.0
1668680672.848481,42385,1668680672,848289193,,-3.377674863554202e-191,-1.6092732437142333e-204,5e-324,5e-324,-5e-324,0.0
1668680672.8558335,42386,1668680672,855612516,,-1.787052813850279e-191,-8.514307606882355e-205,5e-324,5e-324,-5e-324,0.0
1668680672.8633878,42387,1668680672,863224822,,-1.787052813850279e-191,-8.514307606882355e-205,5e-324,5e-324,-5e-324,0.0
1668680672.8717556,42388,1668680672,871556842,,-9.454899860105949e-192,-4.504731207566623e-205,5e-324,5e-324,-5e-324,0.0
1668680672.8797238,42389,1668680672,879517270,,-5.0023776953757725e-192,-2.3833533141346176e-205,5e-324,5e-324,-5e-324,0.0
1668680672.8876555,42390,1668680672,887460033,,-2.6466470271968188e-192,-1.2609793477699867e-205,5e-324,5e-324,-5e-324,0.0
1668680672.8965476,42391,1668680672,896315956,,-1.4002822084076101e-192,-6.67156189589023e-206,5e-324,5e-324,-5e-324,0.0
1668680672.9038694,42392,1668680672,903630361,,-1.4002822084076101e-192,-6.67156189589023e-206,5e-324,5e-324,-5e-324,0.0
1668680672.912098,42393,1668680672,911866890,,-7.408582417806026e-193,-3.52977534560014e-206,5e-324,5e-324,-5e-324,0.0
1668680672.9209833,42394,1668680672,920749490,,-3.9197165479836917e-193,-1.86752580352761e-206,5e-324,5e-324,-5e-324,0.0
1668680672.9275548,42395,1668680672,927413630,,-2.073835040237985e-193,-9.880664590138293e-207,5e-324,5e-324,-5e-324,0.0
1668680672.935693,42396,1668680672,935507228,,-1.0972200977979438e-193,-5.227640365578989e-207,5e-324,5e-324,-5e-324,0.0
1668680672.943485,42397,1668680672,943259667,,-1.0972200977979438e-193,-5.227640365578989e-207,5e-324,5e-324,-5e-324,0.0
1668680672.951908,42398,1668680672,951653275,,-5.805148045302463e-194,-2.7658285070324742e-207,5e-324,5e-324,-5e-324,0.0
1668680672.959807,42399,1668680672,959606563,,-3.0713750044783546e-194,-1.463338484545164e-207,5e-324,5e-324,-5e-324,0.0
1668680672.968023,42400,1668680672,967760976,,-1.6249963557377135e-194,-7.742199181569846e-208,5e-324,5e-324,-5e-324,0.0
1668680672.9756193,42401,1668680672,975350693,,-1.6249963557377135e-194,-7.742199181569846e-208,5e-324,5e-324,-5e-324,0.0
1668680672.983854,42402,1668680672,983600127,,-8.597495103367667e-195,-4.096225774157229e-208,5e-324,5e-324,-5e-324,0.0
1668680672.9918575,42403,1668680672,991570734,,-4.548743865882351e-195,-2.167222154760914e-208,5e-324,5e-324,-5e-324,0.0
1668680672.9997911,42404,1668680672,999545709,,-2.40663943493234e-195,-1.146629147670183e-208,5e-324,5e-324,-5e-324,0.0
1668680673.007964,42405,1668680673,7660386,,-1.2732995175247035e-195,-6.066560363452418e-209,5e-324,5e-324,-5e-324,0.0
1668680673.0160115,42406,1668680673,15789692,,-1.2732995175247035e-195,-6.066560363452418e-209,5e-324,5e-324,-5e-324,0.0
1668680673.0238483,42407,1668680673,23600390,,-6.73674518000335e-196,-3.209682460819321e-209,5e-324,5e-324,-5e-324,0.0
1668680673.0321155,42408,1668680673,31845427,,-3.5642623746944025e-196,-1.6981717616056776e-209,5e-324,5e-324,-5e-324,0.0
1668680673.0400202,42409,1668680673,39747974,,-1.885772125294468e-196,-8.98464993692491e-210,5e-324,5e-324,-5e-324,0.0
1668680673.0489202,42410,1668680673,48607146,,-9.977201829431862e-197,-4.753578896681078e-210,5e-324,5e-324,-5e-324,0.0
1668680673.0557752,42411,1668680673,55470409,,-5.2787160765606487e-197,-2.515013104083784e-210,5e-324,5e-324,-5e-324,0.0
1668680673.0641093,42412,1668680673,63887374,,-5.2787160765606487e-197,-2.515013104083784e-210,5e-324,5e-324,-5e-324,0.0
1668680673.0724666,42413,1668680673,72227985,,-2.792851532254367e-197,-1.3306376208732821e-210,5e-324,5e-324,-5e-324,0.0
1668680673.0797796,42414,1668680673,79533452,,-1.477635767502327e-197,-7.040108360502298e-211,5e-324,5e-324,-5e-324,0.0
1668680673.0877233,42415,1668680673,87520463,,-7.817842932881441e-198,-3.724765101341915e-211,5e-324,5e-324,-5e-324,0.0
1668680673.0962543,42416,1668680673,95989138,,-4.136247204310316e-198,-1.9706905561301296e-211,5e-324,5e-324,-5e-324,0.0
1668680673.103474,42417,1668680673,103212741,,-4.136247204310316e-198,-1.9706905561301296e-211,5e-324,5e-324,-5e-324,0.0
1668680673.1117563,42418,1668680673,111509728,,-2.1883966053100497e-198,-1.0426486402112535e-211,5e-324,5e-324,-5e-324,0.0
1668680673.1197155,42419,1668680673,119468851,,-1.1578320795579933e-198,-5.516422573563045e-212,5e-324,5e-324,-5e-324,0.0
1668680673.1278334,42420,1668680673,127584574,,-6.1258325899461725e-199,-2.918616764699396e-212,5e-324,5e-324,-5e-324,0.0
1668680673.1358602,42421,1668680673,135634138,,-3.2410420805037857e-199,-1.5441753610406252e-212,5e-324,5e-324,-5e-324,0.0
1668680673.1435866,42422,1668680673,143385362,,-3.2410420805037857e-199,-1.5441753610406252e-212,5e-324,5e-324,-5e-324,0.0
1668680673.1517372,42423,1668680673,151525928,,-1.714763440456444e-199,-8.169889156004128e-213,5e-324,5e-324,-5e-324,0.0
1668680673.1599426,42424,1668680673,159673673,,-9.072432827743367e-200,-4.322507048449002e-213,5e-324,5e-324,-5e-324,0.0
1668680673.1676414,42425,1668680673,167427359,,-4.800022876158713e-200,-2.2869425554152357e-213,5e-324,5e-324,-5e-324,0.0
1668680673.1756585,42426,1668680673,175393407,,-4.800022876158713e-200,-2.2869425554152357e-213,5e-324,5e-324,-5e-324,0.0
1668680673.1839392,42427,1668680673,183733094,,-2.539585582953043e-200,-1.2099705548533067e-213,5e-324,5e-324,-5e-324,0.0
1668680673.1919062,42428,1668680673,191667708,,-1.343638374137135e-200,-6.401685692302831e-214,5e-324,5e-324,-5e-324,0.0
1668680673.200292,42429,1668680673,199995186,,-7.108892460928987e-201,-3.3869898353025014e-214,5e-324,5e-324,-5e-324,0.0
1668680673.2083306,42430,1668680673,208100167,,-3.761157242439336e-201,-1.7919811586869452e-214,5e-324,5e-324,-5e-324,0.0
1668680673.2159224,42431,1668680673,215637990,,-1.989944830380123e-201,-9.480974638951658e-215,5e-324,5e-324,-5e-324,0.0
1668680673.2235887,42432,1668680673,223399703,,-1.989944830380123e-201,-9.480974638951658e-215,5e-324,5e-324,-5e-324,0.0
1668680673.2318583,42433,1668680673,231597011,,-1.0528356494312258e-201,-5.016173282218527e-215,5e-324,5e-324,-5e-324,0.0
1668680673.239878,42434,1668680673,239552139,,-5.5703197786721065e-202,-2.6539459660473503e-215,5e-324,5e-324,-5e-324,0.0
1668680673.2477732,42435,1668680673,247550369,,-2.9471325798502546e-202,-1.4041439149773297e-215,5e-324,5e-324,-5e-324,0.0
1668680673.2556303,42436,1668680673,255417238,,-2.9471325798502546e-202,-1.4041439149773297e-215,5e-324,5e-324,-5e-324,0.0
1668680673.2639525,42437,1668680673,263673529,,-1.5592624460216091e-202,-7.429013850286829e-216,5e-324,5e-324,-5e-324,0.0
1668680673.272024,42438,1668680673,271751378,,-8.249711574553009e-203,-3.930526365500405e-216,5e-324,5e-324,-5e-324,0.0
1668680673.2798457,42439,1668680673,279559822,,-4.3647393187054736e-203,-2.079554274797502e-216,5e-324,5e-324,-5e-324,0.0
1668680673.2878733,42440,1668680673,287632974,,-2.3092867124007002e-203,-1.1002460178836621e-216,5e-324,5e-324,-5e-324,0.0
1668680673.295582,42441,1668680673,295353934,,-2.3092867124007002e-203,-1.1002460178836621e-216,5e-324,5e-324,-5e-324,0.0
1668680673.3039227,42442,1668680673,303647943,,-1.2217923524587665e-203,-5.821157516971915e-217,5e-324,5e-324,-5e-324,0.0
1668680673.311817,42443,1668680673,311594731,,-6.464232199971645e-204,-3.079845260660753e-217,5e-324,5e-324,-5e-324,0.0
1668680673.3201046,42444,1668680673,319847919,,-3.420081804494719e-204,-1.6294777803141633e-217,5e-324,5e-324,-5e-324,0.0
1668680673.3277264,42445,1668680673,327518083,,-1.8094893852184274e-204,-8.621205326295918e-218,5e-324,5e-324,-5e-324,0.0
1668680673.3360438,42446,1668680673,335800539,,-9.573606780150974e-205,-4.561288418662771e-218,5e-324,5e-324,-5e-324,0.0
1668680673.3435502,42447,1668680673,343314710,,-9.573606780150974e-205,-4.561288418662771e-218,5e-324,5e-324,-5e-324,0.0
1668680673.3521414,42448,1668680673,351858035,,-5.065182892459408e-205,-2.4132764794231033e-218,5e-324,5e-324,-5e-324,0.0
1668680673.3598475,42449,1668680673,359611994,,-2.679875863217652e-205,-1.2768110304772518e-218,5e-324,5e-324,-5e-324,0.0
1668680673.3678923,42450,1668680673,367658657,,-1.4178628481408004e-205,-6.75532381576973e-219,5e-324,5e-324,-5e-324,0.0
1668680673.3756208,42451,1668680673,375378329,,-1.4178628481408004e-205,-6.75532381576973e-219,5e-324,5e-324,-5e-324,0.0
1668680673.3839407,42452,1668680673,383711032,,-7.501597681185835e-206,-3.574091918586283e-219,5e-324,5e-324,-5e-324,0.0
1668680673.3919003,42453,1668680673,391648953,,-3.968928859668127e-206,-1.890972718833056e-219,5e-324,5e-324,-5e-324,0.0
1668680673.40064,42454,1668680673,400416404,,-2.0998721822437746e-206,-1.0004717015742737e-219,5e-324,5e-324,-5e-324,0.0
1668680673.4077215,42455,1668680673,407552480,,-1.1109957718239227e-206,-5.293273751028084e-220,5e-324,5e-324,-5e-324,0.0
1668680673.4156275,42456,1668680673,415435280,,-5.8780320795132204e-207,-2.800553674755073e-220,5e-324,5e-324,-5e-324,0.0
1668680673.4234598,42457,1668680673,423277685,,-5.8780320795132204e-207,-2.800553674755073e-220,5e-324,5e-324,-5e-324,0.0
1668680673.4316237,42458,1668680673,431367368,,-3.1099363295562933e-207,-1.481710800175566e-220,5e-324,5e-324,-5e-324,0.0
1668680673.439863,42459,1668680673,439679085,,-1.645398297093849e-207,-7.8394030264352085e-221,5e-324,5e-324,-5e-324,0.0
1668680673.447856,42460,1668680673,447604085,,-8.705437247538777e-208,-4.147654171353791e-221,5e-324,5e-324,-5e-324,0.0
1668680673.455552,42461,1668680673,455336763,,-8.705437247538777e-208,-4.147654171353791e-221,5e-324,5e-324,-5e-324,0.0
1668680673.4637876,42462,1668680673,463574140,,-4.6058536589401225e-208,-2.1944317784323938e-221,5e-324,5e-324,-5e-324,0.0
1668680673.4718173,42463,1668680673,471579297,,-2.4368549590739693e-208,-1.1610251557260795e-221,5e-324,5e-324,-5e-324,0.0
1668680673.4798663,42464,1668680673,479623917,,-1.2892858808132176e-208,-6.142726447352602e-222,5e-324,5e-324,-5e-324,0.0
1668680673.4878337,42465,1668680673,487583056,,-6.821325480511938e-209,-3.2499802455535674e-222,5e-324,5e-324,-5e-324,0.0
1668680673.495904,42466,1668680673,495466734,,-6.821325480511938e-209,-3.2499802455535674e-222,5e-324,5e-324,-5e-324,0.0
1668680673.5039473,42467,1668680673,503718564,,-3.6090119347101123e-209,-1.7194924252309177e-222,5e-324,5e-324,-5e-324,0.0
1668680673.512791,42468,1668680673,512418102,,-1.9094481244285253e-209,-9.097452836741466e-223,5e-324,5e-324,-5e-324,0.0
1668680673.5205145,42469,1668680673,520044512,,-1.0102466286735821e-209,-4.8132604076822665e-223,5e-324,5e-324,-5e-324,0.0
1668680673.5276725,42470,1668680673,527458980,,-5.3449907210848745e-210,-2.5465892671183996e-223,5e-324,5e-324,-5e-324,0.0
1668680673.535525,42471,1668680673,535253513,,-5.3449907210848745e-210,-2.5465892671183996e-223,5e-324,5e-324,-5e-324,0.0
1668680673.5438745,42472,1668680673,543633323,,-2.8279159759229674e-210,-1.3473438680051413e-223,5e-324,5e-324,-5e-324,0.0
1668680673.551694,42473,1668680673,551450737,,-1.4961875865066374e-210,-7.12849740667133e-224,-0.033856167511305296,5e-324,-5e-324,0.0
1668680673.559822,42474,1668680673,559596732,,-7.915996490263244e-211,-3.7715297841639023e-224,-0.03217593709833396,5e-324,-5e-324,0.0
1668680673.5677245,42475,1668680673,567530774,,-4.188178073323562e-211,-1.9954327120219223e-224,-0.03132443836781835,5e-324,-5e-324,0.0
1668680673.5757012,42476,1668680673,575412530,,-4.188178073323562e-211,-1.9954327120219223e-224,-0.03132443836781835,5e-324,-5e-324,0.0
1668680673.5837371,42477,1668680673,583548891,,-2.215872075669017e-211,-1.0557391658223017e-224,-0.016573065196863086,5e-324,-5e-324,0.0
1668680673.5918136,42478,1668680673,591617397,,-1.1723687411966408e-211,-5.585681639556705e-225,-0.008768441010634604,5e-324,-5e-324,0.0
1668680673.5997393,42479,1668680673,599537462,,-6.202742840739226e-212,-2.955260199537992e-225,-0.004639187551831483,5e-324,-5e-324,0.0
1668680673.6083977,42480,1668680673,608165375,,-3.2817335874266957e-212,-1.563562589232431e-225,-0.0024544911820659618,5e-324,-5e-324,0.0
1668680673.615609,42481,1668680673,615357640,,-3.2817335874266957e-212,-1.563562589232431e-225,-0.0024544911820659618,5e-324,-5e-324,0.0
1668680673.6238074,42482,1668680673,623590623,,-1.7362924137543284e-212,-8.272462678005198e-226,-0.001298616815019942,5e-324,-5e-324,0.0
1668680673.6318011,42483,1668680673,631556988,,-9.186337847810359e-213,-4.37677642265563e-226,-0.000687069338270378,5e-324,-5e-324,0.0
1668680673.6401367,42484,1668680673,639675600,,-4.860287494526449e-213,-2.31565527697654e-226,-0.0003635131396200548,5e-324,-5e-324,0.0
1668680673.6477263,42485,1668680673,647487586,,-2.5714702551551365e-213,-1.2251618186463633e-226,-0.00019232673518670187,5e-324,-5e-324,0.0
1668680673.6559699,42486,1668680673,655631835,,-1.3605078466231537e-213,-6.482059297827305e-227,-0.00010175580752386935,5e-324,-5e-324,0.0
1668680673.663632,42487,1668680673,663437707,,-1.3605078466231537e-213,-6.482059297827305e-227,-0.00010175580752386935,5e-324,-5e-324,0.0
1668680673.6717274,42488,1668680673,671540765,,-7.198145096224344e-214,-3.429513726355966e-227,-5.383673962324233e-05,5e-324,-5e-324,0.0
1668680673.6796892,42489,1668680673,679471734,,-3.808378831103523e-214,-1.8144796057645284e-227,-2.8483824204145795e-05,5e-324,-5e-324,0.0
1668680673.6877575,42490,1668680673,687558475,,-2.0149287250134916e-214,-9.600008929644011e-228,-1.5070159281012928e-05,5e-324,-5e-324,0.0
1668680673.6954074,42491,1668680673,695206023,,-2.0149287250134916e-214,-9.600008929644011e-228,-1.5070159281012928e-05,5e-324,-5e-324,0.0
1668680673.7040105,42492,1668680673,703781936,,-1.0660540736458404e-214,-5.0791516838467414e-228,-7.973286842643989e-06,5e-324,-5e-324,0.0
1668680673.7120163,42493,1668680673,711804093,,-5.640255527794321e-215,-2.687266440749011e-228,-4.218489127396053e-06,5e-324,-5e-324,0.0
1668680673.719876,42494,1668680673,719627459,,-2.984134032715398e-215,-1.421773038702925e-228,-2.2319089817239748e-06,5e-324,-5e-324,0.0
1668680673.7278333,42495,1668680673,727615604,,-1.578839093606221e-215,-7.522285631711015e-229,-1.1808535123035935e-06,5e-324,-5e-324,0.0
1668680673.7358387,42496,1668680673,735508896,,-1.578839093606221e-215,-7.522285631711015e-229,-1.1808535123035935e-06,5e-324,-5e-324,0.0
1668680673.7437086,42497,1668680673,743485320,,-8.353287272525973e-216,-3.9798743951895405e-229,-6.247633881748424e-07,5e-324,-5e-324,0.0
1668680673.7516797,42498,1668680673,751489623,,-4.419538921978811e-216,-2.1056632221877607e-229,-3.3054844410146997e-07,5e-324,-5e-324,0.0
1668680673.759869,42499,1668680673,759645063,,-2.3382799663944988e-216,-1.1140596825450777e-229,-1.7488584633151574e-07,5e-324,-5e-324,0.0
1668680673.7679472,42500,1668680673,767730867,,-1.2371320397363552e-216,-5.894242551203987e-230,-9.25282202741263e-08,5e-324,-5e-324,0.0
1668680673.7754261,42501,1668680673,775213262,,-1.2371320397363552e-216,-5.894242551203987e-230,-9.25282202741263e-08,5e-324,-5e-324,0.0
1668680673.7840528,42502,1668680673,783779853,,-6.545391081215036e-217,-3.11851293038943e-230,-4.8954627985548974e-08,5e-324,-5e-324,0.0
1668680673.7918577,42503,1668680673,791595866,,-3.4630211675044335e-217,-1.6499359862650323e-230,-2.590080727915659e-08,5e-324,-5e-324,0.0
1668680673.8002286,42504,1668680673,799945799,,-1.8322076492880196e-217,-8.729445153951675e-231,-1.3703542347621173e-08,5e-324,-5e-324,0.0
1668680673.808672,42505,1668680673,808362449,,-9.693804073766848e-218,-4.618555709446155e-231,-7.250240150783506e-09,5e-324,-5e-324,0.0
1668680673.8159807,42506,1668680673,815733724,,-5.128776613125407e-218,-2.4435753321162071e-231,-3.835941168391272e-09,5e-324,-5e-324,0.0
1668680673.8235276,42507,1668680673,823322866,,-5.128776613125407e-218,-2.4435753321162071e-231,-3.835941168391272e-09,5e-324,-5e-324,0.0
1668680673.8320236,42508,1668680673,831744853,,-2.713521889567209e-218,-1.2928414810531463e-231,-2.02951134601643e-09,5e-324,-5e-324,0.0
1668680673.8398442,42509,1668680673,839577952,,-1.4356642140187426e-218,-6.840137372332115e-232,-1.0737694148048742e-09,5e-324,-5e-324,0.0
1668680673.8475957,42510,1668680673,847417743,,-7.595780757614572e-219,-3.618964889203702e-232,-5.681075685698916e-10,5e-324,-5e-324,0.0
1668680673.8557544,42511,1668680673,855538531,,-7.595780757614572e-219,-3.618964889203702e-232,-5.681075685698916e-10,5e-324,-5e-324,0.0
1668680673.8644834,42512,1668680673,864219294,,-4.018759035320956e-219,-1.9147140117777823e-232,-3.005731072392704e-10,5e-324,-5e-324,0.0
1668680673.871746,42513,1668680673,871501379,,-2.1262362223637694e-219,-1.0130326928109118e-232,-1.5902656080237615e-10,5e-324,-5e-324,0.0
1668680673.8798597,42514,1668680673,879652301,,-1.1249444003876923e-219,-5.359731168159592e-233,-8.413742424567693e-11,5e-324,-5e-324,0.0
1668680673.8878336,42515,1668680673,887604296,,-5.951831177801819e-220,-2.835714819354146e-233,-4.451524401319536e-11,5e-324,-5e-324,0.0
1668680673.89554,42516,1668680673,895347988,,-5.951831177801819e-220,-2.835714819354146e-233,-4.451524401319536e-11,5e-324,-5e-324,0.0
1668680673.9040196,42517,1668680673,903661951,,-3.14898179473096e-220,-1.5003137814962284e-233,-2.3552027737004826e-11,5e-324,-5e-324,0.0
1668680673.9118044,42518,1668680673,911583892,,-1.666056386231256e-220,-7.937827272279025e-234,-1.2460855215355423e-11,5e-324,-5e-324,0.0
1668680673.9197767,42519,1668680673,919563056,,-8.814734612776965e-221,-4.1997282556252427e-234,-6.592761966481826e-12,5e-324,-5e-324,0.0
1668680673.9278493,42520,1668680673,927638721,,-4.663680469389781e-221,-2.2219830208062827e-234,-3.4880840516570893e-12,5e-324,-5e-324,0.0
1668680673.9355955,42521,1668680673,935417536,,-4.663680469389781e-221,-2.2219830208062827e-234,-3.4880840516570893e-12,5e-324,-5e-324,0.0
1668680673.9442441,42522,1668680673,943791637,,-2.4674498412057884e-221,-1.1756019066563097e-234,-1.8454678651043747e-12,5e-324,-5e-324,0.0
1668680673.952128,42523,1668680673,951842669,,-1.30547295399573e-221,-6.219848801690911e-235,-9.763960932979593e-13,5e-324,-5e-324,0.0
1668680673.9596806,42524,1668680673,959479149,,-6.90696769252867e-222,-3.290783971755327e-235,-5.165895050432635e-13,5e-324,-5e-324,0.0
1668680673.9683692,42525,1668680673,968157409,,-3.6543233285391256e-222,-1.7410807712589014e-235,-2.7331604310240404e-13,5e-324,-5e-324,0.0
1668680673.9764106,42526,1668680673,976186431,,-1.9334213773651357e-222,-9.211671984747579e-236,-1.4460545304902982e-13,5e-324,-5e-324,0.0
1668680673.992065,42527,1668680673,983279503,,-1.9334213773651357e-222,-9.211671984747579e-236,-1.4460545304902982e-13,5e-324,-5e-324,0.0
1668680673.9920776,42528,1668680673,991456685,,-1.022930344794332e-222,-4.873691224171548e-236,-7.65075361627436e-14,5e-324,-5e-324,0.0
1668680673.9999065,42529,1668680673,999649731,,-5.41209744834344e-223,-2.5785618710583785e-236,0.011016044311532565,5e-324,-5e-324,0.0
1668680674.0078363,42530,1668680674,7589088,,-2.86342065610095e-223,-1.3642598632223177e-236,0.03144832181476328,5e-324,-5e-324,0.0
1668680674.0157888,42531,1668680674,15549429,,-1.5149723248784513e-223,-7.217996183413042e-237,0.042273826923582905,5e-324,-5e-324,0.0
1668680674.0235887,42532,1668680674,23379643,,-1.5149723248784513e-223,-7.217996183413042e-237,0.042273826923582905,5e-324,-5e-324,0.0
1668680674.0318778,42533,1668680674,31579918,,-8.015382372329664e-224,-3.818881600805051e-237,0.022366143695818824,5e-324,-5e-324,0.0
1668680674.0397174,42534,1668680674,39484326,,-4.2407609379800195e-224,-2.0204855073879168e-237,0.01855529709066822,5e-324,-5e-324,0.0
1668680674.0477626,42535,1668680674,47526009,,-2.243692502453894e-224,-1.0689940438855221e-237,0.016565573797610835,5e-324,-5e-324,0.0
1668680674.0555224,42536,1668680674,55311561,,-2.243692502453894e-224,-1.0689940438855221e-237,0.016565573797610835,5e-324,-5e-324,0.0
1668680674.0638297,42537,1668680674,63598494,,-1.1870879116250565e-224,-5.655810257902153e-238,0.06748658704843014,5e-324,-5e-324,0.0
1668680674.071869,42538,1668680674,71625006,,-6.280618705037079e-225,-2.9923636952290458e-238,0.09442300559109604,5e-324,-5e-324,0.0
1668680674.0797858,42539,1668680674,79565398,,-3.32293597902636e-225,-1.583193225411725e-238,0.12435799080937601,5e-324,-5e-324,0.0
1668680674.087751,42540,1668680674,87563475,,-1.7580916847972676e-225,-8.376324017651622e-239,0.16883833297278844,5e-324,-5e-324,0.0
1668680674.0982912,42541,1668680674,95785968,,-1.7580916847972676e-225,-8.376324017651622e-239,0.16883833297278844,5e-324,-5e-324,0.0
1668680674.1037674,42542,1668680674,103509744,,-9.301672953262685e-226,-4.431727152599511e-239,0.19236843412788324,5e-324,-5e-324,0.0
1668680674.1123395,42543,1668680674,111827141,,0.014228630318487517,-2.3447284887379606e-239,0.25520553754698805,5e-324,-5e-324,0.0
1668680674.119786,42544,1668680674,119624101,,0.007528052543557224,-1.2405438098043996e-239,0.31719886694512,5e-324,-5e-324,0.0
1668680674.1276999,42545,1668680674,127486294,,0.003982925540269606,-6.56344199951418e-240,0.3499901844604499,5e-324,-5e-324,0.0
1668680674.135494,42546,1668680674,135254941,,0.003982925540269606,-6.56344199951418e-240,0.3499901844604499,5e-324,-5e-324,0.0
1668680674.1437547,42547,1668680674,143582735,,0.1444264042281716,-3.4725715077953646e-240,0.6067691746745124,5e-324,-5e-324,0.0
1668680674.1518273,42548,1668680674,151582309,,0.2186575978833357,-1.8372605223973564e-240,0.7426687955069238,5e-324,-5e-324,0.0
1668680674.159896,42549,1668680674,159621400,,0.48862518515938835,-9.720537704068278e-241,1.1104668147304457,5e-324,-5e-324,0.0
1668680674.167712,42550,1668680674,167516302,,0.7495505465709285,-5.142920783652329e-241,1.3379616610359757,5e-324,-5e-324,0.0
1668680674.1755445,42551,1668680674,175318642,,0.7495505465709285,-5.142920783652329e-241,1.3379616610359757,5e-324,-5e-324,0.0
1668680674.183931,42552,1668680674,183694004,,0.8875708563883082,-2.7210052563093577e-241,1.4583399505382144,5e-324,-5e-324,0.0
1668680674.1919155,42553,1668680674,191683581,,1.0329993897690521,-0.2802208246937153,1.6839069705770189,5e-324,-5e-324,0.0
1668680674.199742,42554,1668680674,199541321,,0.9163144895483688,-0.6948282272591845,1.8287352850955136,5e-324,-5e-324,0.0
1668680674.2077477,42555,1668680674,207516438,,0.8544480669032336,-0.9143064951823301,1.9053531895128275,5e-324,-5e-324,0.0
1668680674.2164285,42556,1668680674,216126180,,0.9477925404267412,-0.9638558700803294,1.9154870219017908,5e-324,-5e-324,0.0
1668680674.2234747,42557,1668680674,223273156,,0.9477925404267412,-0.9638558700803294,1.9154870219017908,5e-324,-5e-324,0.0
1668680674.2319005,42558,1668680674,231647724,,0.9972732333321048,-0.9900822910845337,1.9207749831546277,5e-324,-5e-324,0.0
1668680674.2399435,42559,1668680674,239660925,,0.5276351365354278,-1.9316465066291135,1.8573017251485315,5e-324,-5e-324,0.0
1668680674.2480738,42560,1668680674,247834374,,0.27916004160321145,-2.577056933991286,1.6379337342131233,5e-324,-5e-324,0.0
1668680674.2557356,42561,1668680674,255412251,,0.27916004160321145,-2.577056933991286,1.6379337342131233,5e-324,-5e-324,0.0
1668680674.2639575,42562,1668680674,263736433,,0.14769738296735693,-2.9185438996606536,1.5218243507541378,5e-324,-5e-324,0.0
1668680674.2716832,42563,1668680674,271481215,,0.07814340766724955,-3.54340864097027,1.0501193419442865,5e-324,-5e-324,0.0
1668680674.2798243,42564,1668680674,279598439,,0.041343942859160536,-4.039053422288864,0.6964576875067432,5e-324,-5e-324,0.0
1668680674.287836,42565,1668680674,287571983,,0.021874162673071143,-4.30124118393238,0.5094574097467639,5e-324,-5e-324,0.0
1668680674.2958035,42566,1668680674,295571163,,0.011573134044760387,-4.638926393969463,0.26954260975457545,5e-324,-5e-324,0.0
1668680674.303438,42567,1668680674,303234450,,0.011573134044760387,-4.638926393969463,0.26954260975457545,5e-324,-5e-324,0.0
1668680674.3118002,42568,1668680674,311636971,,0.006123088395190536,-4.817607862328147,0.14260901320371627,5e-324,-5e-324,0.0
1668680674.319905,42569,1668680674,319667928,,0.0032395901879570138,-4.935670459356107,0.07545126414504673,5e-324,-5e-324,0.0
1668680674.3275797,42570,1668680674,327418777,,0.0017139952763299575,-4.997130394957171,0.039919589464891284,5e-324,-5e-324,0.0
1668680674.3356423,42571,1668680674,335412315,,0.0017139952763299575,-4.997130394957171,0.039919589464891284,5e-324,-5e-324,0.0
1668680674.3438423,42572,1668680674,343601986,,0.0009068368641819052,-5.029629430094579,0.021120568901032456,5e-324,-5e-324,0.0
1668680674.3518243,42573,1668680674,351562909,,0.0004797872605577484,-4.626308600618423,0.10887039920530166,5e-324,-5e-324,0.0
1668680674.3600438,42574,1668680674,359846912,,0.5016867022529454,-3.707682019023771,0.21746899307459194,5e-324,-5e-324,0.0
1668680674.3677082,42575,1668680674,367465404,,0.7667847704128827,-3.2216809339287575,0.27498301158464916,5e-324,-5e-324,0.0
1668680674.376039,42576,1668680674,375776158,,1.4118096900848447,-2.25798900675601,0.41485243699492436,5e-324,-5e-324,0.0
1668680674.3838208,42577,1668680674,383484107,,1.4118096900848447,-2.25798900675601,0.41485243699492436,5e-324,-5e-324,0.0
1668680674.3917935,42578,1668680674,391537013,,1.7531575325462896,-1.7479664889182023,0.4889094597796546,5e-324,-5e-324,0.0
1668680674.400237,42579,1668680674,399432986,,1.6789494071822713,-1.9829712116186875,0.46934998109528203,5e-324,-5e-324,0.0
1668680674.4078457,42580,1668680674,407634885,,1.871578589877118,-2.3379332690097434,0.2483226593083948,5e-324,-5e-324,0.0
1668680674.4157128,42581,1668680674,415491879,,1.9734488863175241,-2.525731803172195,0.13138200833010108,5e-324,-5e-324,0.0
1668680674.423479,42582,1668680674,423201293,,1.9734488863175241,-2.525731803172195,0.13138200833010108,5e-324,-5e-324,0.0
1668680674.4317071,42583,1668680674,431470190,,1.4759748935473165,-3.865045909375003,0.06951130501310322,5e-324,-0.026977292919491015,0.0
1668680674.4401836,42584,1668680674,439927776,,0.8882830900296526,-4.944656550230523,0.036776888906162694,5e-324,-0.1035924579156232,0.0
1668680674.447801,42585,1668680674,447613949,,0.5774581559866241,-5.51584635526789,0.019457835777378547,5e-324,-0.14412605165082765,0.0
1668680674.455927,42586,1668680674,455724510,,0.4274842137351027,-6.174152214367718,-0.24412373411077726,5e-324,-0.2259671654926777,0.0
1668680674.4634745,42587,1668680674,463273825,,0.4274842137351027,-6.174152214367718,-0.24412373411077726,5e-324,-0.2259671654926777,0.0
1668680674.4719598,42588,1668680674,471774067,,0.3482264986732479,-6.522439865668264,-0.3835430488160947,5e-324,-0.2692659844029319,0.0
1668680674.479904,42589,1668680674,479672821,,0.5159730694720944,-7.083521268853871,-0.9360087361151564,5e-324,-0.36194897198875664,0.0
1668680674.4876819,42590,1668680674,487472884,,0.8672768548507358,-7.536366575213309,-1.4722652677477062,5e-324,-0.43766391916784286,0.0
1668680674.495482,42591,1668680674,495262082,,0.8672768548507358,-7.536366575213309,-1.4722652677477062,5e-324,-0.43766391916784286,0.0
1668680674.5041337,42592,1668680674,503877054,,1.052450508840371,-7.776112709898159,-1.756038489914263,5e-324,-0.47773933022843384,0.0
1668680674.511786,42593,1668680674,511547320,,1.152376281237764,-8.012711048468942,-1.8992578385567251,5e-324,-0.5243821845625791,0.0
1668680674.520088,42594,1668680674,519768194,,1.261426063759612,-8.078172512334417,-1.9154411065982824,5e-324,-0.5419462841374221,0.0
1668680674.5284927,42595,1668680674,528034072,,1.319682476581389,-8.112570188138204,-1.9242854828975884,5e-324,-0.5512257317510556,0.0
1668680674.5356827,42596,1668680674,535332223,,1.319682476581389,-8.112570188138204,-1.9242854828975884,5e-324,-0.5512257317510556,0.0
1668680674.5438151,42597,1668680674,543583211,,1.3457328373861572,-7.886229755033553,-1.6180205020718947,5e-324,-0.5194774560679113,0.0
1668680674.551823,42598,1668680674,551590490,,1.3599736056204446,-7.766347918625032,-1.4559979319180947,5e-324,-0.5026668291573374,0.0
1668680674.5602872,42599,1668680674,559563806,,1.462010890137384,-7.616090339142336,-1.2686990153372983,5e-324,-0.4900498535275509,0.0
1668680674.5677028,42600,1668680674,567460758,,1.9120630323022283,-7.7444834329180114,-1.4317637447432165,5e-324,-0.522062167914199,0.0
1668680674.57548,42601,1668680674,575251067,,1.9120630323022283,-7.7444834329180114,-1.4317637447432165,5e-324,-0.522062167914199,0.0
1668680674.583951,42602,1668680674,583695609,,2.150611674303618,-7.8122348451865395,-1.518074525238337,5e-324,-0.5389785737789533,0.0
1668680674.5944085,42603,1668680674,591577013,,2.519595141809307,-8.318405540547253,-2.0084329600121364,5e-324,-0.6400922335440761,0.0
1668680674.6014755,42604,1668680674,600502631,,2.4727469805909266,-8.90644730058079,-2.326025858519265,5e-324,-0.7492382021804631,0.0
1668680674.6083853,42605,1668680674,608164872,,2.4480911730700035,-9.217771033802524,-2.493350836777511,5e-324,-0.8069776118796375,0.0
1668680674.6158993,42606,1668680674,615650855,,2.4480911730700035,-9.217771033802524,-2.493350836777511,5e-324,-0.8069776118796375,0.0
1668680674.6238952,42607,1668680674,623609761,,2.7167134380069067,-9.863860633870281,-2.7396045391828894,5e-324,-0.9110335021447008,0.0
1668680674.6319017,42608,1668680674,631676048,,2.858953235237288,-10.20568492604447,-2.869795407366028,5e-324,-0.966084316067531,0.0
1668680674.63985,42609,1668680674,639619547,,2.1415559891171316,-10.061887155451403,-1.5183450643060308,5e-324,-0.8951258144251537,0.0
1668680674.6477094,42610,1668680674,647504363,,1.6465095967543606,-9.848771931612566,-0.5399707367807233,5e-324,-0.8204818472317765,0.0
1668680674.6558878,42611,1668680674,655703083,,1.384303553171761,-9.736074064635154,-0.022334160717961238,5e-324,-0.7809890107459552,0.0
1668680674.6638217,42612,1668680674,663549151,,1.384303553171761,-9.736074064635154,-0.022334160717961238,5e-324,-0.7809890107459552,0.0
1668680674.6726034,42613,1668680674,672304652,,1.314661394711341,-9.713597550715654,0.6380250797414215,5e-324,-0.7694967020568029,0.0
1668680674.680319,42614,1668680674,680111376,,1.4861350166198495,-9.484019545220324,1.0285548740157364,5e-324,-0.7319326775053644,0.0
1668680674.6878545,42615,1668680674,687650769,,1.577372384773763,-9.36249939296476,1.2348469114695897,5e-324,-0.7120552401904091,0.0
1668680674.6955192,42616,1668680674,695323165,,1.577372384773763,-9.36249939296476,1.2348469114695897,5e-324,-0.7120552401904091,0.0
1668680674.703822,42617,1668680674,703604998,,1.783576767532162,-9.256210124769659,1.2108888728954352,5e-324,-0.70787245044666,0.0
1668680674.7127333,42618,1668680674,712422011,,1.892508916478742,-9.200068789351358,1.1980062712224995,5e-324,-0.705661287890671,0.0
1668680674.7204678,42619,1668680674,720175502,,1.954384982709005,-9.170838755452806,1.1292902091434858,5e-324,-0.7064094022010055,0.0
1668680674.728582,42620,1668680674,728325350,,2.0085506532242614,-9.250723004973516,1.410804090118806,5e-324,-0.7196574584734141,0.0
1668680674.7362013,42621,1668680674,735919831,,2.0374220048035263,-9.292912334657458,1.5597933819047127,5e-324,-0.726664139426005,0.0
1668680674.7441385,42622,1668680674,743896000,,2.0374220048035263,-9.292912334657458,1.5597933819047127,5e-324,-0.726664139426005,0.0
1668680674.751921,42623,1668680674,751653032,,2.0486315754199746,-9.383425267793204,1.8846573052202142,5e-324,-0.7482027403385252,0.0
1668680674.759868,42624,1668680674,759684348,,1.873624686293116,-9.58375532419036,2.1414544086212497,5e-324,-0.7912325575933303,0.0
1668680674.7677934,42625,1668680674,767577757,,1.780787640357317,-9.689936731540872,2.276908432550301,5e-324,-0.8139992525732006,0.0
1668680674.7756255,42626,1668680674,775423322,,1.7164099759713936,-9.978809229222923,2.6173372192063287,5e-324,-0.8544139198944067,0.0
1668680674.7834065,42627,1668680674,783190618,,1.7164099759713936,-9.978809229222923,2.6173372192063287,5e-324,-0.8544139198944067,0.0
1668680674.791949,42628,1668680674,791708431,,1.6828650061854693,-10.131499052985374,2.797522640668724,5e-324,-0.8757976255485949,0.0
1668680674.799727,42629,1668680674,799536393,,1.8558574044474696,-10.303272341630967,3.0067455555922757,5e-324,-0.8966985868463493,0.0
1668680674.808158,42630,1668680674,807882601,,1.7649392395265349,-10.443340552957086,3.119114150855682,5e-324,-0.9317825503097792,0.0
1668680674.8160434,42631,1668680674,815809317,,1.7168049992334664,-10.51760411381406,3.1781577027558177,5e-324,-0.9503455884956337,0.0
1668680674.8239675,42632,1668680674,823665905,,1.7168049992334664,-10.51760411381406,3.1781577027558177,5e-324,-0.9503455884956337,0.0
1668680674.8317947,42633,1668680674,831598083,,2.1679614760720125,-10.720293682180642,3.2234418690557685,5e-324,-0.98902451503268,0.0
1668680674.8406518,42634,1668680674,840415408,,2.65806172148128,-10.713080285149431,3.233583050328187,5e-324,-0.9879935989735469,0.0
1668680674.8484204,42635,1668680674,848160194,,2.917838902476342,-10.708978345441864,3.239263680374656,5e-324,-0.987441554954055,0.0
1668680674.8565824,42636,1668680674,856220576,,2.6489026503074147,-10.487184037835412,3.203784610574135,5e-324,-0.9716806069092729,0.0
1668680674.8633409,42637,1668680674,863124144,,2.6489026503074147,-10.487184037835412,3.203784610574135,5e-324,-0.9716806069092729,0.0
1668680674.8715286,42638,1668680674,871364902,,2.5063721926523987,-10.369898643670524,3.1850433452751323,5e-324,-0.9633431016565657,0.0
1668680674.879752,42639,1668680674,879526616,,2.730982225143693,-10.446632416518447,3.20930531203725,5e-324,-0.9821468980126543,0.0
1668680674.8878098,42640,1668680674,887592368,,3.062763442637171,-10.593451268247989,3.330960768061093,5e-324,-0.9996634595908235,0.0
1668680674.895426,42641,1668680674,895198008,,3.062763442637171,-10.593451268247989,3.330960768061093,5e-324,-0.9996634595908235,0.0
1668680674.903793,42642,1668680674,903572207,,3.2379812534168146,-10.671128039815798,3.3956486893055677,5e-324,-1.0089387996082917,0.0
1668680674.9118078,42643,1668680674,911528429,,3.234283844063641,-10.574806467555373,3.55468491213901,5e-324,-1.014034229620369,0.0
1668680674.9198186,42644,1668680674,919622535,,3.0871063676986594,-10.772686713348316,3.61137362925225,5e-324,-1.042254513450029,0.0
1668680674.927685,42645,1668680674,927465948,,3.009254738399224,-10.877422689948073,3.6412447712457015,5e-324,-1.0571853932437962,0.0
1668680674.9357731,42646,1668680674,935535282,,3.2757161130849344,-11.166908103859406,3.6641189523496442,5e-324,-1.1093809537320296,0.0
1668680674.9434872,42647,1668680674,943289587,,3.2757161130849344,-11.166908103859406,3.6641189523496442,5e-324,-1.1093809537320296,0.0
1668680674.95176,42648,1668680674,951530735,,3.4168059319189927,-11.319842096378046,3.67671563287165,5e-324,-1.136994872571265,0.0
1668680674.9597054,42649,1668680674,959527349,,3.333495116630059,-11.325705239759433,3.659278904601173,5e-324,-1.14283748179367,0.0
1668680674.9677665,42650,1668680674,967543735,,3.637567533044076,-11.35920467705668,3.8745164760345445,5e-324,-1.1715051086983808,0.0
1668680674.9759996,42651,1668680674,975716678,,3.7983116580346605,-11.376978841516753,3.9884021380641355,5e-324,-1.186672741784649,0.0
1668680674.9839299,42652,1668680674,983658697,,3.7983116580346605,-11.376978841516753,3.9884021380641355,5e-324,-1.186672741784649,0.0
1668680674.9916825,42653,1668680674,991465945,,3.8667126930494655,-11.370351717153529,4.04811306050668,5e-324,-1.175829794356853,0.0
1668680674.9996607,42654,1668680674,999430780,,3.670695478540204,-11.345669883706282,4.754334079403628,5e-324,-1.20475222813196,0.0
1668680675.0078306,42655,1668680675,7617889,,3.5670567597094136,-11.33261599329214,5.127923734192693,5e-324,-1.2200533079174507,0.0
1668680675.015804,42656,1668680675,15569952,,3.5670567597094136,-11.33261599329214,5.127923734192693,5e-324,-1.2200533079174507,0.0
1668680675.0236413,42657,1668680675,23424468,,3.772869212305608,-11.623645505992446,5.221154204362258,5e-324,-1.268459468328792,0.0
1668680675.031726,42658,1668680675,31480861,,3.8817524529984846,-11.777412807134699,5.27091614766227,5e-324,-1.2940683875528705,0.0
1668680675.0396912,42659,1668680675,39462969,,4.265646201150817,-12.036646583790942,5.284696254113463,5e-324,-1.332771936494637,0.0
1668680675.047814,42660,1668680675,47597451,,4.235358632750148,-11.987745905725498,5.540001697897489,5e-324,-1.3530149283587025,0.0
1668680675.0558941,42661,1668680675,55645510,,4.220158000620868,-11.961174628476982,5.675774416435683,5e-324,-1.3637135711272277,0.0
1668680675.0634553,42662,1668680675,63250583,,4.220158000620868,-11.961174628476982,5.675774416435683,5e-324,-1.3637135711272277,0.0
1668680675.0718493,42663,1668680675,71584134,,4.832445636416708,-12.106456075838267,5.793786393158196,5e-324,-1.3921780232319567,0.0
1668680675.07974,42664,1668680675,79542344,,5.100747638718074,-12.264017786311092,5.94329047348449,5e-324,-1.4369063709195573,0.0
1668680675.087789,42665,1668680675,87587420,,5.242736495186729,-12.347681829641838,6.021786957346055,5e-324,-1.460575967874051,0.0
1668680675.0956118,42666,1668680675,95396165,,5.242736495186729,-12.347681829641838,6.021786957346055,5e-324,-1.460575967874051,0.0
1668680675.1043503,42667,1668680675,104089551,,4.957587075994326,-12.457083676464208,5.746186574522762,5e-324,-1.4809030211132526,0.0
1668680675.1123378,42668,1668680675,112082463,,4.806847492274089,-12.51488140951582,5.6004395820545145,5e-324,-1.4916543143570014,0.0
1668680675.1199179,42669,1668680675,119677219,,5.4103673565840875,-12.866475277521193,5.538879057587058,5e-324,-1.5430200324586862,0.0
1668680675.128623,42670,1668680675,128154898,,5.713011087114571,-13.597541695860887,5.48503816985175,5e-324,-1.6367486588499212,0.0
1668680675.1357214,42671,1668680675,135457610,,5.873370430362062,-13.984364409355944,5.456215582766509,5e-324,-1.6863362302904752,0.0
1668680675.143448,42672,1668680675,143258475,,5.873370430362062,-13.984364409355944,5.456215582766509,5e-324,-1.6863362302904752,0.0
1668680675.1518943,42673,1668680675,151660503,,5.819441188880459,-14.444874032029006,4.953154894646861,5e-324,-1.7557315044849824,0.0
1668680675.1599586,42674,1668680675,159717757,,5.8058215210312785,-14.692112030503317,4.628361718554769,5e-324,-1.7938296933592048,0.0
1668680675.1677144,42675,1668680675,167503096,,5.798359533097857,-14.822974066559176,4.456687738003391,5e-324,-1.8139883578495812,0.0
1668680675.1766727,42676,1668680675,176444417,,5.791194162713039,-14.926483479254342,4.361827336016017,5e-324,-1.831941443031273,0.0
1668680675.1834152,42677,1668680675,183158382,,5.791194162713039,-14.926483479254342,4.361827336016017,5e-324,-1.831941443031273,0.0
1668680675.1919553,42678,1668680675,191713444,,5.7877277573251105,-14.981140045834898,4.311549352636011,5e-324,-1.8414364383251343,0.0
1668680675.199847,42679,1668680675,199616873,,5.779498233084853,-15.001006148630832,4.318133113326368,5e-324,-1.8464941615238764,0.0
1668680675.2106383,42680,1668680675,207621736,,5.945770849484719,-14.980948250619962,4.221008747659032,5e-324,-1.852488248343891,0.0
1668680675.2154808,42681,1668680675,215269273,,5.945770849484719,-14.980948250619962,4.221008747659032,5e-324,-1.852488248343891,0.0
1668680675.223882,42682,1668680675,223621272,,6.034001294169794,-14.970120715060665,4.169932842487357,5e-324,-1.8556541089708198,0.0
1668680675.2316968,42683,1668680675,231454362,,6.210540174756311,-15.386626016070899,4.317059299889733,5e-324,-1.9109780079462895,0.0
1668680675.239981,42684,1668680675,239781704,,6.242446118560938,-15.60638202591701,4.032555318985379,5e-324,-1.9500810452813728,0.0
1668680675.2479503,42685,1668680675,247747225,,6.258529291951804,-15.722879517235302,3.8824415125497582,5e-324,-1.9707821254501758,0.0
1668680675.255742,42686,1668680675,255418366,,6.258529291951804,-15.722879517235302,3.8824415125497582,5e-324,-1.9707821254501758,0.0
1668680675.2642198,42687,1668680675,263926694,,6.258850475838141,-15.620950718192761,3.671597456371486,5e-324,-1.9601388637811887,0.0
1668680675.2718244,42688,1668680675,271566916,,6.25871944393576,-15.567304262708127,3.5594881546466093,5e-324,-1.9545144698724808,0.0
1668680675.2796981,42689,1668680675,279530800,,6.576352555156711,-15.69880548778621,3.5291894994388953,5e-324,-1.9815208532254696,0.0
1668680675.2878075,42690,1668680675,287605404,,6.628525896544787,-15.761137085550134,3.5415592382859664,5e-324,-1.9861242489414037,0.0
1668680675.2955601,42691,1668680675,295344524,,6.628525896544787,-15.761137085550134,3.5415592382859664,5e-324,-1.9861242489414037,0.0
1668680675.3041465,42692,1668680675,303851034,,6.655930440413352,-15.794424481413296,3.5472976200962254,5e-324,-1.9885690934694287,0.0
1668680675.311746,42693,1668680675,311516806,,6.769548107848232,-16.218388158469878,3.374047642340405,5e-324,-2.048877683370619,0.0
1668680675.3197803,42694,1668680675,319538455,,6.7706738596784675,-16.711358677700254,3.3373485501453604,5e-324,-2.1146904102909057,0.0
1668680675.3279397,42695,1668680675,327695568,,6.771826231773427,-16.972027815837027,3.317564929342141,5e-324,-2.1495042539591114,0.0
1668680675.3356452,42696,1668680675,335473764,,6.771826231773427,-16.972027815837027,3.317564929342141,5e-324,-2.1495042539591114,0.0
1668680675.3437529,42697,1668680675,343537961,,6.75843250722885,-16.934859053770047,3.3054723229321974,5e-324,-2.1530668888498496,0.0
1668680675.3517733,42698,1668680675,351480819,,6.751993016818074,-16.914799755347417,3.299550340402992,5e-324,-2.1549396442389153,0.0
1668680675.3598328,42699,1668680675,359574035,,6.828455327974909,-16.899438192919067,3.240564826049251,5e-324,-2.1600649522533453,0.0
1668680675.3683069,42700,1668680675,368102097,,6.946501489279367,-17.157366522063732,3.0856186951729985,5e-324,-2.1876315490489775,0.0
1668680675.375986,42701,1668680675,375772836,,7.008193767579221,-17.293938407519033,3.0047082186251517,5e-324,-2.202223962266279,0.0
1668680675.3834317,42702,1668680675,383228191,,7.008193767579221,-17.293938407519033,3.0047082186251517,5e-324,-2.202223962266279,0.0
1668680675.3918617,42703,1668680675,391612060,,7.198091537882221,-17.093848343395983,3.609266919706973,5e-324,-2.195289290123742,0.0
1668680675.4003415,42704,1668680675,399989888,,7.1981952597728505,-17.086838269228757,4.061296569032915,5e-324,-2.209613204193526,0.0
1668680675.40775,42705,1668680675,407425675,,7.199140319166268,-17.08308897041273,4.299275803735242,5e-324,-2.2171788678537983,0.0
1668680675.4155328,42706,1668680675,415343729,,7.199140319166268,-17.08308897041273,4.299275803735242,5e-324,-2.2171788678537983,0.0
1668680675.4238737,42707,1668680675,423596898,,7.8133847425554706,-17.254769876123714,4.5563188560629975,5e-324,-2.254428216377381,0.0
1668680675.4318464,42708,1668680675,431608192,,8.13857842939718,-17.345076618817718,4.6936313721152905,5e-324,-2.274119646808967,0.0
1668680675.4399738,42709,1668680675,439747442,,8.11404086209367,-17.28491157829147,4.831565158447315,5e-324,-2.2730674557667316,0.0
1668680675.4477274,42710,1668680675,447560372,,8.379111778929271,-16.919549684445006,5.033704836732207,5e-324,-2.249143810403007,0.0
1668680675.4555469,42711,1668680675,455326003,,8.379111778929271,-16.919549684445006,5.033704836732207,5e-324,-2.249143810403007,0.0
1668680675.464023,42712,1668680675,463694114,,8.519465209589239,-16.726151859372163,5.14074193985366,5e-324,-2.236485505843266,0.0
1668680675.471929,42713,1668680675,471710610,,8.842994198328174,-16.848608111398132,4.7345197766371925,5e-324,-2.2441379127273766,0.0
1668680675.4799037,42714,1668680675,479633897,,9.04903571185715,-16.67850480791214,5.187125425724053,5e-324,-2.2576598589783448,0.0
1668680675.4878535,42715,1668680675,487634112,,9.158394988863323,-16.588351157272257,5.426462609572797,5e-324,-2.2647878267120443,0.0
1668680675.495902,42716,1668680675,495659854,,9.423648721188911,-16.669089107475507,6.067042314343854,5e-324,-2.309655136592003,0.0
1668680675.5034387,42717,1668680675,503239890,,9.423648721188911,-16.669089107475507,6.067042314343854,5e-324,-2.309655136592003,0.0
1668680675.5120778,42718,1668680675,511599345,,9.563863137144605,-16.711687495330512,6.4064012674213515,5e-324,-2.3333856792538317,0.0
1668680675.519891,42719,1668680675,519636698,,9.967344737779642,-16.995787545037015,6.696361138094747,5e-324,-2.3967690662828716,0.0
1668680675.5279725,42720,1668680675,527753270,,10.26421103789022,-16.779870952756852,6.898105546426889,5e-324,-2.3801735137563864,0.0
1668680675.5356834,42721,1668680675,535237336,,10.26421103789022,-16.779870952756852,6.898105546426889,5e-324,-2.3801735137563864,0.0
1668680675.5442429,42722,1668680675,543950027,,10.420883343643592,-16.665826106293558,7.004991024893685,5e-324,-2.3714190615144206,0.0
1668680675.5520592,42723,1668680675,551818128,,10.648492986325195,-16.50450370769378,7.120625526791554,5e-324,-2.363823531798996,0.0
1668680675.5597498,42724,1668680675,559561621,,10.787515275340049,-16.54494930342741,7.2076350165278935,5e-324,-2.3697908745080505,0.0
1668680675.5676384,42725,1668680675,567442756,,10.862097409388776,-16.565615466272263,7.253742342981636,5e-324,-2.3729156869099546,0.0
1668680675.575728,42726,1668680675,575520728,,10.8889847457851,-16.331711211743528,7.411415538267314,5e-324,-2.3496520294552043,0.0
1668680675.5834918,42727,1668680675,583307482,,10.8889847457851,-16.331711211743528,7.411415538267314,5e-324,-2.3496520294552043,0.0
1668680675.5917587,42728,1668680675,591544382,,10.903859164285876,-16.20760134541942,7.494644419687196,5e-324,-2.337320300829065,0.0
1668680675.5998318,42729,1668680675,599631720,,11.034344866038207,-16.221796319733436,7.6383983249123,5e-324,-2.354326525263658,0.0
1668680675.6078684,42730,1668680675,607652800,,11.513544384326703,-15.98757678695129,7.785694825380049,0.04208391684690765,-2.3409666154772744,0.0
1668680675.6156046,42731,1668680675,615243036,,11.513544384326703,-15.98757678695129,7.785694825380049,0.04208391684690765,-2.3409666154772744,0.0
1668680675.6237981,42732,1668680675,623593273,,11.765822624713607,-15.864328471775295,7.864201013876444,0.06425386925510299,-2.3339300170766357,0.0
1668680675.6320152,42733,1668680675,631750843,,12.083642730722158,-15.234317064017537,7.802537614227241,0.11492597639046329,-2.279014574930918,0.0
1668680675.6396582,42734,1668680675,639473357,,12.420658184972993,-14.791286053584793,7.600613866200708,0.18314945686403472,-2.218939032459379,0.0
1668680675.6479063,42735,1668680675,647667701,,12.598662476830885,-14.55657961439038,7.494843369762805,0.21922684683917093,-2.187158360286605,0.0
1668680675.6561847,42736,1668680675,655942042,,12.530752296540735,-14.26842947541371,7.384441814391774,0.2213811379645218,-2.1570968296324002,0.0
1668680675.663368,42737,1668680675,663135501,,12.530752296540735,-14.26842947541371,7.384441814391774,0.2213811379645218,-2.1570968296324002,0.0
1668680675.6721237,42738,1668680675,671820349,,12.494857559689605,-14.115083247193567,7.3275878248430075,0.22255520130810302,-2.141173163211481,0.0
1668680675.6799457,42739,1668680675,679743116,,12.483231756660617,-13.986267401590741,7.424332070523526,0.22010792530395512,-2.1254191942041176,0.0
1668680675.6881742,42740,1668680675,687906740,,12.512564623174338,-13.970860371974746,7.581157586391483,0.2399211535024899,-2.122872567148644,0.0
1668680675.6955457,42741,1668680675,695371137,,12.512564623174338,-13.970860371974746,7.581157586391483,0.2399211535024899,-2.122872567148644,0.0
1668680675.703914,42742,1668680675,703650405,,12.529307354767889,-13.962556416645846,7.66249802451185,0.2505583886942228,-2.121467316451266,0.0
1668680675.711694,42743,1668680675,711506788,,12.492910966140641,-13.422318007219554,7.582065531230011,0.256600957381042,-2.043964830805983,0.0
1668680675.7197013,42744,1668680675,719501753,,12.430800568928412,-13.252404282997372,6.935011539345645,0.2793561261943225,-1.9854559525628495,0.0
1668680675.727693,42745,1668680675,727491564,,12.397822245487333,-13.163345828855508,6.591249297472521,0.2913425478602598,-1.9545274005254831,0.0
1668680675.7354078,42746,1668680675,735213235,,12.397822245487333,-13.163345828855508,6.591249297472521,0.2913425478602598,-1.9545274005254831,0.0
1668680675.7437851,42747,1668680675,743578447,,12.258619842603217,-13.166858998656892,6.259292879899025,0.3020812741173421,-1.9323790030723518,0.0
1668680675.751995,42748,1668680675,751728836,,12.185084396669623,-13.1680121496295,6.084897896223753,0.30766078293852384,-1.9207032250736402,0.0
1668680675.759606,42749,1668680675,759427716,,12.002817163784876,-13.06994260643522,6.05858864193124,0.2855659809893095,-1.8915259601796042,0.0
1668680675.7679584,42750,1668680675,767671744,,12.01358035122701,-13.032862604457357,6.697725797150242,0.2646203131178958,-1.9169581068911472,0.0
1668680675.775669,42751,1668680675,775387658,,12.01358035122701,-13.032862604457357,6.697725797150242,0.2646203131178958,-1.9169581068911472,0.0
1668680675.7839186,42752,1668680675,783726856,,12.018488545052891,-13.012831697783891,7.037781754348505,0.2534559544615469,-1.9304435869640346,0.0
1668680675.7916949,42753,1668680675,791532769,,11.87152064688111,-12.98876223438687,6.875067368195637,0.24394913481498398,-1.9162673966166803,0.0
1668680675.80007,42754,1668680675,799808184,,11.762922124112023,-12.892458821545548,6.720614902336212,0.23838634140776793,-1.8918646216531396,0.0
1668680675.8078222,42755,1668680675,807581075,,11.705247313076335,-12.842361904773696,6.637700173702731,0.2353926775790453,-1.878978271419875,0.0
1668680675.815792,42756,1668680675,815590080,,11.329026848962513,-12.680690385865775,6.33465748702626,0.1921419965016208,-1.820022110706046,0.0
1668680675.8236628,42757,1668680675,823428393,,11.329026848962513,-12.680690385865775,6.33465748702626,0.1921419965016208,-1.820022110706046,0.0
1668680675.832083,42758,1668680675,831838737,,11.130089112932751,-12.595585174493838,6.173300193432436,0.16924062236252496,-1.788838708538147,0.0
1668680675.8401382,42759,1668680675,839891460,,11.132155350737303,-12.671209308461947,6.014292657557723,0.17939204325014538,-1.7847392408223652,0.0
1668680675.8483272,42760,1668680675,848072130,,10.933054916511631,-12.52842273707695,6.215469149439696,0.1584950722057169,-1.7499994956170148,0.0
1668680675.8557606,42761,1668680675,855476819,,10.828136538187932,-12.452063055019668,6.3227072557753825,0.14752963855121948,-1.7315807873117095,0.0
1668680675.8635554,42762,1668680675,863331187,,10.828136538187932,-12.452063055019668,6.3227072557753825,0.14752963855121948,-1.7315807873117095,0.0
1668680675.8717973,42763,1668680675,871511615,,10.451903291988753,-11.868015963180156,6.694896534707202,0.103601400482024,-1.6455003064551503,0.0
1668680675.8797624,42764,1668680675,879551777,,10.466054352326749,-11.210890186517158,7.406891037909373,0.1180810847468846,-1.544363176383155,0.0
1668680675.8878553,42765,1668680675,887606925,,10.473157297507942,-10.863035621258867,7.784299583286217,0.12577008626026853,-1.4908403950886528,0.0
1668680675.8958223,42766,1668680675,895567443,,10.680423635377121,-10.489697954375107,8.37337738620029,0.1721286996285581,-1.4439825813222569,0.0
1668680675.9034464,42767,1668680675,903264038,,10.680423635377121,-10.489697954375107,8.37337738620029,0.1721286996285581,-1.4439825813222569,0.0
1668680675.9119685,42768,1668680675,911745787,,10.789566774192473,-10.292551723385069,8.685241469501433,0.1966154064349301,-1.4192119423417568,0.0
1668680675.9200454,42769,1668680675,919820329,,10.836785725608134,-10.073441027107101,8.964837515808485,0.20359800971868425,-1.3865807699360893,0.0
1668680675.9277031,42770,1668680675,927467708,,10.892690587751435,-10.069978395862993,9.15845869953347,0.20988340749905365,-1.385903309165269,0.0
1668680675.9356887,42771,1668680675,935447675,,10.923266279880737,-10.06765633923256,9.260272310002275,0.21327158239579536,-1.3855128810633803,0.0
1668680675.944215,42772,1668680675,943929738,,10.923266279880737,-10.06765633923256,9.260272310002275,0.21327158239579536,-1.3855128810633803,0.0
1668680675.951804,42773,1668680675,951562777,,10.821253000946983,-10.108909264142326,9.251111137691883,0.18833480748269904,-1.3812867697115656,0.0
1668680675.9598162,42774,1668680675,959580653,,10.450269207650006,-10.345898820583184,8.86216073736672,0.12297957592320034,-1.4116898120607417,0.0
1668680675.9680824,42775,1668680675,967845683,,10.25493994693296,-10.470327781741013,8.656442365023047,0.08846690572644027,-1.4277473906809957,0.0
1668680675.975824,42776,1668680675,975531167,,10.25493994693296,-10.470327781741013,8.656442365023047,0.08846690572644027,-1.4277473906809957,0.0
1668680675.9842243,42777,1668680675,983892086,,10.35312377118446,-10.790668751982379,8.532531410342015,0.08906666371349929,-1.464521280590058,0.0
1668680675.991813,42778,1668680675,991605344,,10.405499707027346,-10.959690523395214,8.467048807145929,0.08953764822978874,-1.4839106905803425,0.0
1668680675.9997325,42779,1668680675,999504335,,10.384827853705525,-11.125659191318565,8.448308911118376,0.09054799446746126,-1.5098849956833513,0.0
1668680676.0077364,42780,1668680676,7521667,,10.54248735058085,-10.719969604241191,8.266282705136682,0.1303526323787364,-1.4796137808866978,0.0
1668680676.0154808,42781,1668680676,15289444,,10.54248735058085,-10.719969604241191,8.266282705136682,0.1303526323787364,-1.4796137808866978,0.0
1668680676.0237284,42782,1668680676,23516799,,10.625053769585914,-10.505949620823563,8.17030050322989,0.15130300451751777,-1.4636506257257644,0.0
1668680676.0317333,42783,1668680676,31539671,,11.240557887010432,-9.820119164889327,8.580002807403135,0.2684180318797671,-1.384014500292059,0.0
1668680676.0402415,42784,1668680676,39933875,,12.678822622791952,-8.066991554667375,8.779233674191625,0.4952830355912524,-1.1496417886970676,0.0
1668680676.0477192,42785,1668680676,47469983,,13.439882039920555,-7.139432127024844,8.884494183954786,0.6152802567736824,-1.0256698896105751,0.0
1668680676.055914,42786,1668680676,55592858,,13.55560283079084,-6.855787417099896,8.956766406821686,0.6388287862924145,-0.9897691477375417,0.0
1668680676.0634224,42787,1668680676,63208366,,13.55560283079084,-6.855787417099896,8.956766406821686,0.6388287862924145,-0.9897691477375417,0.0
1668680676.0719056,42788,1668680676,71654536,,13.61756778547985,-6.706418197000142,8.99339525638186,0.6512736256649786,-0.9707895418739079,0.0
1668680676.0796938,42789,1668680676,79473030,,13.70694826698934,-6.981184680863823,9.039128578550834,0.6650315437624363,-1.01175220686786,0.0
1668680676.0877414,42790,1668680676,87518281,,12.959246203637,-7.960407669208146,8.713057163328848,0.543214350444404,-1.1499930517271886,0.0
1668680676.0958972,42791,1668680676,95548460,,12.562748153382296,-8.479276676129096,8.540967058556575,0.4787022553566376,-1.2231705283608623,0.0
1668680676.1035697,42792,1668680676,103378044,,12.562748153382296,-8.479276676129096,8.540967058556575,0.4787022553566376,-1.2231705283608623,0.0
1668680676.1120036,42793,1668680676,111713924,,12.352540230703733,-9.444784910911775,8.151785909491913,0.42900136496954955,-1.3552412510708107,0.0
1668680676.1199417,42794,1668680676,119701194,,12.075807244267104,-10.388621431448307,7.805009552061007,0.3755323580953447,-1.4843016039611918,0.0
1668680676.1278567,42795,1668680676,127584590,,11.929809605815471,-10.88741044860464,7.621756376416531,0.3472991732311943,-1.5525574019131438,0.0
1668680676.1363285,42796,1668680676,136064904,,11.800936730364556,-11.169934415649056,7.27219905675156,0.3092922499581455,-1.589485030484349,0.0
1668680676.143702,42797,1668680676,143351839,,11.800936730364556,-11.169934415649056,7.27219905675156,0.3092922499581455,-1.589485030484349,0.0
1668680676.1517613,42798,1668680676,151535505,,11.733271872990152,-11.31947098884846,7.08632822754277,0.28918994992939395,-1.6090179597507506,0.0
1668680676.159703,42799,1668680676,159462720,,11.97559865383074,-11.623673898987143,6.967161379165731,0.3326094260221554,-1.6670751334673437,0.0
1668680676.1678455,42800,1668680676,167595998,,12.691350854079001,-11.357720031788542,7.103515818463491,0.46262839318865817,-1.6590287554622214,0.0
1668680676.1753747,42801,1668680676,175167486,,12.691350854079001,-11.357720031788542,7.103515818463491,0.46262839318865817,-1.6590287554622214,0.0
1668680676.1846542,42802,1668680676,184433709,,13.069985641283374,-11.217210265409214,7.175459535524177,0.5314017577896507,-1.65478112018444,0.0
1668680676.191875,42803,1668680676,191640772,,13.796849173413216,-10.597058943774332,6.996098229722529,0.6509609615750436,-1.5984487723273575,0.0
1668680676.1998072,42804,1668680676,199583754,,14.07453162459326,-10.485372826520514,6.919653533462881,0.7017770120431868,-1.6005194083922762,0.0
1668680676.2093754,42805,1668680676,207526777,,14.22054894187896,-10.426387640481781,6.880819333509562,0.7285801165646759,-1.601675715405532,0.0
1668680676.2156744,42806,1668680676,215503189,,14.361064386688149,-10.65411559444555,7.2408433498270455,0.721035505164964,-1.6595738724214688,0.0
1668680676.223322,42807,1668680676,223171055,,14.361064386688149,-10.65411559444555,7.2408433498270455,0.721035505164964,-1.6595738724214688,0.0
1668680676.2318165,42808,1668680676,231609921,,14.435210306660757,-10.773974454653128,7.432542380388403,0.7170449979997433,-1.690209740082728,0.0
1668680676.239632,42809,1668680676,239411177,,14.460464332305957,-10.85685733474335,7.661314687896864,0.6937640131537357,-1.7132680344873712,0.0
1668680676.247893,42810,1668680676,247617987,,14.659561346105864,-11.217674734001251,7.929150859788924,0.6944028609119011,-1.7838592851899795,0.0
1668680676.2555108,42811,1668680676,255306337,,14.659561346105864,-11.217674734001251,7.929150859788924,0.6944028609119011,-1.7838592851899795,0.0
1668680676.2637508,42812,1668680676,263551601,,14.765359646112334,-11.408528250325984,8.070128758945797,0.6947342919568029,-1.821210592777514,0.0
1668680676.2719688,42813,1668680676,271570769,,14.997505605088737,-11.443834442789727,8.391318009043822,0.7078461261230446,-1.8505110985503401,0.0
1668680676.2802482,42814,1668680676,280004543,,15.137652636056043,-11.37729151150507,8.592762116902108,0.7124159397671919,-1.8600349333678137,0.0
1668680676.2878573,42815,1668680676,287652531,,15.211742116406672,-11.343055416323848,8.698224037074464,0.7147320649648818,-1.8651323624345792,0.0
1668680676.2954671,42816,1668680676,295242576,,15.211742116406672,-11.343055416323848,8.698224037074464,0.7147320649648818,-1.8651323624345792,0.0
1668680676.3037834,42817,1668680676,303535706,,15.372029783619976,-11.529872237781742,8.857046540338068,0.7384830675848149,-1.8995713852666776,0.0
1668680676.31194,42818,1668680676,311701285,,15.45790055478406,-11.627617832488628,8.940707442351638,0.7511564364234825,-1.917728391134129,0.0
1668680676.319757,42819,1668680676,319561342,,15.361524515762738,-11.61479647939295,9.022512628487299,0.7305439092338942,-1.911208751052821,0.0
1668680676.3280904,42820,1668680676,327904000,,15.386234703960842,-11.60491924995047,8.961097271525688,0.7236750701898498,-1.9137144718282249,0.0
1668680676.3355498,42821,1668680676,335346019,,15.386234703960842,-11.60491924995047,8.961097271525688,0.7236750701898498,-1.9137144718282249,0.0
1668680676.3438418,42822,1668680676,343598079,,15.399627514038059,-11.598450664006315,8.929656013105356,0.7201751309347436,-1.9149642245941214,0.0
1668680676.3518882,42823,1668680676,351718218,,15.444926070439253,-11.712150895714508,8.698908463296545,0.7304271479071653,-1.92521105774759,0.0
1668680676.3599668,42824,1668680676,359728379,,15.408805064457646,-11.638627260027704,8.343345558489265,0.7327560631846808,-1.9104417601871897,0.0
1668680676.3677378,42825,1668680676,367525925,,15.388926748861298,-11.60036127253044,8.155739876470662,0.7339616707650654,-1.9026430376606585,0.0
1668680676.3758519,42826,1668680676,375592748,,15.256460787444592,-11.529754234464157,7.382285474883064,0.7592810939439305,-1.867729218286899,0.0
