Time,header.seq,header.stamp.secs,header.stamp.nsecs,header.frame_id,pose.position.x,pose.position.y,pose.position.z,pose.orientation.x,pose.orientation.y,pose.orientation.z,pose.orientation.w
1668680672.840132,42384,1668680672,839593787,,-0.09879818043296344,-0.6160097982919182,0.0781922967147341,0.9955612156868467,0.09352316526210439,-0.00434759538630278,0.009611544820769187
1668680672.848461,42385,1668680672,848289193,,-0.09879818043296344,-0.6160097982919182,0.0781922967147341,0.9955612156868467,0.09352316526210439,-0.00434759538630278,0.009611544820769187
1668680672.8557925,42386,1668680672,855612516,,-0.09879818043296344,-0.6160097982919182,0.0781922967147341,0.9955612156868467,0.09352316526210439,-0.00434759538630278,0.009611544820769187
1668680672.8633623,42387,1668680672,863224822,,-0.09879818043296344,-0.6160097982919182,0.0781922967147341,0.9955612156868467,0.09352316526210439,-0.00434759538630278,0.009611544820769187
1668680672.8717337,42388,1668680672,871556842,,-0.09879818043296344,-0.6160097982919182,0.0781922967147341,0.9955612156868467,0.09352316526210439,-0.00434759538630278,0.009611544820769187
1668680672.8797061,42389,1668680672,879517270,,-0.09879818043296344,-0.6160097982919182,0.0781922967147341,0.9955612156868467,0.09352316526210439,-0.00434759538630278,0.009611544820769187
1668680672.887617,42390,1668680672,887460033,,-0.09879818043296344,-0.6160097982919182,0.0781922967147341,0.9955612156868467,0.09352316526210439,-0.00434759538630278,0.009611544820769187
1668680672.8965065,42391,1668680672,896315956,,-0.09879818043296344,-0.6160097982919182,0.0781922967147341,0.9955612156868467,0.09352316526210439,-0.00434759538630278,0.009611544820769187
1668680672.9038618,42392,1668680672,903630361,,-0.09879818043296344,-0.6160097982919182,0.0781922967147341,0.9955612156868467,0.09352316526210439,-0.00434759538630278,0.009611544820769187
1668680672.9120402,42393,1668680672,911866890,,-0.09879818043296344,-0.6160097982919182,0.0781922967147341,0.9955612156868467,0.09352316526210439,-0.00434759538630278,0.009611544820769187
1668680672.920975,42394,1668680672,920749490,,-0.09879818043296344,-0.6160097982919182,0.0781922967147341,0.9955612156868467,0.09352316526210439,-0.00434759538630278,0.009611544820769187
1668680672.9275331,42395,1668680672,927413630,,-0.09879818043296344,-0.6160097982919182,0.0781922967147341,0.9955612156868467,0.09352316526210439,-0.00434759538630278,0.009611544820769187
1668680672.9356399,42396,1668680672,935507228,,-0.09879818043296344,-0.6160097982919182,0.0781922967147341,0.9955612156868467,0.09352316526210439,-0.00434759538630278,0.009611544820769187
1668680672.943373,42397,1668680672,943259667,,-0.09879818043296344,-0.6160097982919182,0.0781922967147341,0.9955612156868467,0.09352316526210439,-0.00434759538630278,0.009611544820769187
1668680672.9517844,42398,1668680672,951653275,,-0.09879818043296344,-0.6160097982919182,0.0781922967147341,0.9955612156868467,0.09352316526210439,-0.00434759538630278,0.009611544820769187
1668680672.9597373,42399,1668680672,959606563,,-0.09879818043296344,-0.6160097982919182,0.0781922967147341,0.9955612156868467,0.09352316526210439,-0.00434759538630278,0.009611544820769187
1668680672.9679928,42400,1668680672,967760976,,-0.09879818043296344,-0.6160097982919182,0.0781922967147341,0.9955612156868467,0.09352316526210439,-0.00434759538630278,0.009611544820769187
1668680672.9755962,42401,1668680672,975350693,,-0.09879818043296344,-0.6160097982919182,0.0781922967147341,0.9955612156868467,0.09352316526210439,-0.00434759538630278,0.009611544820769187
1668680672.983822,42402,1668680672,983600127,,-0.09879818043296344,-0.6160097982919182,0.0781922967147341,0.9955612156868467,0.09352316526210439,-0.00434759538630278,0.009611544820769187
1668680672.9917283,42403,1668680672,991570734,,-0.09879818043296344,-0.6160097982919182,0.0781922967147341,0.9955612156868467,0.09352316526210439,-0.00434759538630278,0.009611544820769187
1668680672.9997337,42404,1668680672,999545709,,-0.09879818043296344,-0.6160097982919182,0.0781922967147341,0.9955612156868467,0.09352316526210439,-0.00434759538630278,0.009611544820769187
1668680673.0079165,42405,1668680673,7660386,,-0.09879818043296344,-0.6160097982919182,0.0781922967147341,0.9955612156868467,0.09352316526210439,-0.00434759538630278,0.009611544820769187
1668680673.0160067,42406,1668680673,15789692,,-0.09879818043296344,-0.6160097982919182,0.0781922967147341,0.9955612156868467,0.09352316526210439,-0.00434759538630278,0.009611544820769187
1668680673.0238225,42407,1668680673,23600390,,-0.09879818043296344,-0.6160097982919182,0.0781922967147341,0.9955612156868467,0.09352316526210439,-0.00434759538630278,0.009611544820769187
1668680673.0320797,42408,1668680673,31845427,,-0.09879818043296344,-0.6160097982919182,0.0781922967147341,0.9955612156868467,0.09352316526210439,-0.00434759538630278,0.009611544820769187
1668680673.0399373,42409,1668680673,39747974,,-0.09879818043296344,-0.6160097982919182,0.0781922967147341,0.9955612156868467,0.09352316526210439,-0.00434759538630278,0.009611544820769187
1668680673.0488894,42410,1668680673,48607146,,-0.09879818043296344,-0.6160097982919182,0.0781922967147341,0.9955612156868467,0.09352316526210439,-0.00434759538630278,0.009611544820769187
1668680673.0557132,42411,1668680673,55470409,,-0.09879818043296344,-0.6160097982919182,0.0781922967147341,0.9955612156868467,0.09352316526210439,-0.00434759538630278,0.009611544820769187
1668680673.0641026,42412,1668680673,63887374,,-0.09879818043296344,-0.6160097982919182,0.0781922967147341,0.9955612156868467,0.09352316526210439,-0.00434759538630278,0.009611544820769187
1668680673.0724432,42413,1668680673,72227985,,-0.09879818043296344,-0.6160097982919182,0.0781922967147341,0.9955612156868467,0.09352316526210439,-0.00434759538630278,0.009611544820769187
1668680673.0797596,42414,1668680673,79533452,,-0.09879818043296344,-0.6160097982919182,0.0781922967147341,0.9955612156868467,0.09352316526210439,-0.00434759538630278,0.009611544820769187
1668680673.08766,42415,1668680673,87520463,,-0.09879818043296344,-0.6160097982919182,0.0781922967147341,0.9955612156868467,0.09352316526210439,-0.00434759538630278,0.009611544820769187
1668680673.0962381,42416,1668680673,95989138,,-0.09879818043296344,-0.6160097982919182,0.0781922967147341,0.9955612156868467,0.09352316526210439,-0.00434759538630278,0.009611544820769187
1668680673.1034403,42417,1668680673,103212741,,-0.09879818043296344,-0.6160097982919182,0.0781922967147341,0.9955612156868467,0.09352316526210439,-0.00434759538630278,0.009611544820769187
1668680673.1116729,42418,1668680673,111509728,,-0.09879818043296344,-0.6160097982919182,0.0781922967147341,0.9955612156868467,0.09352316526210439,-0.00434759538630278,0.009611544820769187
1668680673.119683,42419,1668680673,119468851,,-0.09879818043296344,-0.6160097982919182,0.0781922967147341,0.9955612156868467,0.09352316526210439,-0.00434759538630278,0.009611544820769187
1668680673.1277397,42420,1668680673,127584574,,-0.09879818043296344,-0.6160097982919182,0.0781922967147341,0.9955612156868467,0.09352316526210439,-0.00434759538630278,0.009611544820769187
1668680673.1357975,42421,1668680673,135634138,,-0.09879818043296344,-0.6160097982919182,0.0781922967147341,0.9955612156868467,0.09352316526210439,-0.00434759538630278,0.009611544820769187
1668680673.1435661,42422,1668680673,143385362,,-0.09879818043296344,-0.6160097982919182,0.0781922967147341,0.9955612156868467,0.09352316526210439,-0.00434759538630278,0.009611544820769187
1668680673.1517167,42423,1668680673,151525928,,-0.09879818043296344,-0.6160097982919182,0.0781922967147341,0.9955612156868467,0.09352316526210439,-0.00434759538630278,0.009611544820769187
1668680673.1598577,42424,1668680673,159673673,,-0.09879818043296344,-0.6160097982919182,0.0781922967147341,0.9955612156868467,0.09352316526210439,-0.00434759538630278,0.009611544820769187
1668680673.1676166,42425,1668680673,167427359,,-0.09879818043296344,-0.6160097982919182,0.0781922967147341,0.9955612156868467,0.09352316526210439,-0.00434759538630278,0.009611544820769187
1668680673.1755555,42426,1668680673,175393407,,-0.09879818043296344,-0.6160097982919182,0.0781922967147341,0.9955612156868467,0.09352316526210439,-0.00434759538630278,0.009611544820769187
1668680673.1838725,42427,1668680673,183733094,,-0.09879818043296344,-0.6160097982919182,0.0781922967147341,0.9955612156868467,0.09352316526210439,-0.00434759538630278,0.009611544820769187
1668680673.191806,42428,1668680673,191667708,,-0.09879818043296344,-0.6160097982919182,0.0781922967147341,0.9955612156868467,0.09352316526210439,-0.00434759538630278,0.009611544820769187
1668680673.2002056,42429,1668680673,199995186,,-0.09879818043296344,-0.6160097982919182,0.0781922967147341,0.9955612156868467,0.09352316526210439,-0.00434759538630278,0.009611544820769187
1668680673.2082474,42430,1668680673,208100167,,-0.09879818043296344,-0.6160097982919182,0.0781922967147341,0.9955612156868467,0.09352316526210439,-0.00434759538630278,0.009611544820769187
1668680673.2158844,42431,1668680673,215637990,,-0.09879818043296344,-0.6160097982919182,0.0781922967147341,0.9955612156868467,0.09352316526210439,-0.00434759538630278,0.009611544820769187
1668680673.2235134,42432,1668680673,223399703,,-0.09879818043296344,-0.6160097982919182,0.0781922967147341,0.9955612156868467,0.09352316526210439,-0.00434759538630278,0.009611544820769187
1668680673.2318356,42433,1668680673,231597011,,-0.09879818043296344,-0.6160097982919182,0.0781922967147341,0.9955612156868467,0.09352316526210439,-0.00434759538630278,0.009611544820769187
1668680673.2397282,42434,1668680673,239552139,,-0.09879818043296344,-0.6160097982919182,0.0781922967147341,0.9955612156868467,0.09352316526210439,-0.00434759538630278,0.009611544820769187
1668680673.247698,42435,1668680673,247550369,,-0.09879818043296344,-0.6160097982919182,0.0781922967147341,0.9955612156868467,0.09352316526210439,-0.00434759538630278,0.009611544820769187
1668680673.2556064,42436,1668680673,255417238,,-0.09879818043296344,-0.6160097982919182,0.0781922967147341,0.9955612156868467,0.09352316526210439,-0.00434759538630278,0.009611544820769187
1668680673.2639096,42437,1668680673,263673529,,-0.09879818043296344,-0.6160097982919182,0.0781922967147341,0.9955612156868467,0.09352316526210439,-0.00434759538630278,0.009611544820769187
1668680673.2719913,42438,1668680673,271751378,,-0.09879818043296344,-0.6160097982919182,0.0781922967147341,0.9955612156868467,0.09352316526210439,-0.00434759538630278,0.009611544820769187
1668680673.279754,42439,1668680673,279559822,,-0.09879818043296344,-0.6160097982919182,0.0781922967147341,0.9955612156868467,0.09352316526210439,-0.00434759538630278,0.009611544820769187
1668680673.2877645,42440,1668680673,287632974,,-0.09879818043296344,-0.6160097982919182,0.0781922967147341,0.9955612156868467,0.09352316526210439,-0.00434759538630278,0.009611544820769187
1668680673.2955139,42441,1668680673,295353934,,-0.09879818043296344,-0.6160097982919182,0.0781922967147341,0.9955612156868467,0.09352316526210439,-0.00434759538630278,0.009611544820769187
1668680673.3038116,42442,1668680673,303647943,,-0.09879818043296344,-0.6160097982919182,0.0781922967147341,0.9955612156868467,0.09352316526210439,-0.00434759538630278,0.009611544820769187
1668680673.3117213,42443,1668680673,311594731,,-0.09879818043296344,-0.6160097982919182,0.0781922967147341,0.9955612156868467,0.09352316526210439,-0.00434759538630278,0.009611544820769187
1668680673.32008,42444,1668680673,319847919,,-0.09879818043296344,-0.6160097982919182,0.0781922967147341,0.9955612156868467,0.09352316526210439,-0.00434759538630278,0.009611544820769187
1668680673.3276439,42445,1668680673,327518083,,-0.09879818043296344,-0.6160097982919182,0.0781922967147341,0.9955612156868467,0.09352316526210439,-0.00434759538630278,0.009611544820769187
1668680673.336023,42446,1668680673,335800539,,-0.09879818043296344,-0.6160097982919182,0.0781922967147341,0.9955612156868467,0.09352316526210439,-0.00434759538630278,0.009611544820769187
1668680673.3434427,42447,1668680673,343314710,,-0.09879818043296344,-0.6160097982919182,0.0781922967147341,0.9955612156868467,0.09352316526210439,-0.00434759538630278,0.009611544820769187
1668680673.352113,42448,1668680673,351858035,,-0.09879818043296344,-0.6160097982919182,0.0781922967147341,0.9955612156868467,0.09352316526210439,-0.00434759538630278,0.009611544820769187
1668680673.3597853,42449,1668680673,359611994,,-0.09879818043296344,-0.6160097982919182,0.0781922967147341,0.9955612156868467,0.09352316526210439,-0.00434759538630278,0.009611544820769187
1668680673.3678114,42450,1668680673,367658657,,-0.09879818043296344,-0.6160097982919182,0.0781922967147341,0.9955612156868467,0.09352316526210439,-0.00434759538630278,0.009611544820769187
1668680673.3755853,42451,1668680673,375378329,,-0.09879818043296344,-0.6160097982919182,0.0781922967147341,0.9955612156868467,0.09352316526210439,-0.00434759538630278,0.009611544820769187
1668680673.3838942,42452,1668680673,383711032,,-0.09879818043296344,-0.6160097982919182,0.0781922967147341,0.9955612156868467,0.09352316526210439,-0.00434759538630278,0.009611544820769187
1668680673.3918765,42453,1668680673,391648953,,-0.09879818043296344,-0.6160097982919182,0.0781922967147341,0.9955612156868467,0.09352316526210439,-0.00434759538630278,0.009611544820769187
1668680673.4005783,42454,1668680673,400416404,,-0.09879818043296344,-0.6160097982919182,0.0781922967147341,0.9955612156868467,0.09352316526210439,-0.00434759538630278,0.009611544820769187
1668680673.4076955,42455,1668680673,407552480,,-0.09879818043296344,-0.6160097982919182,0.0781922967147341,0.9955612156868467,0.09352316526210439,-0.00434759538630278,0.009611544820769187
1668680673.415568,42456,1668680673,415435280,,-0.09879818043296344,-0.6160097982919182,0.0781922967147341,0.9955612156868467,0.09352316526210439,-0.00434759538630278,0.009611544820769187
1668680673.42341,42457,1668680673,423277685,,-0.09879818043296344,-0.6160097982919182,0.0781922967147341,0.9955612156868467,0.09352316526210439,-0.00434759538630278,0.009611544820769187
1668680673.4314885,42458,1668680673,431367368,,-0.09879818043296344,-0.6160097982919182,0.0781922967147341,0.9955612156868467,0.09352316526210439,-0.00434759538630278,0.009611544820769187
1668680673.4398441,42459,1668680673,439679085,,-0.09879818043296344,-0.6160097982919182,0.0781922967147341,0.9955612156868467,0.09352316526210439,-0.00434759538630278,0.009611544820769187
1668680673.4478374,42460,1668680673,447604085,,-0.09879818043296344,-0.6160097982919182,0.0781922967147341,0.9955612156868467,0.09352316526210439,-0.00434759538630278,0.009611544820769187
1668680673.455484,42461,1668680673,455336763,,-0.09879818043296344,-0.6160097982919182,0.0781922967147341,0.9955612156868467,0.09352316526210439,-0.00434759538630278,0.009611544820769187
1668680673.4637067,42462,1668680673,463574140,,-0.09879818043296344,-0.6160097982919182,0.0781922967147341,0.9955612156868467,0.09352316526210439,-0.00434759538630278,0.009611544820769187
1668680673.471791,42463,1668680673,471579297,,-0.09879818043296344,-0.6160097982919182,0.0781922967147341,0.9955612156868467,0.09352316526210439,-0.00434759538630278,0.009611544820769187
1668680673.4797919,42464,1668680673,479623917,,-0.09879818043296344,-0.6160097982919182,0.0781922967147341,0.9955612156868467,0.09352316526210439,-0.00434759538630278,0.009611544820769187
1668680673.4877799,42465,1668680673,487583056,,-0.09879818043296344,-0.6160097982919182,0.0781922967147341,0.9955612156868467,0.09352316526210439,-0.00434759538630278,0.009611544820769187
1668680673.4958813,42466,1668680673,495466734,,-0.09879818043296344,-0.6160097982919182,0.0781922967147341,0.9955612156868467,0.09352316526210439,-0.00434759538630278,0.009611544820769187
1668680673.5038722,42467,1668680673,503718564,,-0.09879818043296344,-0.6160097982919182,0.0781922967147341,0.9955612156868467,0.09352316526210439,-0.00434759538630278,0.009611544820769187
1668680673.512761,42468,1668680673,512418102,,-0.09879818043296344,-0.6160097982919182,0.0781922967147341,0.9955612156868467,0.09352316526210439,-0.00434759538630278,0.009611544820769187
1668680673.5204518,42469,1668680673,520044512,,-0.09879818043296344,-0.6160097982919182,0.0781922967147341,0.9955612156868467,0.09352316526210439,-0.00434759538630278,0.009611544820769187
1668680673.527601,42470,1668680673,527458980,,-0.09879818043296344,-0.6160097982919182,0.0781922967147341,0.9955612156868467,0.09352316526210439,-0.00434759538630278,0.009611544820769187
1668680673.5354955,42471,1668680673,535253513,,-0.09879818043296344,-0.6160097982919182,0.0781922967147341,0.9955612156868467,0.09352316526210439,-0.00434759538630278,0.009611544820769187
1668680673.543834,42472,1668680673,543633323,,-0.09879818043296344,-0.6160097982919182,0.0781922967147341,0.9955612156868467,0.09352316526210439,-0.00434759538630278,0.009611544820769187
1668680673.551627,42473,1668680673,551450737,,-0.09879818043296344,-0.6160097982919182,0.0781922967147341,0.9955612156868467,0.09352316526210439,-0.00434759538630278,0.009611544820769187
1668680673.5597463,42474,1668680673,559596732,,-0.09879818043296344,-0.6160097982919182,0.0781922967147341,0.9955612156868467,0.09352316526210439,-0.00434759538630278,0.009611544820769187
1668680673.567661,42475,1668680673,567530774,,-0.09879818043296344,-0.6160097982919182,0.0781922967147341,0.9955612156868467,0.09352316526210439,-0.00434759538630278,0.009611544820769187
1668680673.5756578,42476,1668680673,575412530,,-0.09879818043296344,-0.6160097982919182,0.0781922967147341,0.9955612156868467,0.09352316526210439,-0.00434759538630278,0.009611544820769187
1668680673.5836706,42477,1668680673,583548891,,-0.09879818043296344,-0.6160097982919182,0.0781922967147341,0.9955612156868467,0.09352316526210439,-0.00434759538630278,0.009611544820769187
1668680673.591784,42478,1668680673,591617397,,-0.09879818043296344,-0.6160097982919182,0.0781922967147341,0.9955612156868467,0.09352316526210439,-0.00434759538630278,0.009611544820769187
1668680673.5996485,42479,1668680673,599537462,,-0.09879818043296344,-0.6160097982919182,0.0781922967147341,0.9955612156868467,0.09352316526210439,-0.00434759538630278,0.009611544820769187
1668680673.608372,42480,1668680673,608165375,,-0.09879818043296344,-0.6160097982919182,0.0781922967147341,0.9955612156868467,0.09352316526210439,-0.00434759538630278,0.009611544820769187
1668680673.6155167,42481,1668680673,615357640,,-0.09879818043296344,-0.6160097982919182,0.0781922967147341,0.9955612156868467,0.09352316526210439,-0.00434759538630278,0.009611544820769187
1668680673.6237829,42482,1668680673,623590623,,-0.09879818043296344,-0.6160097982919182,0.0781922967147341,0.9955612156868467,0.09352316526210439,-0.00434759538630278,0.009611544820769187
1668680673.631734,42483,1668680673,631556988,,-0.09879818043296344,-0.6160097982919182,0.0781922967147341,0.9955612156868467,0.09352316526210439,-0.00434759538630278,0.009611544820769187
1668680673.6401103,42484,1668680673,639675600,,-0.09879818043296344,-0.6160097982919182,0.0781922967147341,0.9955612156868467,0.09352316526210439,-0.00434759538630278,0.009611544820769187
1668680673.6476321,42485,1668680673,647487586,,-0.09879818043296344,-0.6160097982919182,0.0781922967147341,0.9955612156868467,0.09352316526210439,-0.00434759538630278,0.009611544820769187
1668680673.6558583,42486,1668680673,655631835,,-0.09879818043296344,-0.6160097982919182,0.0781922967147341,0.9955612156868467,0.09352316526210439,-0.00434759538630278,0.009611544820769187
1668680673.663611,42487,1668680673,663437707,,-0.09879818043296344,-0.6160097982919182,0.0781922967147341,0.9955612156868467,0.09352316526210439,-0.00434759538630278,0.009611544820769187
1668680673.6716547,42488,1668680673,671540765,,-0.09879818043296344,-0.6160097982919182,0.0781922967147341,0.9955612156868467,0.09352316526210439,-0.00434759538630278,0.009611544820769187
1668680673.6796348,42489,1668680673,679471734,,-0.09879818043296344,-0.6160097982919182,0.0781922967147341,0.9955612156868467,0.09352316526210439,-0.00434759538630278,0.009611544820769187
1668680673.687714,42490,1668680673,687558475,,-0.09879818043296344,-0.6160097982919182,0.0781922967147341,0.9955612156868467,0.09352316526210439,-0.00434759538630278,0.009611544820769187
1668680673.6953363,42491,1668680673,695206023,,-0.09879690133441453,-0.6160113051943948,0.0781922967147341,0.9955612156868467,0.09352316526210439,-0.00434759538630278,0.009611544820769187
1668680673.7039258,42492,1668680673,703781936,,-0.09879306406494526,-0.6160158258709837,0.0781922967147341,0.9955612156868467,0.09352316526210439,-0.00434759538630278,0.009611544820769187
1668680673.711933,42493,1668680673,711804093,,-0.09878666870308758,-0.6160233602291527,0.0781922967147341,0.9955612156868467,0.09352316526210439,-0.00434759538630278,0.009611544820769187
1668680673.7198024,42494,1668680673,719627459,,-0.09877771537972627,-0.6160339081146537,0.0781922967147341,0.9955612156868467,0.09352316526210439,-0.00434759538630278,0.009611544820769187
1668680673.727741,42495,1668680673,727615604,,-0.09876620427809622,-0.61604746931148,0.0781922967147341,0.9955612156868467,0.09352316526210439,-0.00434759538630278,0.009611544820769187
1668680673.7356935,42496,1668680673,735508896,,-0.0987521356337788,-0.6160640435418062,0.0781922967147341,0.9955612156868467,0.09352316526210439,-0.00434759538630278,0.009611544820769187
1668680673.7436817,42497,1668680673,743485320,,-0.09873550973469691,-0.616083630465913,0.0781922967147341,0.9955612156868467,0.09352316526210439,-0.00434759538630278,0.009611544820769187
1668680673.7516556,42498,1668680673,751489623,,-0.09871632692110918,-0.6161062296820927,0.0781922967147341,0.9955612156868467,0.09352316526210439,-0.00434759538630278,0.009611544820769187
1668680673.7597651,42499,1668680673,759645063,,-0.09869458758560296,-0.6161318407265405,0.0781922967147341,0.9955612156868467,0.09352316526210439,-0.00434759538630278,0.009611544820769187
1668680673.767867,42500,1668680673,767730867,,-0.09867029217308625,-0.6161604630732257,0.0781922967147341,0.9955612156868467,0.09352316526210439,-0.00434759538630278,0.009611544820769187
1668680673.7754028,42501,1668680673,775213262,,-0.09864344118077872,-0.6161920961337495,0.0781922967147341,0.9955612156868467,0.09352316526210439,-0.00434759538630278,0.009611544820769187
1668680673.784023,42502,1668680673,783779853,,-0.0986140351582014,-0.6162267392571833,0.0781922967147341,0.9955612156868467,0.09352316526210439,-0.00434759538630278,0.009611544820769187
1668680673.7918332,42503,1668680673,791595866,,-0.0985820747071655,-0.6162643917298916,0.0781922967147341,0.9955612156868467,0.09352316526210439,-0.00434759538630278,0.009611544820769187
1668680673.800173,42504,1668680673,799945799,,-0.0985475604817601,-0.6163050527753383,0.0781922967147341,0.9955612156868467,0.09352316526210439,-0.00434759538630278,0.009611544820769187
1668680673.8086545,42505,1668680673,808362449,,-0.09851049318833871,-0.6163487215538758,0.0781922967147341,0.9955612156868467,0.09352316526210439,-0.00434759538630278,0.009611544820769187
1668680673.815913,42506,1668680673,815733724,,-0.09847087358550488,-0.6163953971625175,0.0781922967147341,0.9955612156868467,0.09352316526210439,-0.00434759538630278,0.009611544820769187
1668680673.8234527,42507,1668680673,823322866,,-0.09842870248409663,-0.616445078634695,0.0781922967147341,0.9955612156868467,0.09352316526210439,-0.00434759538630278,0.009611544820769187
1668680673.831991,42508,1668680673,831744853,,-0.09838398074716988,-0.6164977649399972,0.0781922967147341,0.9955612156868467,0.09352316526210439,-0.00434759538630278,0.009611544820769187
1668680673.8398144,42509,1668680673,839577952,,-0.09833670928998077,-0.6165534549838942,0.0781922967147341,0.9955612156868467,0.09352316526210439,-0.00434759538630278,0.009611544820769187
1668680673.847531,42510,1668680673,847417743,,-0.09828688907996692,-0.6166121476074449,0.0781922967147341,0.9955612156868467,0.09352316526210439,-0.00434759538630278,0.009611544820769187
1668680673.8556795,42511,1668680673,855538531,,-0.09823452113672769,-0.6166738415869879,0.0781922967147341,0.9955612156868467,0.09352316526210439,-0.00434759538630278,0.009611544820769187
1668680673.8644075,42512,1668680673,864219294,,-0.09817960653200324,-0.6167385356338168,0.0781922967147341,0.9955612156868467,0.09352316526210439,-0.00434759538630278,0.009611544820769187
1668680673.8716533,42513,1668680673,871501379,,-0.0981221463896526,-0.6168062283938395,0.0781922967147341,0.9955612156868467,0.09352316526210439,-0.00434759538630278,0.009611544820769187
1668680673.879774,42514,1668680673,879652301,,-0.09806214188563075,-0.6168769184472216,0.0781922967147341,0.9955612156868467,0.09352316526210439,-0.00434759538630278,0.009611544820769187
1668680673.8877335,42515,1668680673,887604296,,-0.09799959424796448,-0.6169506043080139,0.0781922967147341,0.9955612156868467,0.09352316526210439,-0.00434759538630278,0.009611544820769187
1668680673.8954778,42516,1668680673,895347988,,-0.09793450475672726,-0.6170272844237645,0.0781922967147341,0.9955612156868467,0.09352316526210439,-0.00434759538630278,0.009611544820769187
1668680673.9038272,42517,1668680673,903661951,,-0.09786687474401307,-0.6171069571751155,0.0781922967147341,0.9955612156868467,0.09352316526210439,-0.00434759538630278,0.009611544820769187
1668680673.9117355,42518,1668680673,911583892,,-0.09779670559390913,-0.6171896208753839,0.0781922967147341,0.9955612156868467,0.09352316526210439,-0.00434759538630278,0.009611544820769187
1668680673.9197102,42519,1668680673,919563056,,-0.09772399874246757,-0.6172752737701277,0.0781922967147341,0.9955612156868467,0.09352316526210439,-0.00434759538630278,0.009611544820769187
1668680673.9278188,42520,1668680673,927638721,,-0.09764875567767603,-0.6173639140366967,0.0781922967147341,0.9955612156868467,0.09352316526210439,-0.00434759538630278,0.009611544820769187
1668680673.9355648,42521,1668680673,935417536,,-0.09757097793942725,-0.6174555397837683,0.0781922967147341,0.9955612156868467,0.09352316526210439,-0.00434759538630278,0.009611544820769187
1668680673.944168,42522,1668680673,943791637,,-0.09749066711948748,-0.6175501490508686,0.0781922967147341,0.9955612156868467,0.09352316526210439,-0.00434759538630278,0.009611544820769187
1668680673.9521012,42523,1668680673,951842669,,-0.097407824861464,-0.6176477398078788,0.0781922967147341,0.9955612156868467,0.09352316526210439,-0.00434759538630278,0.009611544820769187
1668680673.9596136,42524,1668680673,959479149,,-0.09732245286077139,-0.6177483099545268,0.0781922967147341,0.9955612156868467,0.09352316526210439,-0.00434759538630278,0.009611544820769187
1668680673.9683645,42525,1668680673,968157409,,-0.09723455286459687,-0.6178518573198652,0.0781922967147341,0.9955612156868467,0.09352316526210439,-0.00434759538630278,0.009611544820769187
1668680673.976403,42526,1668680673,976186431,,-0.09714412667186459,-0.6179583796617344,0.0781922967147341,0.9955612156868467,0.09352316526210439,-0.00434759538630278,0.009611544820769187
1668680673.983493,42527,1668680673,983279503,,-0.0970511761331987,-0.6180678746662116,0.0781922967147341,0.9955612156868467,0.09352316526210439,-0.00434759538630278,0.009611544820769187
1668680673.992153,42528,1668680673,991456685,,-0.09695570315088564,-0.6181803399470465,0.0781922967147341,0.9955612156868467,0.09352316526210439,-0.00434759538630278,0.009611544820769187
1668680673.9998715,42529,1668680673,999649731,,-0.09685770967883502,-0.6182957730450834,0.0781922967147341,0.9955612156868467,0.09352316526210439,-0.00434759538630278,0.009611544820769187
1668680674.0077682,42530,1668680674,7589088,,-0.09675719772253977,-0.6184141714276691,0.0781922967147341,0.9955612156868467,0.09352316526210439,-0.00434759538630278,0.009611544820769187
1668680674.015752,42531,1668680674,15549429,,-0.09665416933903506,-0.618535532488048,0.0781922967147341,0.9955612156868467,0.09352316526210439,-0.00434759538630278,0.009611544820769187
1668680674.0235605,42532,1668680674,23379643,,-0.09654862663685619,-0.6186598535447445,0.0781922967147341,0.9955612156868467,0.09352316526210439,-0.00434759538630278,0.009611544820769187
1668680674.0317545,42533,1668680674,31579918,,-0.09644057177599542,-0.6187871318409311,0.0781922967147341,0.9955612156868467,0.09352316526210439,-0.00434759538630278,0.009611544820769187
1668680674.0396962,42534,1668680674,39484326,,-0.0963300069678578,-0.6189173645437861,0.0781922967147341,0.9955612156868467,0.09352316526210439,-0.00434759538630278,0.009611544820769187
1668680674.0477087,42535,1668680674,47526009,,-0.09621693447521593,-0.6190505487438361,0.0781922967147341,0.9955612156868467,0.09352316526210439,-0.00434759538630278,0.009611544820769187
1668680674.055429,42536,1668680674,55311561,,-0.09610135661216354,-0.6191866814542885,0.0781922967147341,0.9955612156868467,0.09352316526210439,-0.00434759538630278,0.009611544820769187
1668680674.0638025,42537,1668680674,63598494,,-0.0959832757440683,-0.6193257596103505,0.0781922967147341,0.9955612156868467,0.09352316526210439,-0.00434759538630278,0.009611544820769187
1668680674.071847,42538,1668680674,71625006,,-0.09586269428752327,-0.6194677800685376,0.0781922967147341,0.9955612156868467,0.09352316526210439,-0.00434759538630278,0.009611544820769187
1668680674.0797021,42539,1668680674,79565398,,-0.09573961471029752,-0.6196127396059687,0.0781922967147341,0.9955612156868467,0.09352316526210439,-0.00434759538630278,0.009611544820769187
1668680674.0876846,42540,1668680674,87563475,,-0.09561403953128556,-0.6197606349196516,0.0781922967147341,0.9955612156868467,0.09352316526210439,-0.00434759538630278,0.009611544820769187
1668680674.096108,42541,1668680674,95785968,,-0.09548597132045587,-0.6199114626257559,0.0781922967147341,0.9955612156868467,0.09352316526210439,-0.00434759538630278,0.009611544820769187
1668680674.103729,42542,1668680674,103509744,,-0.09535541269879828,-0.6200652192588765,0.0781922967147341,0.9955612156868467,0.09352316526210439,-0.00434759538630278,0.009611544820769187
1668680674.112326,42543,1668680674,111827141,,-0.09522236633827025,-0.6202219012712848,0.0781922967147341,0.9955612156868467,0.09352316526210439,-0.00434759538630278,0.009611544820769187
1668680674.1197462,42544,1668680674,119624101,,-0.09508683496174229,-0.6203815050321712,0.0781922967147341,0.9955612156868467,0.09352316526210439,-0.00434759538630278,0.009611544820769187
1668680674.12762,42545,1668680674,127486294,,-0.09494882134294222,-0.6205440268268753,0.0781922967147341,0.9955612156868467,0.09352316526210439,-0.00434759538630278,0.009611544820769187
1668680674.135429,42546,1668680674,135254941,,-0.09480832830639833,-0.6207094628561086,0.0781922967147341,0.9955612156868467,0.09352316526210439,-0.00434759538630278,0.009611544820769187
1668680674.1437092,42547,1668680674,143582735,,-0.09466535872738165,-0.620877809235166,0.0781922967147341,0.9955612156868467,0.09352316526210439,-0.00434759538630278,0.009611544820769187
1668680674.1517959,42548,1668680674,151582309,,-0.09451991553184708,-0.6210490619931281,0.0781922967147341,0.9955612156868467,0.09352316526210439,-0.00434759538630278,0.009611544820769187
1668680674.15988,42549,1668680674,159621400,,-0.09437200169637351,-0.6212232170720551,0.0781922967147341,0.9955612156868467,0.09352316526210439,-0.00434759538630278,0.009611544820769187
1668680674.1676803,42550,1668680674,167516302,,-0.09422162024810288,-0.6214002703261704,0.0781922967147341,0.9955612156868467,0.09352316526210439,-0.00434759538630278,0.009611544820769187
1668680674.1755288,42551,1668680674,175318642,,-0.09406877426467829,-0.6215802175210379,0.0781922967147341,0.9955612156868467,0.09352316526210439,-0.00434759538630278,0.009611544820769187
1668680674.1839101,42552,1668680674,183694004,,-0.09391346687418094,-0.6217630543327288,0.0781922967147341,0.9955612156868467,0.09352316526210439,-0.00434759538630278,0.009611544820769187
1668680674.191885,42553,1668680674,191683581,,-0.09375570125506615,-0.6219487763469815,0.0781922967147341,0.9955612156868467,0.09352316526210439,-0.00434759538630278,0.009611544820769187
1668680674.1996617,42554,1668680674,199541321,,-0.0935954806360983,-0.6221373790583542,0.0781922967147341,0.9955612156868467,0.09352316526210439,-0.00434759538630278,0.009611544820769187
1668680674.2077303,42555,1668680674,207516438,,-0.0934328082962848,-0.6223288578693686,0.0781922967147341,0.9955612156868467,0.09352316526210439,-0.00434759538630278,0.009611544820769187
1668680674.2164104,42556,1668680674,216126180,,-0.09326768756480888,-0.622523208089648,0.0781922967147341,0.9955612156868467,0.09352316526210439,-0.00434759538630278,0.009611544820769187
1668680674.2233868,42557,1668680674,223273156,,-0.09310012182096158,-0.6227204249350479,0.0781922967147341,0.9955612156868467,0.09352316526210439,-0.00434759538630278,0.009611544820769187
1668680674.2318108,42558,1668680674,231647724,,-0.09293011449407249,-0.62292050352678,0.0781922967147341,0.9955612156868467,0.09352316526210439,-0.00434759538630278,0.009611544820769187
1668680674.2399173,42559,1668680674,239660925,,-0.09275766906343957,-0.6231234388905302,0.0781922967147341,0.9955612156868467,0.09352316526210439,-0.00434759538630278,0.009611544820769187
1668680674.2480636,42560,1668680674,247834374,,-0.09258278905825808,-0.623329225955571,0.0781922967147341,0.9955612156868467,0.09352316526210439,-0.00434759538630278,0.009611544820769187
1668680674.2556686,42561,1668680674,255412251,,-0.09240547805754816,-0.6235378595538675,0.0781922967147341,0.9955612156868467,0.09352316526210439,-0.00434759538630278,0.009611544820769187
1668680674.2639318,42562,1668680674,263736433,,-0.09222573969008172,-0.6237493344191787,0.0781922967147341,0.9955612156868467,0.09352316526210439,-0.00434759538630278,0.009611544820769187
1668680674.271658,42563,1668680674,271481215,,-0.09204357763430811,-0.6239636451861539,0.0781922967147341,0.9955612156868467,0.09352316526210439,-0.00434759538630278,0.009611544820769187
1668680674.2797923,42564,1668680674,279598439,,-0.09185899561827889,-0.6241807863894244,0.0781922967147341,0.9955612156868467,0.09352316526210439,-0.00434759538630278,0.009611544820769187
1668680674.2878127,42565,1668680674,287571983,,-0.09167199741957145,-0.624400752462691,0.0781922967147341,0.9955612156868467,0.09352316526210439,-0.00434759538630278,0.009611544820769187
1668680674.2957385,42566,1668680674,295571163,,-0.09148258686521182,-0.6246235377378065,0.0781922967147341,0.9955612156868467,0.09352316526210439,-0.00434759538630278,0.009611544820769187
1668680674.303351,42567,1668680674,303234450,,-0.09129076783159622,-0.624849136443857,0.0781922967147341,0.9955612156868467,0.09352316526210439,-0.00434759538630278,0.009611544820769187
1668680674.3117676,42568,1668680674,311636971,,-0.09109654424441181,-0.6250775427062369,0.0781922967147341,0.9955612156868467,0.09352316526210439,-0.00434759538630278,0.009611544820769187
1668680674.319841,42569,1668680674,319667928,,-0.09089992007855635,-0.6253087505457233,0.0781922967147341,0.9955612156868467,0.09352316526210439,-0.00434759538630278,0.009611544820769187
1668680674.3275545,42570,1668680674,327418777,,-0.09070089935805678,-0.6255427538775469,0.0781922967147341,0.9955612156868467,0.09352316526210439,-0.00434759538630278,0.009611544820769187
1668680674.3355763,42571,1668680674,335412315,,-0.09049948615598694,-0.62577954651046,0.0781922967147341,0.9955612156868467,0.09352316526210439,-0.00434759538630278,0.009611544820769187
1668680674.343822,42572,1668680674,343601986,,-0.09029568459438418,-0.6260191221458042,0.0781922967147341,0.9955612156868467,0.09352316526210439,-0.00434759538630278,0.009611544820769187
1668680674.3517005,42573,1668680674,351562909,,-0.09008949884416502,-0.6262614743765749,0.0781922967147341,0.9955612156868467,0.09352316526210439,-0.00434759538630278,0.009611544820769187
1668680674.3600068,42574,1668680674,359846912,,-0.08988093312503975,-0.6265065966864856,0.0781922967147341,0.9955612156868467,0.09352316526210439,-0.00434759538630278,0.009611544820769187
1668680674.3676748,42575,1668680674,367465404,,-0.08966999170542614,-0.6267544824490309,0.0781922967147341,0.9955612156868467,0.09352316526210439,-0.00434759538630278,0.009611544820769187
1668680674.375968,42576,1668680674,375776158,,-0.08945667890236196,-0.6270051249265494,0.0781922967147341,0.9955612156868467,0.09352316526210439,-0.00434759538630278,0.009611544820769187
1668680674.3837411,42577,1668680674,383484107,,-0.08924099908141679,-0.6272585172692859,0.0781922967147341,0.9955612156868467,0.09352316526210439,-0.00434759538630278,0.009611544820769187
1668680674.3917708,42578,1668680674,391537013,,-0.08902295665660256,-0.6275146525144547,0.0781922967147341,0.9955612156868467,0.09352316526210439,-0.00434759538630278,0.009611544820769187
1668680674.4002166,42579,1668680674,399432986,,-0.08880255609028326,-0.6277735235853021,0.0781922967147341,0.9955612156868467,0.09352316526210439,-0.00434759538630278,0.009611544820769187
1668680674.4077635,42580,1668680674,407634885,,-0.08857980189308359,-0.6280351232901719,0.0781922967147341,0.9955612156868467,0.09352316526210439,-0.00434759538630278,0.009611544820769187
1668680674.4156525,42581,1668680674,415491879,,-0.0883546986237967,-0.6282994443215698,0.0781922967147341,0.9955612156868467,0.09352316526210439,-0.00434759538630278,0.009611544820769187
1668680674.423459,42582,1668680674,423201293,,-0.08812725088929083,-0.6285664792552323,0.0781922967147341,0.9955612156868467,0.09352316526210439,-0.00434759538630278,0.009611544820769187
1668680674.4316466,42583,1668680674,431470190,,-0.08789746334441502,-0.6288362205491949,0.0781922967147341,0.9955612156868467,0.09352316526210439,-0.00434759538630278,0.009611544820769187
1668680674.4401636,42584,1668680674,439927776,,-0.08766534069190395,-0.6291086605428645,0.0781922967147341,0.9955612156868467,0.09352316526210439,-0.00434759538630278,0.009611544820769187
1668680674.4477334,42585,1668680674,447613949,,-0.08743088768228156,-0.6293837914560948,0.0781922967147341,0.9955612156868467,0.09352316526210439,-0.00434759538630278,0.009611544820769187
1668680674.4558861,42586,1668680674,455724510,,-0.08719410911376395,-0.6296616053882637,0.0781922967147341,0.9955612156868467,0.09352316526210439,-0.00434759538630278,0.009611544820769187
1668680674.4634018,42587,1668680674,463273825,,-0.08695500983216106,-0.629942094317355,0.0781922967147341,0.9955612156868467,0.09352316526210439,-0.00434759538630278,0.009611544820769187
1668680674.4719353,42588,1668680674,471774067,,-0.08671359473077764,-0.6302252500990444,0.0781922967147341,0.9955612156868467,0.09352316526210439,-0.00434759538630278,0.009611544820769187
1668680674.4798005,42589,1668680674,479672821,,-0.08646986875031294,-0.6305110644657894,0.0781922967147341,0.9955612156868467,0.09352316526210439,-0.00434759538630278,0.009611544820769187
1668680674.4876492,42590,1668680674,487472884,,-0.08622383687875976,-0.6307995290259242,0.0781922967147341,0.9955612156868467,0.09352316526210439,-0.00434759538630278,0.009611544820769187
1668680674.4954016,42591,1668680674,495262082,,-0.08597550415130224,-0.6310906352627593,0.0781922967147341,0.9955612156868467,0.09352316526210439,-0.00434759538630278,0.009611544820769187
1668680674.5040917,42592,1668680674,503877054,,-0.08572487565021289,-0.6313843745336877,0.0781922967147341,0.9955612156868467,0.09352316526210439,-0.00434759538630278,0.009611544820769187
1668680674.511702,42593,1668680674,511547320,,-0.08547195650474854,-0.6316807380692959,0.0781922967147341,0.9955612156868467,0.09352316526210439,-0.00434759538630278,0.009611544820769187
1668680674.5199943,42594,1668680674,519768194,,-0.08521675189104537,-0.6319797169724817,0.0781922967147341,0.9955612156868467,0.09352316526210439,-0.00434759538630278,0.009611544820769187
1668680674.5284698,42595,1668680674,528034072,,-0.08495926703201301,-0.6322813022175789,0.0781922967147341,0.9955612156868467,0.09352316526210439,-0.00434759538630278,0.009611544820769187
1668680674.5356514,42596,1668680674,535332223,,-0.08469950719722762,-0.6325854846494887,0.0781922967147341,0.9955612156868467,0.09352316526210439,-0.00434759538630278,0.009611544820769187
1668680674.5437784,42597,1668680674,543583211,,-0.08443747770282402,-0.6328922549828194,0.0781922967147341,0.9955612156868467,0.09352316526210439,-0.00434759538630278,0.009611544820769187
1668680674.5517118,42598,1668680674,551590490,,-0.08417318391138696,-0.6332016038010326,0.0781922967147341,0.9955612156868467,0.09352316526210439,-0.00434759538630278,0.009611544820769187
1668680674.5602307,42599,1668680674,559563806,,-0.08390663123184135,-0.6335135215555991,0.0781922967147341,0.9955612156868467,0.09352316526210439,-0.00434759538630278,0.009611544820769187
1668680674.5676827,42600,1668680674,567460758,,-0.08363782511934147,-0.6338279985651631,0.0781922967147341,0.9955612156868467,0.09352316526210439,-0.00434759538630278,0.009611544820769187
1668680674.5754142,42601,1668680674,575251067,,-0.08336677107515948,-0.6341450250147149,0.0781922967147341,0.9955612156868467,0.09352316526210439,-0.00434759538630278,0.009611544820769187
1668680674.5839016,42602,1668680674,583695609,,-0.08309347464657274,-0.6344645909547737,0.0781922967147341,0.9955612156868467,0.09352316526210439,-0.00434759538630278,0.009611544820769187
1668680674.5943248,42603,1668680674,591577013,,-0.08281794142675028,-0.6347866863005801,0.0781922967147341,0.9955612156868467,0.09352316526210439,-0.00434759538630278,0.009611544820769187
1668680674.600741,42604,1668680674,600502631,,-0.08254017705463837,-0.6351113008312991,0.0781922967147341,0.9955612156868467,0.09352316526210439,-0.00434759538630278,0.009611544820769187
1668680674.608301,42605,1668680674,608164872,,-0.0822601872148451,-0.6354384241892331,0.0781922967147341,0.9955612156868467,0.09352316526210439,-0.00434759538630278,0.009611544820769187
1668680674.6158803,42606,1668680674,615650855,,-0.08197797763752403,-0.6357680458790474,0.0781922967147341,0.9955612156868467,0.09352316526210439,-0.00434759538630278,0.009611544820769187
1668680674.6238713,42607,1668680674,623609761,,-0.08169355409825695,-0.6361001552670049,0.0781922967147341,0.9955612156868467,0.09352316526210439,-0.00434759538630278,0.009611544820769187
1668680674.6318703,42608,1668680674,631676048,,-0.08140692241793561,-0.6364347415802152,0.0781922967147341,0.9955612156868467,0.09352316526210439,-0.00434759538630278,0.009611544820769187
1668680674.639778,42609,1668680674,639619547,,-0.08111808846264268,-0.6367717939058939,0.0781922967147341,0.9955612156868467,0.09352316526210439,-0.00434759538630278,0.009611544820769187
1668680674.6476336,42610,1668680674,647504363,,-0.08082705814353168,-0.6371113011906362,0.0781922967147341,0.9955612156868467,0.09352316526210439,-0.00434759538630278,0.009611544820769187
1668680674.6558585,42611,1668680674,655703083,,-0.08053383741670592,-0.6374532522397021,0.0781922967147341,0.9955612156868467,0.09352316526210439,-0.00434759538630278,0.009611544820769187
1668680674.6637857,42612,1668680674,663549151,,-0.0802384322830967,-0.6377976357163162,0.0781922967147341,0.9955612156868467,0.09352316526210439,-0.00434759538630278,0.009611544820769187
1668680674.6726186,42613,1668680674,672304652,,-0.07994084878834047,-0.6381444401409806,0.0781922967147341,0.9955612156868467,0.09352316526210439,-0.00434759538630278,0.009611544820769187
1668680674.6802454,42614,1668680674,680111376,,-0.07964109302265512,-0.6384936538908024,0.0781922967147341,0.9955612156868467,0.09352316526210439,-0.00434759538630278,0.009611544820769187
1668680674.6877973,42615,1668680674,687650769,,-0.07933917112071524,-0.6388452651988361,0.0781922967147341,0.9955612156868467,0.09352316526210439,-0.00434759538630278,0.009611544820769187
1668680674.695507,42616,1668680674,695323165,,-0.07903508926152673,-0.6391992621534398,0.0781922967147341,0.9955612156868467,0.09352316526210439,-0.00434759538630278,0.009611544820769187
1668680674.703799,42617,1668680674,703604998,,-0.07872885366830021,-0.6395556326976486,0.0781922967147341,0.9955612156868467,0.09352316526210439,-0.00434759538630278,0.009611544820769187
1668680674.712723,42618,1668680674,712422011,,-0.07842047060832374,-0.6399143646285621,0.0781922967147341,0.9955612156868467,0.09352316526210439,-0.00434759538630278,0.009611544820769187
1668680674.7203827,42619,1668680674,720175502,,-0.0781099463928345,-0.6402754455967495,0.0781922967147341,0.9955612156868467,0.09352316526210439,-0.00434759538630278,0.009611544820769187
1668680674.728487,42620,1668680674,728325350,,-0.07779728737688968,-0.6406388631056699,0.0781922967147341,0.9955612156868467,0.09352316526210439,-0.00434759538630278,0.009611544820769187
1668680674.7360868,42621,1668680674,735919831,,-0.07748249995923637,-0.6410046045111105,0.0781922967147341,0.9955612156868467,0.09352316526210439,-0.00434759538630278,0.009611544820769187
1668680674.7440507,42622,1668680674,743896000,,-0.07716559058218062,-0.6413726570206424,0.0781922967147341,0.9955612156868467,0.09352316526210439,-0.00434759538630278,0.009611544820769187
1668680674.7518544,42623,1668680674,751653032,,-0.07684656573145564,-0.6417430076930924,0.0781922967147341,0.9955612156868467,0.09352316526210439,-0.00434759538630278,0.009611544820769187
1668680674.7598412,42624,1668680674,759684348,,-0.076525431936089,-0.6421156434380351,0.0781922967147341,0.9955612156868467,0.09352316526210439,-0.00434759538630278,0.009611544820769187
1668680674.7677002,42625,1668680674,767577757,,-0.07620219576826905,-0.6424905510153016,0.0781922967147341,0.9955612156868467,0.09352316526210439,-0.00434759538630278,0.009611544820769187
1668680674.7755969,42626,1668680674,775423322,,-0.0758768638432104,-0.6428677170345084,0.0781922967147341,0.9955612156868467,0.09352316526210439,-0.00434759538630278,0.009611544820769187
1668680674.7833436,42627,1668680674,783190618,,-0.07554944281901854,-0.6432471279546044,0.0781922967147341,0.9955612156868467,0.09352316526210439,-0.00434759538630278,0.009611544820769187
1668680674.7918875,42628,1668680674,791708431,,-0.0752199393965536,-0.6436287700834379,0.0781922967147341,0.9955612156868467,0.09352316526210439,-0.00434759538630278,0.009611544820769187
1668680674.799661,42629,1668680674,799536393,,-0.07488836031929313,-0.6440126295773441,0.0781922967147341,0.9955612156868467,0.09352316526210439,-0.00434759538630278,0.009611544820769187
1668680674.8080192,42630,1668680674,807882601,,-0.07455471237319423,-0.6443986924407519,0.0781922967147341,0.9955612156868467,0.09352316526210439,-0.00434759538630278,0.009611544820769187
1668680674.8160174,42631,1668680674,815809317,,-0.07421900238655456,-0.6447869445258114,0.0781922967147341,0.9955612156868467,0.09352316526210439,-0.00434759538630278,0.009611544820769187
1668680674.8239567,42632,1668680674,823665905,,-0.07388123722987261,-0.6451773715320439,0.0781922967147341,0.9955612156868467,0.09352316526210439,-0.00434759538630278,0.009611544820769187
1668680674.8317447,42633,1668680674,831598083,,-0.07354142381570714,-0.6455699590060108,0.0781922967147341,0.9955612156868467,0.09352316526210439,-0.00434759538630278,0.009611544820769187
1668680674.84063,42634,1668680674,840415408,,-0.07319956909853567,-0.6459646923410061,0.0781922967147341,0.9955612156868467,0.09352316526210439,-0.00434759538630278,0.009611544820769187
1668680674.848381,42635,1668680674,848160194,,-0.07285568007461216,-0.6463615567767704,0.0781922967147341,0.9955612156868467,0.09352316526210439,-0.00434759538630278,0.009611544820769187
1668680674.8565683,42636,1668680674,856220576,,-0.07250976378182383,-0.6467605373992271,0.0781922967147341,0.9955612156868467,0.09352316526210439,-0.00434759538630278,0.009611544820769187
1668680674.8633313,42637,1668680674,863124144,,-0.07216182729954712,-0.6471616191402413,0.0781922967147341,0.9955612156868467,0.09352316526210439,-0.00434759538630278,0.009611544820769187
1668680674.8714874,42638,1668680674,871364902,,-0.07181187774850285,-0.6475647867774016,0.0781922967147341,0.9955612156868467,0.09352316526210439,-0.00434759538630278,0.009611544820769187
1668680674.879736,42639,1668680674,879526616,,-0.07145992229061042,-0.6479700249338264,0.0781922967147341,0.9955612156868467,0.09352316526210439,-0.00434759538630278,0.009611544820769187
1668680674.8877113,42640,1668680674,887592368,,-0.07110596812884126,-0.6483773180779919,0.0781922967147341,0.9955612156868467,0.09352316526210439,-0.00434759538630278,0.009611544820769187
1668680674.8954077,42641,1668680674,895198008,,-0.07075002250707146,-0.6487866505235862,0.0781922967147341,0.9955612156868467,0.09352316526210439,-0.00434759538630278,0.009611544820769187
1668680674.9037678,42642,1668680674,903572207,,-0.07039209270993348,-0.6491980064293863,0.0781922967147341,0.9955612156868467,0.09352316526210439,-0.00434759538630278,0.009611544820769187
1668680674.911684,42643,1668680674,911528429,,-0.07003218606266705,-0.6496113697991602,0.0781922967147341,0.9955612156868467,0.09352316526210439,-0.00434759538630278,0.009611544820769187
1668680674.9197962,42644,1668680674,919622535,,-0.06967030993096929,-0.6500267244815945,0.0781922967147341,0.9955612156868467,0.09352316526210439,-0.00434759538630278,0.009611544820769187
1668680674.927598,42645,1668680674,927465948,,-0.06930647172084398,-0.650444054170246,0.0781922967147341,0.9955612156868467,0.09352316526210439,-0.00434759538630278,0.009611544820769187
1668680674.9356668,42646,1668680674,935535282,,-0.06894067887844993,-0.6508633424035203,0.0781922967147341,0.9955612156868467,0.09352316526210439,-0.00434759538630278,0.009611544820769187
1668680674.9434092,42647,1668680674,943289587,,-0.06857293888994864,-0.6512845725646756,0.0781922967147341,0.9955612156868467,0.09352316526210439,-0.00434759538630278,0.009611544820769187
1668680674.951647,42648,1668680674,951530735,,-0.06820325928135111,-0.6517077278818522,0.0781922967147341,0.9955612156868467,0.09352316526210439,-0.00434759538630278,0.009611544820769187
1668680674.9596827,42649,1668680674,959527349,,-0.06783164761836372,-0.6521327914281291,0.0781922967147341,0.9955612156868467,0.09352316526210439,-0.00434759538630278,0.009611544820769187
1668680674.967733,42650,1668680674,967543735,,-0.0674581115062335,-0.652559746121607,0.0781922967147341,0.9955612156868467,0.09352316526210439,-0.00434759538630278,0.009611544820769187
1668680674.9758744,42651,1668680674,975716678,,-0.06708265858959245,-0.6529885747255191,0.0781922967147341,0.9955612156868467,0.09352316526210439,-0.00434759538630278,0.009611544820769187
1668680674.9839084,42652,1668680674,983658697,,-0.06670529655230104,-0.6534192598483669,0.0781922967147341,0.9955612156868467,0.09352316526210439,-0.00434759538630278,0.009611544820769187
1668680674.9915884,42653,1668680674,991465945,,-0.06632603311729103,-0.6538517839440868,0.0781922967147341,0.9955612156868467,0.09352316526210439,-0.00434759538630278,0.009611544820769187
1668680674.9996436,42654,1668680674,999430780,,-0.06594487604640739,-0.6542861293122415,0.0781922967147341,0.9955612156868467,0.09352316526210439,-0.00434759538630278,0.009611544820769187
1668680675.0078106,42655,1668680675,7617889,,-0.0655618331402494,-0.6547222780982411,0.0781922967147341,0.9955612156868467,0.09352316526210439,-0.00434759538630278,0.009611544820769187
1668680675.015785,42656,1668680675,15569952,,-0.06517691223801106,-0.6551602122935921,0.0781922967147341,0.9955612156868467,0.09352316526210439,-0.00434759538630278,0.009611544820769187
1668680675.0236158,42657,1668680675,23424468,,-0.06479012121732065,-0.6555999137361747,0.0781922967147341,0.9955612156868467,0.09352316526210439,-0.00434759538630278,0.009611544820769187
1668680675.0317023,42658,1668680675,31480861,,-0.06440146799407953,-0.6560413641105487,0.0781922967147341,0.9955612156868467,0.09352316526210439,-0.00434759538630278,0.009611544820769187
1668680675.0396678,42659,1668680675,39462969,,-0.06401096052230006,-0.6564845449482893,0.0781922967147341,0.9955612156868467,0.09352316526210439,-0.00434759538630278,0.009611544820769187
1668680675.0477927,42660,1668680675,47597451,,-0.06361860679394289,-0.6569294376283511,0.0781922967147341,0.9955612156868467,0.09352316526210439,-0.00434759538630278,0.009611544820769187
1668680675.0558395,42661,1668680675,55645510,,-0.06322441483875338,-0.6573760233774614,0.0781922967147341,0.9955612156868467,0.09352316526210439,-0.00434759538630278,0.009611544820769187
1668680675.0634305,42662,1668680675,63250583,,-0.06282839272409725,-0.6578242832705444,0.0781922967147341,0.9955612156868467,0.09352316526210439,-0.00434759538630278,0.009611544820769187
1668680675.0718186,42663,1668680675,71584134,,-0.062430548554795504,-0.6582741982311738,0.0781922967147341,0.9955612156868467,0.09352316526210439,-0.00434759538630278,0.009611544820769187
1668680675.0796773,42664,1668680675,79542344,,-0.06203089047295851,-0.6587257490320562,0.0781922967147341,0.9955612156868467,0.09352316526210439,-0.00434759538630278,0.009611544820769187
1668680675.0877657,42665,1668680675,87587420,,-0.06162942665781947,-0.659178916295544,0.0781922967147341,0.9955612156868467,0.09352316526210439,-0.00434759538630278,0.009611544820769187
1668680675.0955892,42666,1668680675,95396165,,-0.06122616532556688,-0.6596336804941803,0.0781922967147341,0.9955612156868467,0.09352316526210439,-0.00434759538630278,0.009611544820769187
1668680675.1042778,42667,1668680675,104089551,,-0.06082111472917652,-0.660090021951272,0.0781922967147341,0.9955612156868467,0.09352316526210439,-0.00434759538630278,0.009611544820769187
1668680675.1122577,42668,1668680675,112082463,,-0.060414283158242474,-0.6605479208414954,0.0781922967147341,0.9955612156868467,0.09352316526210439,-0.00434759538630278,0.009611544820769187
1668680675.1198993,42669,1668680675,119677219,,-0.06000567893880748,-0.661007357191532,0.0781922967147341,0.9955612156868467,0.09352316526210439,-0.00434759538630278,0.009611544820769187
1668680675.128561,42670,1668680675,128154898,,-0.059595310433192564,-0.6614683108807358,0.0781922967147341,0.9955612156868467,0.09352316526210439,-0.00434759538630278,0.009611544820769187
1668680675.1356924,42671,1668680675,135457610,,-0.059183186039825905,-0.6619307616418306,0.0781922967147341,0.9955612156868467,0.09352316526210439,-0.00434759538630278,0.009611544820769187
1668680675.143382,42672,1668680675,143258475,,-0.05876931419307091,-0.6623946890616405,0.0781922967147341,0.9955612156868467,0.09352316526210439,-0.00434759538630278,0.009611544820769187
1668680675.151835,42673,1668680675,151660503,,-0.05835370336305362,-0.6628600725818496,0.0781922967147341,0.9955612156868467,0.09352316526210439,-0.00434759538630278,0.009611544820769187
1668680675.1598682,42674,1668680675,159717757,,-0.057936362055489424,-0.6633268914997955,0.0781922967147341,0.9955612156868467,0.09352316526210439,-0.00434759538630278,0.009611544820769187
1668680675.1676178,42675,1668680675,167503096,,-0.05751729881150887,-0.6637951249692927,0.0781922967147341,0.9955612156868467,0.09352316526210439,-0.00434759538630278,0.009611544820769187
1668680675.1766446,42676,1668680675,176444417,,-0.05709652220748296,-0.664264752001489,0.0781922967147341,0.9955612156868467,0.09352316526210439,-0.00434759538630278,0.009611544820769187
1668680675.183322,42677,1668680675,183158382,,-0.05667404085484759,-0.664735751465753,0.0781922967147341,0.9955612156868467,0.09352316526210439,-0.00434759538630278,0.009611544820769187
1668680675.19193,42678,1668680675,191713444,,-0.05624986339992734,-0.6652081020905938,0.0781922967147341,0.9955612156868467,0.09352316526210439,-0.00434759538630278,0.009611544820769187
1668680675.1997674,42679,1668680675,199616873,,-0.05582399852375845,-0.6656817824646131,0.0781922967147341,0.9955612156868467,0.09352316526210439,-0.00434759538630278,0.009611544820769187
1668680675.2106178,42680,1668680675,207621736,,-0.05539645494191127,-0.6661567710374888,0.0781922967147341,0.9955612156868467,0.09352316526210439,-0.00434759538630278,0.009611544820769187
1668680675.2154613,42681,1668680675,215269273,,-0.05496724140431178,-0.6666330461209918,0.0781922967147341,0.9955612156868467,0.09352316526210439,-0.00434759538630278,0.009611544820769187
1668680675.2238631,42682,1668680675,223621272,,-0.05453636669506262,-0.6671105858900336,0.0781922967147341,0.9955612156868467,0.09352316526210439,-0.00434759538630278,0.009611544820769187
1668680675.2316732,42683,1668680675,231454362,,-0.054103839632263215,-0.6675893683837474,0.0781922967147341,0.9955612156868467,0.09352316526210439,-0.00434759538630278,0.009611544820769187
1668680675.2399402,42684,1668680675,239781704,,-0.05366966906782937,-0.6680693715066014,0.0781922967147341,0.9955612156868467,0.09352316526210439,-0.00434759538630278,0.009611544820769187
1668680675.2478783,42685,1668680675,247747225,,-0.05323386388731213,-0.6685505730295438,0.0781922967147341,0.9955612156868467,0.09352316526210439,-0.00434759538630278,0.009611544820769187
1668680675.25567,42686,1668680675,255418366,,-0.05279643300971587,-0.6690329505911811,0.0781922967147341,0.9955612156868467,0.09352316526210439,-0.00434759538630278,0.009611544820769187
1668680675.264182,42687,1668680675,263926694,,-0.0523573853873158,-0.6695164816989876,0.0781922967147341,0.9955612156868467,0.09352316526210439,-0.00434759538630278,0.009611544820769187
1668680675.2718022,42688,1668680675,271566916,,-0.05191673000547474,-0.6700011437305492,0.0781922967147341,0.9955612156868467,0.09352316526210439,-0.00434759538630278,0.009611544820769187
1668680675.279676,42689,1668680675,279530800,,-0.05147447588245928,-0.6704869139348375,0.0781922967147341,0.9955612156868467,0.09352316526210439,-0.00434759538630278,0.009611544820769187
1668680675.2877433,42690,1668680675,287605404,,-0.05103063206925508,-0.6709737694335179,0.0781922967147341,0.9955612156868467,0.09352316526210439,-0.00434759538630278,0.009611544820769187
1668680675.2955544,42691,1668680675,295344524,,-0.05058520764938182,-0.6714616872222894,0.0781922967147341,0.9955612156868467,0.09352316526210439,-0.00434759538630278,0.009611544820769187
1668680675.304132,42692,1668680675,303851034,,-0.050138211738707125,-0.6719506441722568,0.0781922967147341,0.9955612156868467,0.09352316526210439,-0.00434759538630278,0.009611544820769187
1668680675.311674,42693,1668680675,311516806,,-0.049689653485260166,-0.6724406170313353,0.0781922967147341,0.9955612156868467,0.09352316526210439,-0.00434759538630278,0.009611544820769187
1668680675.3196545,42694,1668680675,319538455,,-0.049239542069044295,-0.6729315824256874,0.0781922967147341,0.9955612156868467,0.09352316526210439,-0.00434759538630278,0.009611544820769187
1668680675.3279223,42695,1668680675,327695568,,-0.04878788670184929,-0.6734235168611921,0.0781922967147341,0.9955612156868467,0.09352316526210439,-0.00434759538630278,0.009611544820769187
1668680675.33562,42696,1668680675,335473764,,-0.04833469662706272,-0.6739163967249461,0.0781922967147341,0.9955612156868467,0.09352316526210439,-0.00434759538630278,0.009611544820769187
1668680675.3437283,42697,1668680675,343537961,,-0.04787998111948086,-0.6744101982867974,0.0781922967147341,0.9955612156868467,0.09352316526210439,-0.00434759538630278,0.009611544820769187
1668680675.3517256,42698,1668680675,351480819,,-0.04742374948511885,-0.67490489770091,0.0781922967147341,0.9955612156868467,0.09352316526210439,-0.00434759538630278,0.009611544820769187
1668680675.3597493,42699,1668680675,359574035,,-0.04696601106102023,-0.675400471007362,0.0781922967147341,0.9955612156868467,0.09352316526210439,-0.00434759538630278,0.009611544820769187
1668680675.3682327,42700,1668680675,368102097,,-0.04650677521506587,-0.6758968941337741,0.0781922967147341,0.9955612156868467,0.09352316526210439,-0.00434759538630278,0.009611544820769187
