Time,header.seq,header.stamp.secs,header.stamp.nsecs,header.frame_id,pose.position.x,pose.position.y,pose.position.z,pose.orientation.x,pose.orientation.y,pose.orientation.z,pose.orientation.w
1668678412.1718585,43160,1668678412,171483880,,-0.09533179011730708,-0.6129993759205822,0.06373195599530986,0.9955579609911308,0.09353957217624566,-0.004372517127369087,0.009776289594614348
1668678412.1800857,43161,1668678412,179970729,,-0.09533179011730708,-0.6129993759205822,0.06373195599530986,0.9955579609911308,0.09353957217624566,-0.004372517127369087,0.009776289594614348
1668678412.1872754,43162,1668678412,187121461,,-0.09533179011730708,-0.6129993759205822,0.06373195599530986,0.9955579609911308,0.09353957217624566,-0.004372517127369087,0.009776289594614348
1668678412.1952333,43163,1668678412,195077736,,-0.09533179011730708,-0.6129993759205822,0.06373195599530986,0.9955579609911308,0.09353957217624566,-0.004372517127369087,0.009776289594614348
1668678412.2021692,43164,1668678412,202064359,,-0.09533179011730708,-0.6129993759205822,0.06373195599530986,0.9955579609911308,0.09353957217624566,-0.004372517127369087,0.009776289594614348
1668678412.2111387,43165,1668678412,211016976,,-0.09533179011730708,-0.6129993759205822,0.06373195599530986,0.9955579609911308,0.09353957217624566,-0.004372517127369087,0.009776289594614348
1668678412.2192993,43166,1668678412,219165553,,-0.09533179011730708,-0.6129993759205822,0.06373195599530986,0.9955579609911308,0.09353957217624566,-0.004372517127369087,0.009776289594614348
1668678412.2270007,43167,1668678412,226861066,,-0.09533179011730708,-0.6129993759205822,0.06373195599530986,0.9955579609911308,0.09353957217624566,-0.004372517127369087,0.009776289594614348
1668678412.2349744,43168,1668678412,234886197,,-0.09533179011730708,-0.6129993759205822,0.06373195599530986,0.9955579609911308,0.09353957217624566,-0.004372517127369087,0.009776289594614348
1668678412.2423532,43169,1668678412,242253245,,-0.09533179011730708,-0.6129993759205822,0.06373195599530986,0.9955579609911308,0.09353957217624566,-0.004372517127369087,0.009776289594614348
1668678412.251187,43170,1668678412,251001742,,-0.09533179011730708,-0.6129993759205822,0.06373195599530986,0.9955579609911308,0.09353957217624566,-0.004372517127369087,0.009776289594614348
1668678412.259518,43171,1668678412,259288876,,-0.09533179011730708,-0.6129993759205822,0.06373195599530986,0.9955579609911308,0.09353957217624566,-0.004372517127369087,0.009776289594614348
1668678412.2671816,43172,1668678412,267030265,,-0.09533179011730708,-0.6129993759205822,0.06373195599530986,0.9955579609911308,0.09353957217624566,-0.004372517127369087,0.009776289594614348
1668678412.2750447,43173,1668678412,274950414,,-0.09533179011730708,-0.6129993759205822,0.06373195599530986,0.9955579609911308,0.09353957217624566,-0.004372517127369087,0.009776289594614348
1668678412.2822392,43174,1668678412,282114350,,-0.09533179011730708,-0.6129993759205822,0.06373195599530986,0.9955579609911308,0.09353957217624566,-0.004372517127369087,0.009776289594614348
1668678412.291088,43175,1668678412,290983793,,-0.09533179011730708,-0.6129993759205822,0.06373195599530986,0.9955579609911308,0.09353957217624566,-0.004372517127369087,0.009776289594614348
1668678412.2993872,43176,1668678412,299155143,,-0.09533179011730708,-0.6129993759205822,0.06373195599530986,0.9955579609911308,0.09353957217624566,-0.004372517127369087,0.009776289594614348
1668678412.308113,43177,1668678412,307731700,,-0.09533179011730708,-0.6129993759205822,0.06373195599530986,0.9955579609911308,0.09353957217624566,-0.004372517127369087,0.009776289594614348
1668678412.3158462,43178,1668678412,315536514,,-0.09533179011730708,-0.6129993759205822,0.06373195599530986,0.9955579609911308,0.09353957217624566,-0.004372517127369087,0.009776289594614348
1668678412.3223968,43179,1668678412,322233650,,-0.09533179011730708,-0.6129993759205822,0.06373195599530986,0.9955579609911308,0.09353957217624566,-0.004372517127369087,0.009776289594614348
1668678412.3309138,43180,1668678412,330796391,,-0.09533179011730708,-0.6129993759205822,0.06373195599530986,0.9955579609911308,0.09353957217624566,-0.004372517127369087,0.009776289594614348
1668678412.3391256,43181,1668678412,339004713,,-0.09533179011730708,-0.6129993759205822,0.06373195599530986,0.9955579609911308,0.09353957217624566,-0.004372517127369087,0.009776289594614348
1668678412.347055,43182,1668678412,346951481,,-0.09533179011730708,-0.6129993759205822,0.06373195599530986,0.9955579609911308,0.09353957217624566,-0.004372517127369087,0.009776289594614348
1668678412.3552456,43183,1668678412,355079919,,-0.09533179011730708,-0.6129993759205822,0.06373195599530986,0.9955579609911308,0.09353957217624566,-0.004372517127369087,0.009776289594614348
1668678412.3621907,43184,1668678412,362093323,,-0.09533179011730708,-0.6129993759205822,0.06373195599530986,0.9955579609911308,0.09353957217624566,-0.004372517127369087,0.009776289594614348
1668678412.3713946,43185,1668678412,371182011,,-0.09533179011730708,-0.6129993759205822,0.06373195599530986,0.9955579609911308,0.09353957217624566,-0.004372517127369087,0.009776289594614348
1668678412.379153,43186,1668678412,379019344,,-0.09533179011730708,-0.6129993759205822,0.06373195599530986,0.9955579609911308,0.09353957217624566,-0.004372517127369087,0.009776289594614348
1668678412.3871355,43187,1668678412,386942604,,-0.09533179011730708,-0.6129993759205822,0.06373195599530986,0.9955579609911308,0.09353957217624566,-0.004372517127369087,0.009776289594614348
1668678412.3949826,43188,1668678412,394844886,,-0.09533179011730708,-0.6129993759205822,0.06373195599530986,0.9955579609911308,0.09353957217624566,-0.004372517127369087,0.009776289594614348
1668678412.4026165,43189,1668678412,402252177,,-0.09533179011730708,-0.6129993759205822,0.06373195599530986,0.9955579609911308,0.09353957217624566,-0.004372517127369087,0.009776289594614348
1668678412.411197,43190,1668678412,411039286,,-0.09533179011730708,-0.6129993759205822,0.06373195599530986,0.9955579609911308,0.09353957217624566,-0.004372517127369087,0.009776289594614348
1668678412.4190197,43191,1668678412,418905156,,-0.09533179011730708,-0.6129993759205822,0.06373195599530986,0.9955579609911308,0.09353957217624566,-0.004372517127369087,0.009776289594614348
1668678412.4271092,43192,1668678412,426971559,,-0.09533179011730708,-0.6129993759205822,0.06373195599530986,0.9955579609911308,0.09353957217624566,-0.004372517127369087,0.009776289594614348
1668678412.4351091,43193,1668678412,435016223,,-0.09533179011730708,-0.6129993759205822,0.06373195599530986,0.9955579609911308,0.09353957217624566,-0.004372517127369087,0.009776289594614348
1668678412.4422376,43194,1668678412,442093942,,-0.09533179011730708,-0.6129993759205822,0.06373195599530986,0.9955579609911308,0.09353957217624566,-0.004372517127369087,0.009776289594614348
1668678412.4517047,43195,1668678412,451503015,,-0.09533179011730708,-0.6129993759205822,0.06373195599530986,0.9955579609911308,0.09353957217624566,-0.004372517127369087,0.009776289594614348
1668678412.459219,43196,1668678412,459004246,,-0.09533179011730708,-0.6129993759205822,0.06373195599530986,0.9955579609911308,0.09353957217624566,-0.004372517127369087,0.009776289594614348
1668678412.4670208,43197,1668678412,466840031,,-0.09533179011730708,-0.6129993759205822,0.06373195599530986,0.9955579609911308,0.09353957217624566,-0.004372517127369087,0.009776289594614348
1668678412.4751801,43198,1668678412,475007495,,-0.09533179011730708,-0.6129993759205822,0.06373195599530986,0.9955579609911308,0.09353957217624566,-0.004372517127369087,0.009776289594614348
1668678412.482316,43199,1668678412,482110675,,-0.09533179011730708,-0.6129993759205822,0.06373195599530986,0.9955579609911308,0.09353957217624566,-0.004372517127369087,0.009776289594614348
1668678412.4910922,43200,1668678412,490962243,,-0.09533179011730708,-0.6129993759205822,0.06373195599530986,0.9955579609911308,0.09353957217624566,-0.004372517127369087,0.009776289594614348
1668678412.4992821,43201,1668678412,499136825,,-0.09533179011730708,-0.6129993759205822,0.06373195599530986,0.9955579609911308,0.09353957217624566,-0.004372517127369087,0.009776289594614348
1668678412.5072014,43202,1668678412,507075670,,-0.09533179011730708,-0.6129993759205822,0.06373195599530986,0.9955579609911308,0.09353957217624566,-0.004372517127369087,0.009776289594614348
1668678412.5150137,43203,1668678412,514828648,,-0.09533179011730708,-0.6129993759205822,0.06373195599530986,0.9955579609911308,0.09353957217624566,-0.004372517127369087,0.009776289594614348
1668678412.5222566,43204,1668678412,522166397,,-0.09533179011730708,-0.6129993759205822,0.06373195599530986,0.9955579609911308,0.09353957217624566,-0.004372517127369087,0.009776289594614348
1668678412.5320077,43205,1668678412,531733486,,-0.09533179011730708,-0.6129993759205822,0.06373195599530986,0.9955579609911308,0.09353957217624566,-0.004372517127369087,0.009776289594614348
1668678412.5398743,43206,1668678412,539650426,,-0.09533179011730708,-0.6129993759205822,0.06373195599530986,0.9955579609911308,0.09353957217624566,-0.004372517127369087,0.009776289594614348
1668678412.5479584,43207,1668678412,547825009,,-0.09533179011730708,-0.6129993759205822,0.06373195599530986,0.9955579609911308,0.09353957217624566,-0.004372517127369087,0.009776289594614348
1668678412.5559058,43208,1668678412,555652301,,-0.09533179011730708,-0.6129993759205822,0.06373195599530986,0.9955579609911308,0.09353957217624566,-0.004372517127369087,0.009776289594614348
1668678412.5623443,43209,1668678412,562249810,,-0.09533179011730708,-0.6129993759205822,0.06373195599530986,0.9955579609911308,0.09353957217624566,-0.004372517127369087,0.009776289594614348
1668678412.571321,43210,1668678412,571141368,,-0.09533179011730708,-0.6129993759205822,0.06373195599530986,0.9955579609911308,0.09353957217624566,-0.004372517127369087,0.009776289594614348
1668678412.5791779,43211,1668678412,579031103,,-0.09533179011730708,-0.6129993759205822,0.06373195599530986,0.9955579609911308,0.09353957217624566,-0.004372517127369087,0.009776289594614348
1668678412.5871282,43212,1668678412,586974965,,-0.09533179011730708,-0.6129993759205822,0.06373195599530986,0.9955579609911308,0.09353957217624566,-0.004372517127369087,0.009776289594614348
1668678412.595849,43213,1668678412,595567141,,-0.09533179011730708,-0.6129993759205822,0.06373195599530986,0.9955579609911308,0.09353957217624566,-0.004372517127369087,0.009776289594614348
1668678412.6022155,43214,1668678412,602085393,,-0.09533179011730708,-0.6129993759205822,0.06373195599530986,0.9955579609911308,0.09353957217624566,-0.004372517127369087,0.009776289594614348
1668678412.610994,43215,1668678412,610865234,,-0.09533179011730708,-0.6129993759205822,0.06373195599530986,0.9955579609911308,0.09353957217624566,-0.004372517127369087,0.009776289594614348
1668678412.619186,43216,1668678412,619064555,,-0.09533179011730708,-0.6129993759205822,0.06373195599530986,0.9955579609911308,0.09353957217624566,-0.004372517127369087,0.009776289594614348
1668678412.6274054,43217,1668678412,627228581,,-0.09533179011730708,-0.6129993759205822,0.06373195599530986,0.9955579609911308,0.09353957217624566,-0.004372517127369087,0.009776289594614348
1668678412.6350596,43218,1668678412,634950334,,-0.09533179011730708,-0.6129993759205822,0.06373195599530986,0.9955579609911308,0.09353957217624566,-0.004372517127369087,0.009776289594614348
1668678412.6422648,43219,1668678412,642147474,,-0.09533179011730708,-0.6129993759205822,0.06373195599530986,0.9955579609911308,0.09353957217624566,-0.004372517127369087,0.009776289594614348
1668678412.6511283,43220,1668678412,651006293,,-0.09533179011730708,-0.6129993759205822,0.06373195599530986,0.9955579609911308,0.09353957217624566,-0.004372517127369087,0.009776289594614348
1668678412.659344,43221,1668678412,659226006,,-0.09533179011730708,-0.6129993759205822,0.06373195599530986,0.9955579609911308,0.09353957217624566,-0.004372517127369087,0.009776289594614348
1668678412.6671388,43222,1668678412,666990361,,-0.09533179011730708,-0.6129993759205822,0.06373195599530986,0.9955579609911308,0.09353957217624566,-0.004372517127369087,0.009776289594614348
1668678412.6751416,43223,1668678412,675001499,,-0.09533179011730708,-0.6129993759205822,0.06373195599530986,0.9955579609911308,0.09353957217624566,-0.004372517127369087,0.009776289594614348
1668678412.6824067,43224,1668678412,682276242,,-0.09533179011730708,-0.6129993759205822,0.06373195599530986,0.9955579609911308,0.09353957217624566,-0.004372517127369087,0.009776289594614348
1668678412.6913474,43225,1668678412,691212663,,-0.09533179011730708,-0.6129993759205822,0.06373195599530986,0.9955579609911308,0.09353957217624566,-0.004372517127369087,0.009776289594614348
1668678412.6995578,43226,1668678412,699312298,,-0.09533179011730708,-0.6129993759205822,0.06373195599530986,0.9955579609911308,0.09353957217624566,-0.004372517127369087,0.009776289594614348
1668678412.707175,43227,1668678412,706990385,,-0.09533179011730708,-0.6129993759205822,0.06373195599530986,0.9955579609911308,0.09353957217624566,-0.004372517127369087,0.009776289594614348
1668678412.7151527,43228,1668678412,714953687,,-0.09533179011730708,-0.6129993759205822,0.06373195599530986,0.9955579609911308,0.09353957217624566,-0.004372517127369087,0.009776289594614348
1668678412.7223175,43229,1668678412,722195798,,-0.09533179011730708,-0.6129993759205822,0.06373195599530986,0.9955579609911308,0.09353957217624566,-0.004372517127369087,0.009776289594614348
1668678412.7314367,43230,1668678412,731156819,,-0.09533179011730708,-0.6129993759205822,0.06373195599530986,0.9955579609911308,0.09353957217624566,-0.004372517127369087,0.009776289594614348
1668678412.7400799,43231,1668678412,739826590,,-0.09533179011730708,-0.6129993759205822,0.06373195599530986,0.9955579609911308,0.09353957217624566,-0.004372517127369087,0.009776289594614348
1668678412.7471216,43232,1668678412,746953093,,-0.09533179011730708,-0.6129993759205822,0.06373195599530986,0.9955579609911308,0.09353957217624566,-0.004372517127369087,0.009776289594614348
1668678412.7556775,43233,1668678412,755496226,,-0.09533179011730708,-0.6129993759205822,0.06373195599530986,0.9955579609911308,0.09353957217624566,-0.004372517127369087,0.009776289594614348
1668678412.7621531,43234,1668678412,762045831,,-0.09533179011730708,-0.6129993759205822,0.06373195599530986,0.9955579609911308,0.09353957217624566,-0.004372517127369087,0.009776289594614348
1668678412.7709537,43235,1668678412,770788419,,-0.09533179011730708,-0.6129993759205822,0.06373195599530986,0.9955579609911308,0.09353957217624566,-0.004372517127369087,0.009776289594614348
1668678412.7791119,43236,1668678412,778975054,,-0.09533179011730708,-0.6129993759205822,0.06373195599530986,0.9955579609911308,0.09353957217624566,-0.004372517127369087,0.009776289594614348
1668678412.7873697,43237,1668678412,787166525,,-0.09533179011730708,-0.6129993759205822,0.06373195599530986,0.9955579609911308,0.09353957217624566,-0.004372517127369087,0.009776289594614348
1668678412.795163,43238,1668678412,794957821,,-0.09533179011730708,-0.6129993759205822,0.06373195599530986,0.9955579609911308,0.09353957217624566,-0.004372517127369087,0.009776289594614348
1668678412.802366,43239,1668678412,802234539,,-0.09533179011730708,-0.6129993759205822,0.06373195599530986,0.9955579609911308,0.09353957217624566,-0.004372517127369087,0.009776289594614348
1668678412.8112862,43240,1668678412,811144827,,-0.09533179011730708,-0.6129993759205822,0.06373195599530986,0.9955579609911308,0.09353957217624566,-0.004372517127369087,0.009776289594614348
1668678412.819117,43241,1668678412,818924554,,-0.09533179011730708,-0.6129993759205822,0.06373195599530986,0.9955579609911308,0.09353957217624566,-0.004372517127369087,0.009776289594614348
1668678412.8271298,43242,1668678412,826995032,,-0.09533179011730708,-0.6129993759205822,0.06373195599530986,0.9955579609911308,0.09353957217624566,-0.004372517127369087,0.009776289594614348
1668678412.835222,43243,1668678412,835057690,,-0.09533179011730708,-0.6129993759205822,0.06373195599530986,0.9955579609911308,0.09353957217624566,-0.004372517127369087,0.009776289594614348
1668678412.8423007,43244,1668678412,842141318,,-0.09533179011730708,-0.6129993759205822,0.06373195599530986,0.9955579609911308,0.09353957217624566,-0.004372517127369087,0.009776289594614348
1668678412.8512244,43245,1668678412,851079099,,-0.09533179011730708,-0.6129993759205822,0.06373195599530986,0.9955579609911308,0.09353957217624566,-0.004372517127369087,0.009776289594614348
1668678412.8592947,43246,1668678412,859092471,,-0.09533179011730708,-0.6129993759205822,0.06373195599530986,0.9955579609911308,0.09353957217624566,-0.004372517127369087,0.009776289594614348
1668678412.8673024,43247,1668678412,867112772,,-0.09533179011730708,-0.6129993759205822,0.06373195599530986,0.9955579609911308,0.09353957217624566,-0.004372517127369087,0.009776289594614348
1668678412.8750463,43248,1668678412,874871211,,-0.09533179011730708,-0.6129993759205822,0.06373195599530986,0.9955579609911308,0.09353957217624566,-0.004372517127369087,0.009776289594614348
1668678412.8822355,43249,1668678412,882139399,,-0.09533179011730708,-0.6129993759205822,0.06373195599530986,0.9955579609911308,0.09353957217624566,-0.004372517127369087,0.009776289594614348
1668678412.891152,43250,1668678412,891033835,,-0.09533179011730708,-0.6129993759205822,0.06373195599530986,0.9955579609911308,0.09353957217624566,-0.004372517127369087,0.009776289594614348
1668678412.8999436,43251,1668678412,899736903,,-0.09533179011730708,-0.6129993759205822,0.06373195599530986,0.9955579609911308,0.09353957217624566,-0.004372517127369087,0.009776289594614348
1668678412.9074173,43252,1668678412,907231264,,-0.09533179011730708,-0.6129993759205822,0.06373195599530986,0.9955579609911308,0.09353957217624566,-0.004372517127369087,0.009776289594614348
1668678412.9163573,43253,1668678412,916236527,,-0.09533179011730708,-0.6129993759205822,0.06373195599530986,0.9955579609911308,0.09353957217624566,-0.004372517127369087,0.009776289594614348
1668678412.9222577,43254,1668678412,922144697,,-0.09533179011730708,-0.6129993759205822,0.06373195599530986,0.9955579609911308,0.09353957217624566,-0.004372517127369087,0.009776289594614348
1668678412.9311867,43255,1668678412,930995454,,-0.09533179011730708,-0.6129993759205822,0.06373195599530986,0.9955579609911308,0.09353957217624566,-0.004372517127369087,0.009776289594614348
1668678412.9389687,43256,1668678412,938860030,,-0.09533179011730708,-0.6129993759205822,0.06373195599530986,0.9955579609911308,0.09353957217624566,-0.004372517127369087,0.009776289594614348
1668678412.9469972,43257,1668678412,946887845,,-0.09533179011730708,-0.6129993759205822,0.06373195599530986,0.9955579609911308,0.09353957217624566,-0.004372517127369087,0.009776289594614348
1668678412.9553382,43258,1668678412,955121883,,-0.09533179011730708,-0.6129993759205822,0.06373195599530986,0.9955579609911308,0.09353957217624566,-0.004372517127369087,0.009776289594614348
1668678412.962209,43259,1668678412,962104174,,-0.09533179011730708,-0.6129993759205822,0.06373195599530986,0.9955579609911308,0.09353957217624566,-0.004372517127369087,0.009776289594614348
1668678412.97108,43260,1668678412,970960221,,-0.09533179011730708,-0.6129993759205822,0.06373195599530986,0.9955579609911308,0.09353957217624566,-0.004372517127369087,0.009776289594614348
1668678412.979517,43261,1668678412,979348413,,-0.09533179011730708,-0.6129993759205822,0.06373195599530986,0.9955579609911308,0.09353957217624566,-0.004372517127369087,0.009776289594614348
1668678412.9870076,43262,1668678412,986845074,,-0.09533179011730708,-0.6129993759205822,0.06373195599530986,0.9955579609911308,0.09353957217624566,-0.004372517127369087,0.009776289594614348
1668678412.9952989,43263,1668678412,995156952,,-0.09533179011730708,-0.6129993759205822,0.06373195599530986,0.9955579609911308,0.09353957217624566,-0.004372517127369087,0.009776289594614348
1668678413.002257,43264,1668678413,2099265,,-0.09533179011730708,-0.6129993759205822,0.06373195599530986,0.9955579609911308,0.09353957217624566,-0.004372517127369087,0.009776289594614348
1668678413.011409,43265,1668678413,11304180,,-0.09533179011730708,-0.6129993759205822,0.06373195599530986,0.9955579609911308,0.09353957217624566,-0.004372517127369087,0.009776289594614348
1668678413.0190718,43266,1668678413,18955714,,-0.09533179011730708,-0.6129993759205822,0.06373195599530986,0.9955579609911308,0.09353957217624566,-0.004372517127369087,0.009776289594614348
1668678413.0270278,43267,1668678413,26858274,,-0.09533179011730708,-0.6129993759205822,0.06373195599530986,0.9955579609911308,0.09353957217624566,-0.004372517127369087,0.009776289594614348
1668678413.0350103,43268,1668678413,34843535,,-0.09533179011730708,-0.6129993759205822,0.06373195599530986,0.9955579609911308,0.09353957217624566,-0.004372517127369087,0.009776289594614348
1668678413.04248,43269,1668678413,42306794,,-0.09533179011730708,-0.6129993759205822,0.06373195599530986,0.9955579609911308,0.09353957217624566,-0.004372517127369087,0.009776289594614348
1668678413.0510907,43270,1668678413,50970742,,-0.09533179011730708,-0.6129993759205822,0.06373195599530986,0.9955579609911308,0.09353957217624566,-0.004372517127369087,0.009776289594614348
1668678413.0591881,43271,1668678413,59017854,,-0.09533179011730708,-0.6129993759205822,0.06373195599530986,0.9955579609911308,0.09353957217624566,-0.004372517127369087,0.009776289594614348
1668678413.0675664,43272,1668678413,67204283,,-0.09533179011730708,-0.6129993759205822,0.06373195599530986,0.9955579609911308,0.09353957217624566,-0.004372517127369087,0.009776289594614348
1668678413.0753975,43273,1668678413,75272684,,-0.09533179011730708,-0.6129993759205822,0.06373195599530986,0.9955579609911308,0.09353957217624566,-0.004372517127369087,0.009776289594614348
1668678413.0822017,43274,1668678413,82097946,,-0.09533179011730708,-0.6129993759205822,0.06373195599530986,0.9955579609911308,0.09353957217624566,-0.004372517127369087,0.009776289594614348
1668678413.0909426,43275,1668678413,90826809,,-0.09533179011730708,-0.6129993759205822,0.06373195599530986,0.9955579609911308,0.09353957217624566,-0.004372517127369087,0.009776289594614348
1668678413.099957,43276,1668678413,99643321,,-0.09533179011730708,-0.6129993759205822,0.06373195599530986,0.9955579609911308,0.09353957217624566,-0.004372517127369087,0.009776289594614348
1668678413.107453,43277,1668678413,107326661,,-0.09533179011730708,-0.6129993759205822,0.06373195599530986,0.9955579609911308,0.09353957217624566,-0.004372517127369087,0.009776289594614348
1668678413.1150384,43278,1668678413,114865688,,-0.09533178933855127,-0.6129993759205822,0.06373195599530969,0.9955579609911309,0.09353957217624571,-0.0043725171273690504,0.00977628959461423
1668678413.1230066,43279,1668678413,122903491,,-0.09533178472909001,-0.6129993759205822,0.06373195599530976,0.9955579609911308,0.09353957217624556,-0.004372517127369049,0.009776289594614324
1668678413.1310601,43280,1668678413,130842196,,-0.09533177037067737,-0.6129993759205817,0.06373195599530963,0.9955579609911308,0.09353957217624558,-0.004372517127368991,0.009776289594614261
1668678413.139693,43281,1668678413,139563534,,-0.09533173771696207,-0.6129993759205808,0.06373195599530965,0.9955579609911309,0.09353957217624552,-0.00437251712736898,0.009776289594614207
1668678413.1472723,43282,1668678413,147128317,,-0.0953316758180603,-0.6129993759205776,0.06373195599530958,0.9955579609911309,0.09353957217624552,-0.00437251712736902,0.009776289594614258
1668678413.1553044,43283,1668678413,155146259,,-0.09533157153214832,-0.6129993759205674,0.0637319559953092,0.9955579609911309,0.09353957217624569,-0.004372517127369113,0.009776289594614431
1668678413.162781,43284,1668678413,162639642,,-0.09533140972467656,-0.6129993759205419,0.06373195599530854,0.9955579609911309,0.09353957217624556,-0.0043725171273692656,0.009776289594614823
1668678413.1715066,43285,1668678413,171370139,,-0.09533117345579542,-0.6129993759204877,0.06373195599530698,0.9955579609911309,0.09353957217624558,-0.004372517127369461,0.009776289594615403
1668678413.1790164,43286,1668678413,178860247,,-0.09533084415655392,-0.6129993759203818,0.06373195599530432,0.9955579609911308,0.09353957217624548,-0.004372517127370244,0.00977628959461705
1668678413.1872172,43287,1668678413,187055270,,-0.09533040179440624,-0.6129993759201903,0.06373195599529961,0.9955579609911308,0.09353957217624556,-0.004372517127371645,0.009776289594620144
1668678413.195786,43288,1668678413,195528024,,-0.09532982502855142,-0.6129993759198644,0.06373195599529143,0.9955579609911307,0.0935395721762456,-0.004372517127373983,0.009776289594625408
1668678413.2032876,43289,1668678413,203097367,,-0.09532909135559726,-0.6129993759193386,0.06373195599527826,0.9955579609911307,0.09353957217624552,-0.004372517127377723,0.009776289594633733
1668678413.211543,43290,1668678413,211166181,,-0.0953281772460279,-0.6129993759185246,0.06373195599525786,0.9955579609911305,0.0935395721762456,-0.004372517127383541,0.009776289594646933
1668678413.219057,43291,1668678413,218962373,,-0.09532705827193504,-0.6129993759173115,0.06373195599522778,0.9955579609911303,0.09353957217624549,-0.004372517127392537,0.009776289594667026
1668678413.2268937,43292,1668678413,226754892,,-0.095325709226444,-0.6129993759155585,0.06373195599518425,0.9955579609911299,0.09353957217624549,-0.00437251712740559,0.009776289594696336
1668678413.2353835,43293,1668678413,235180735,,-0.09532410423526445,-0.6129993759130948,0.06373195599512323,0.9955579609911294,0.09353957217624535,-0.004372517127424215,0.009776289594737876
1668678413.242853,43294,1668678413,242737487,,-0.09532221686075996,-0.6129993759097139,0.06373195599503928,0.9955579609911288,0.09353957217624503,-0.004372517127450091,0.009776289594795696
1668678413.251168,43295,1668678413,250975925,,-0.09532002019892691,-0.6129993759051725,0.06373195599492637,0.9955579609911278,0.09353957217624503,-0.004372517127485098,0.009776289594873956
1668678413.259975,43296,1668678413,259715452,,-0.09531748696965114,-0.6129993758991875,0.0637319559947776,0.9955579609911267,0.09353957217624496,-0.004372517127531916,0.009776289594978548
1668678413.26753,43297,1668678413,267410993,,-0.09531458960059319,-0.6129993758914325,0.06373195599458492,0.995557960991125,0.09353957217624476,-0.00437251712759323,0.009776289595115607
1668678413.2758815,43298,1668678413,275679987,,-0.0953113003050417,-0.6129993758815374,0.06373195599433909,0.9955579609911229,0.09353957217624473,-0.004372517127672505,0.009776289595292743
1668678413.2834759,43299,1668678413,283299476,,-0.09530759115405962,-0.6129993758690856,0.0637319559940297,0.9955579609911204,0.09353957217624438,-0.004372517127773384,0.00977628959551828
1668678413.2918737,43300,1668678413,291743109,,-0.09530343414322723,-0.6129993758536135,0.06373195599364538,0.995557960991117,0.09353957217624399,-0.00437251712790023,0.00977628959580193
1668678413.2997959,43301,1668678413,299592094,,-0.09529880125428243,-0.6129993758346096,0.06373195599317329,0.9955579609911128,0.09353957217624366,-0.004372517128058072,0.009776289596154826
1668678413.3074305,43302,1668678413,307238701,,-0.0952936645119369,-0.6129993758115141,0.06373195599259973,0.9955579609911078,0.09353957217624295,-0.004372517128252375,0.009776289596589088
1668678413.3154633,43303,1668678413,315255117,,-0.09528799603613647,-0.6129993757837185,0.06373195599190958,0.9955579609911016,0.0935395721762422,-0.004372517128489095,0.0097762895971184
1668678413.322616,43304,1668678413,322506619,,-0.09528176809002604,-0.6129993757505667,0.06373195599108648,0.9955579609910943,0.09353957217624144,-0.004372517128774991,0.0097762895977577
1668678413.3309526,43305,1668678413,330835696,,-0.09527495312386057,-0.6129993757113559,0.06373195599011292,0.9955579609910853,0.0935395721762406,-0.0043725171291174175,0.009776289598523207
1668678413.3394525,43306,1668678413,339234537,,-0.09526752381509704,-0.6129993756653369,0.06373195598897045,0.9955579609910746,0.09353957217623962,-0.004372517129524474,0.009776289599433302
1668678413.3470228,43307,1668678413,346865149,,-0.09525945310489015,-0.6129993756117166,0.0637319559876398,0.9955579609910622,0.09353957217623818,-0.004372517130004986,0.009776289600507544
1668678413.3551128,43308,1668678413,354851094,,-0.09525071423120327,-0.6129993755496599,0.06373195598610013,0.9955579609910473,0.09353957217623667,-0.004372517130568209,0.009776289601766876
1668678413.3646255,43309,1668678413,364097599,,-0.09524128075873871,-0.6129993754782908,0.06373195598432979,0.9955579609910302,0.09353957217623497,-0.004372517131224528,0.009776289603234251
1668678413.3711205,43310,1668678413,370949397,,-0.09523112660587613,-0.6129993753966968,0.06373195598230617,0.9955579609910105,0.09353957217623275,-0.004372517131984817,0.009776289604933933
1668678413.3790295,43311,1668678413,378923106,,-0.0952202260688058,-0.6129993753039301,0.06373195598000596,0.9955579609909876,0.09353957217623031,-0.004372517132860506,0.00977628960689167
1668678413.3873043,43312,1668678413,387044601,,-0.09520855384302877,-0.6129993751990112,0.06373195597740527,0.9955579609909615,0.09353957217622769,-0.004372517133864128,0.00977628960913532
1668678413.3955374,43313,1668678413,395345787,,-0.09519608504239034,-0.6129993750809318,0.06373195597447939,0.9955579609909315,0.09353957217622469,-0.004372517135008824,0.009776289611694645
1668678413.4027166,43314,1668678413,402531597,,-0.09518279521580322,-0.6129993749486587,0.06373195597120264,0.9955579609908976,0.0935395721762212,-0.004372517136308377,0.009776289614599872
1668678413.410996,43315,1668678413,410900265,,-0.09516866036181147,-0.6129993748011373,0.06373195596754944,0.9955579609908592,0.09353957217621744,-0.004372517137777394,0.009776289617883942
1668678413.4192064,43316,1668678413,419026359,,-0.09515365694113652,-0.6129993746372939,0.06373195596349408,0.9955579609908162,0.09353957217621296,-0.004372517139431313,0.00977628962158133
1668678413.4310603,43317,1668678413,427595948,,-0.09513776188733819,-0.6129993744560414,0.06373195595900893,0.9955579609907678,0.09353957217620788,-0.004372517141285901,0.009776289625727422
1668678413.435087,43318,1668678413,434915167,,-0.09512095261572177,-0.6129993742562815,0.06373195595406814,0.9955579609907138,0.09353957217620239,-0.0043725171433581286,0.0097762896303598
1668678413.4428124,43319,1668678413,442695508,,-0.0951032070306102,-0.6129993740369092,0.06373195594864482,0.9955579609906535,0.09353957217619632,-0.00437251714566523,0.009776289635517273
1668678413.451031,43320,1668678413,450904252,,-0.09508450353109563,-0.6129993737968162,0.06373195594271204,0.9955579609905867,0.09353957217618956,-0.004372517148225491,0.00977628964124052
1668678413.4596658,43321,1668678413,459475547,,-0.09506482101538162,-0.6129993735348945,0.0637319559362435,0.9955579609905127,0.09353957217618204,-0.0043725171510576085,0.009776289647571393
1668678413.466914,43322,1668678413,466796496,,-0.09504413888381534,-0.6129993732500413,0.06373195592921226,0.9955579609904313,0.09353957217617369,-0.004372517154181075,0.009776289654553275
1668678413.475147,43323,1668678413,474965345,,-0.09502243704071091,-0.6129993729411607,0.06373195592159243,0.9955579609903417,0.09353957217616464,-0.004372517157616063,0.009776289662231236
1668678413.4828918,43324,1668678413,482757138,,-0.09499969589505321,-0.6129993726071689,0.06373195591335834,0.9955579609902433,0.09353957217615481,-0.004372517161383078,0.00977628967065125
1668678413.4915347,43325,1668678413,491388669,,-0.09497589636017009,-0.6129993722469963,0.06373195590448444,0.9955579609901358,0.09353957217614384,-0.0043725171655033725,0.009776289679860694
1668678413.5023313,43326,1668678413,502175298,,-0.0949510198524547,-0.6129993718595923,0.06373195589494651,0.9955579609900185,0.09353957217613205,-0.004372517169998865,0.00977628968990856
1668678413.5074685,43327,1668678413,507193360,,-0.0949250482892179,-0.6129993714439267,0.06373195588471989,0.9955579609898909,0.0935395721761191,-0.004372517174891777,0.009776289700844494
1668678413.5155525,43328,1668678413,515322433,,-0.09489796408573907,-0.6129993709989946,0.06373195587378178,0.9955579609897522,0.09353957217610494,-0.004372517180205276,0.009776289712719977
1668678413.5230925,43329,1668678413,523018084,,-0.094869750151588,-0.6129993705238177,0.06373195586210943,0.995557960989602,0.09353957217608984,-0.00437251718596244,0.009776289725586867
1668678413.5313654,43330,1668678413,531250652,,-0.09484038988628422,-0.6129993700174482,0.06373195584968143,0.9955579609894396,0.09353957217607335,-0.0043725171921874815,0.009776289739498659
1668678413.5392644,43331,1668678413,539141574,,-0.09480986717434833,-0.6129993694789699,0.06373195583647742,0.9955579609892644,0.09353957217605557,-0.004372517198904393,0.009776289754509277
1668678413.5469315,43332,1668678413,546811354,,-0.09477816637981025,-0.6129993689075031,0.0637319558224774,0.9955579609890757,0.09353957217603663,-0.004372517206138126,0.009776289770674355
1668678413.555332,43333,1668678413,555209771,,-0.09474527234022344,-0.6129993683022028,0.06373195580766317,0.9955579609888728,0.0935395721760161,-0.004372517213913548,0.009776289788049333
1668678413.5628345,43334,1668678413,562698414,,-0.094711170360238,-0.6129993676622651,0.0637319557920174,0.9955579609886552,0.09353957217599426,-0.004372517222256376,0.009776289806691376
1668678413.5710304,43335,1668678413,570911836,,-0.09467584620477972,-0.6129993669869266,0.06373195577552397,0.995557960988422,0.09353957217597107,-0.004372517231192222,0.009776289826657975
1668678413.5791063,43336,1668678413,578933033,,-0.0946392860918797,-0.6129993662754653,0.06373195575816787,0.9955579609881728,0.0935395721759459,-0.004372517240747446,0.009776289848007524
1668678413.587386,43337,1668678413,587211608,,-0.09460147668519489,-0.6129993655272038,0.06373195573993565,0.9955579609879066,0.09353957217591918,-0.004372517250948358,0.009776289870798573
1668678413.5949342,43338,1668678413,594827415,,-0.09456240508626255,-0.6129993647415102,0.06373195572081504,0.9955579609876231,0.09353957217589054,-0.004372517261821532,0.009776289895090749
1668678413.6028972,43339,1668678413,602794180,,-0.09452205882651987,-0.6129993639177974,0.06373195570079483,0.9955579609873213,0.09353957217586027,-0.004372517273393929,0.009776289920943565
1668678413.6113548,43340,1668678413,611131982,,-0.0944804258591271,-0.6129993630555269,0.06373195567986584,0.9955579609870003,0.09353957217582826,-0.004372517285692732,0.009776289948418056
1668678413.6198392,43341,1668678413,619647032,,-0.09443749455062353,-0.6129993621542075,0.06373195565801966,0.9955579609866599,0.09353957217579428,-0.004372517298745175,0.00977628997757433
1668678413.6269453,43342,1668678413,626829741,,-0.09439325367244805,-0.6129993612133954,0.06373195563524979,0.9955579609862991,0.09353957217575824,-0.004372517312578751,0.009776290008473873
1668678413.635047,43343,1668678413,634888527,,-0.09434769239234793,-0.6129993602326964,0.06373195561155069,0.9955579609859173,0.09353957217572022,-0.004372517327220832,0.0097762900411778
1668678413.642985,43344,1668678413,642765721,,-0.09430080026570671,-0.6129993592117646,0.06373195558691835,0.9955579609855135,0.09353957217568,-0.004372517342699197,0.009776290075747408
1668678413.6516144,43345,1668678413,651372319,,-0.09425256722681094,-0.6129993581503034,0.06373195556135038,0.9955579609850874,0.09353957217563766,-0.00437251735904155,0.009776290112244634
1668678413.6597495,43346,1668678413,659415663,,-0.0942029835800782,-0.6129993570480641,0.06373195553484579,0.9955579609846379,0.0935395721755931,-0.004372517376275716,0.009776290150731245
1668678413.667803,43347,1668678413,667516385,,-0.09415203999126948,-0.6129993559048471,0.06373195550740489,0.9955579609841645,0.09353957217554616,-0.004372517394429542,0.009776290191269028
1668678413.6752405,43348,1668678413,675014640,,-0.0940997274786998,-0.612999354720501,0.06373195547902986,0.9955579609836664,0.09353957217549716,-0.004372517413530978,0.009776290233919934
1668678413.6828127,43349,1668678413,682687938,,-0.09404603740447047,-0.6129993534949215,0.0637319554497233,0.995557960983143,0.09353957217544545,-0.004372517433607691,0.00977629027874545
1668678413.6909406,43350,1668678413,690829234,,-0.0939909614657321,-0.6129993522280511,0.06373195541949002,0.9955579609825933,0.09353957217539145,-0.004372517454687628,0.009776290325807423
1668678413.6990294,43351,1668678413,698844855,,-0.09393449168599853,-0.6129993509198792,0.06373195538833583,0.9955579609820168,0.0935395721753348,-0.004372517476798209,0.009776290375167139
1668678413.7068515,43352,1668678413,706761755,,-0.09387662040652232,-0.61299934957044,0.06373195535626787,0.9955579609814127,0.09353957217527553,-0.004372517499967339,0.009776290426885968
1668678413.7152197,43353,1668678413,715101568,,-0.09381734027774367,-0.6129993481798117,0.06373195532329512,0.9955579609807804,0.09353957217521355,-0.004372517524222554,0.009776290481024939
1668678413.7227204,43354,1668678413,722610361,,-0.09375664425082449,-0.6129993467481166,0.06373195528942721,0.9955579609801191,0.0935395721751489,-0.004372517549591352,0.009776290537645062
1668678413.7309961,43355,1668678413,730851084,,-0.09369452556927818,-0.6129993452755191,0.06373195525467522,0.995557960979428,0.09353957217508162,-0.004372517576100953,0.0097762905968065
1668678413.7391794,43356,1668678413,739072912,,-0.09363097776070305,-0.6129993437622239,0.06373195521905146,0.9955579609787065,0.09353957217501158,-0.004372517603778516,0.009776290658569371
1668678413.747272,43357,1668678413,747132442,,-0.09356599462862761,-0.6129993422084761,0.06373195518256958,0.9955579609779539,0.09353957217493863,-0.00437251763265116,0.009776290722993413
1668678413.7551372,43358,1668678413,755012058,,-0.09349957024447503,-0.6129993406145591,0.0637319551452442,0.9955579609771695,0.09353957217486264,-0.004372517662745551,0.00977629079013774
1668678413.7627034,43359,1668678413,762529870,,-0.09343169893965415,-0.612999338980793,0.06373195510709123,0.9955579609763525,0.09353957217478386,-0.004372517694088426,0.009776290860061116
1668678413.7712593,43360,1668678413,771118491,,-0.09336237529778156,-0.6129993373075339,0.06373195506812732,0.9955579609755026,0.09353957217470193,-0.0043725177267060905,0.009776290932821657
1668678413.7792733,43361,1668678413,779097175,,-0.09329159414703922,-0.612999335595172,0.06373195502837063,0.9955579609746187,0.09353957217461696,-0.004372517760624773,0.009776291008477248
1668678413.787394,43362,1668678413,787144395,,-0.09321935055267375,-0.61299933384413,0.06373195498783994,0.9955579609737002,0.09353957217452905,-0.004372517795870461,0.009776291087084827
1668678413.795301,43363,1668678413,795173048,,-0.09314563980963997,-0.6129993320548622,0.0637319549465548,0.9955579609727465,0.09353957217443784,-0.004372517832468736,0.009776291168700778
1668678413.8031611,43364,1668678413,802914077,,-0.09307045743539069,-0.6129993302278525,0.06373195490453666,0.9955579609717571,0.09353957217434362,-0.004372517870445184,0.009776291253381308
1668678413.8114522,43365,1668678413,811312527,,-0.09299379916281814,-0.6129993283636124,0.0637319548618064,0.9955579609707311,0.093539572174246,-0.004372517909824805,0.009776291341181428
1668678413.8191543,43366,1668678413,818969888,,-0.09291566093334555,-0.61299932646268,0.06373195481838703,0.9955579609696679,0.09353957217414527,-0.004372517950632466,0.009776291432155677
1668678413.8271456,43367,1668678413,826910412,,-0.09283603889017493,-0.6129993245256192,0.06373195477430127,0.9955579609685671,0.09353957217404128,-0.004372517992892843,0.009776291526357846
1668678413.835203,43368,1668678413,834999638,,-0.09275492937168679,-0.6129993225530168,0.06373195472957355,0.9955579609674278,0.09353957217393394,-0.004372518036630183,0.009776291623841025
1668678413.8429177,43369,1668678413,842797810,,-0.09267232890499692,-0.6129993205454812,0.06373195468422836,0.9955579609662494,0.09353957217382346,-0.0043725180818682515,0.009776291724657608
1668678413.8511379,43370,1668678413,850998304,,-0.09258823419967031,-0.6129993185036413,0.06373195463829064,0.9955579609650315,0.09353957217370945,-0.004372518128630675,0.009776291828858762
1668678413.8591073,43371,1668678413,859006622,,-0.09250264214158822,-0.6129993164281453,0.06373195459178636,0.9955579609637734,0.09353957217359209,-0.004372518176940905,0.009776291936495578
1668678413.8670363,43372,1668678413,866930331,,-0.09241554978697378,-0.6129993143196585,0.06373195454474236,0.9955579609624745,0.09353957217347127,-0.004372518226821878,0.00977629204761824
1668678413.8753905,43373,1668678413,875265646,,-0.0923269543565709,-0.6129993121788614,0.063731954497185,0.9955579609611341,0.09353957217334709,-0.004372518278295861,0.009776292162275223
1668678413.8828437,43374,1668678413,882690940,,-0.09223685322997982,-0.6129993100064499,0.06373195444914183,0.9955579609597518,0.09353957217321947,-0.004372518331385425,0.009776292280515084
1668678413.8911302,43375,1668678413,890973001,,-0.0921452439401432,-0.6129993078031319,0.06373195440064094,0.995557960958327,0.09353957217308823,-0.004372518386112186,0.009776292402385525
1668678413.8990185,43376,1668678413,898859863,,-0.09205212416798686,-0.6129993055696281,0.06373195435171032,0.9955579609568591,0.09353957217295382,-0.004372518442497777,0.00977629252793266
1668678413.90746,43377,1668678413,907257747,,-0.09195749173721098,-0.6129993033066674,0.06373195430237832,0.9955579609553478,0.0935395721728156,-0.004372518500563454,0.009776292657202345
1668678413.915024,43378,1668678413,914855143,,-0.09186134460922801,-0.6129993010149895,0.06373195425267414,0.9955579609537921,0.09353957217267408,-0.004372518560329726,0.009776292790239406
1668678413.9227757,43379,1668678413,922620412,,-0.09176368087825121,-0.6129992986953408,0.06373195420262646,0.9955579609521917,0.09353957217252896,-0.004372518621817227,0.009776292927087635
1668678413.9311473,43380,1668678413,931047297,,-0.09166449876652576,-0.6129992963484733,0.06373195415226496,0.9955579609505464,0.09353957217238035,-0.004372518685045734,0.009776293067789845
1668678413.9394298,43381,1668678413,939302595,,-0.09156379661970454,-0.6129992939751455,0.0637319541016189,0.9955579609488553,0.09353957217222834,-0.004372518750034882,0.009776293212388522
1668678413.9476078,43382,1668678413,947376775,,-0.09146157290236503,-0.6129992915761181,0.06373195405071812,0.995557960947118,0.09353957217207264,-0.004372518816803904,0.00977629336092427
1668678413.9552662,43383,1668678413,955067410,,-0.09135782619366338,-0.6129992891521563,0.06373195399959197,0.9955579609453342,0.09353957217191343,-0.004372518885371739,0.0097762935134375
1668678413.962681,43384,1668678413,962579804,,-0.09125255518312624,-0.6129992867040253,0.06373195394827079,0.9955579609435032,0.09353957217175078,-0.004372518955756583,0.009776293669967311
1668678413.9711318,43385,1668678413,971019604,,-0.0911457586665767,-0.6129992842324918,0.06373195389678431,0.9955579609416246,0.09353957217158462,-0.00437251902797676,0.009776293830552387
1668678413.978908,43386,1668678413,978794759,,-0.09103743554218935,-0.6129992817383224,0.06373195384516223,0.9955579609396982,0.0935395721714149,-0.00437251910204952,0.009776293995229491
1668678413.986959,43387,1668678413,986836514,,-0.09092758480667655,-0.6129992792222806,0.06373195379343462,0.9955579609377233,0.09353957217124176,-0.00437251917799243,0.009776294164035342
1668678413.9950747,43388,1668678413,994955466,,-0.09081620555159876,-0.6129992766851295,0.06373195374163122,0.9955579609356995,0.09353957217106532,-0.004372519255821996,0.009776294337005154
1668678414.0027745,43389,1668678414,2605519,,-0.09070329695980017,-0.6129992741276281,0.06373195368978178,0.9955579609336264,0.09353957217088535,-0.00437251933555479,0.009776294514173637
1668678414.0110393,43390,1668678414,10924621,,-0.09058885830196228,-0.6129992715505312,0.06373195363791638,0.9955579609315036,0.09353957217070188,-0.004372519417206836,0.009776294695574152
1668678414.019151,43391,1668678414,19014675,,-0.09047288893327773,-0.6129992689545894,0.063731953586064,0.995557960929331,0.09353957217051516,-0.004372519500793898,0.009776294881239345
1668678414.0270824,43392,1668678414,26976399,,-0.09035538829023763,-0.6129992663405467,0.06373195353425429,0.9955579609271078,0.09353957217032502,-0.004372519586330747,0.009776295071200623
1668678414.0355093,43393,1668678414,35286819,,-0.09023635588753269,-0.6129992637091422,0.06373195348251652,0.9955579609248337,0.09353957217013154,-0.0043725196738325645,0.009776295265488708
1668678414.0427077,43394,1668678414,42589982,,-0.09011579131506195,-0.6129992610611065,0.06373195343087942,0.9955579609225086,0.09353957216993475,-0.0043725197633135175,0.009776295464133137
1668678414.0512075,43395,1668678414,51043497,,-0.08999369423505033,-0.612999258397164,0.06373195337937214,0.9955579609201318,0.09353957216973482,-0.0043725198547876366,0.00977629566716272
1668678414.0592077,43396,1668678414,59029459,,-0.08987006437926856,-0.6129992557180303,0.06373195332802309,0.9955579609177032,0.0935395721695316,-0.004372519948268601,0.009776295874604872
1668678414.0674162,43397,1668678414,67246458,,-0.08974490154635505,-0.6129992530244125,0.06373195327686056,0.9955579609152226,0.09353957216932521,-0.0043725200437693965,0.009776296086486825
1668678414.0750093,43398,1668678414,74841930,,-0.08961820559923675,-0.6129992503170083,0.06373195322591242,0.9955579609126893,0.0935395721691156,-0.00437252014130301,0.009776296302833888
1668678414.082791,43399,1668678414,82649045,,-0.08948997646264452,-0.6129992475965064,0.06373195317520652,0.9955579609101033,0.09353957216890303,-0.00437252024088154,0.009776296523670994
1668678414.0912411,43400,1668678414,91056803,,-0.08936021412072338,-0.6129992448635843,0.06373195312477042,0.9955579609074644,0.09353957216868718,-0.00437252034251728,0.009776296749022034
1668678414.099208,43401,1668678414,99084900,,-0.0892289186147308,-0.6129992421189105,0.06373195307463132,0.9955579609047719,0.09353957216846859,-0.00437252044622153,0.009776296978910344
1668678414.1072078,43402,1668678414,107044342,,-0.08909609004082615,-0.6129992393631416,0.06373195302481566,0.9955579609020259,0.0935395721682468,-0.004372520552005654,0.009776297213357366
1668678414.115278,43403,1668678414,115133330,,-0.08896172854794199,-0.6129992365969238,0.06373195297535007,0.995557960899226,0.09353957216802228,-0.004372520659880301,0.009776297452384432
1668678414.1228704,43404,1668678414,122692828,,-0.08882583433574061,-0.6129992338208914,0.0637319529262606,0.9955579608963719,0.09353957216779472,-0.004372520769855946,0.009776297696011257
1668678414.1313035,43405,1668678414,131194053,,-0.08868840765264865,-0.6129992310356676,0.06373195287757281,0.9955579608934635,0.09353957216756452,-0.0043725208819423555,0.009776297944257129
1668678414.1391451,43406,1668678414,139044487,,-0.08854944879397203,-0.6129992282418635,0.06373195282931206,0.9955579608905005,0.09353957216733179,-0.004372520996149511,0.009776298197140487
1668678414.1470666,43407,1668678414,146907270,,-0.08840895810008319,-0.6129992254400778,0.06373195278150318,0.9955579608874827,0.09353957216709623,-0.004372521112486181,0.009776298454678152
1668678414.155038,43408,1668678414,154891906,,-0.08826693595468366,-0.612999222630898,0.06373195273417094,0.9955579608844098,0.09353957216685801,-0.004372521230961556,0.00977629871688688
1668678414.1629105,43409,1668678414,162802319,,-0.0881233827831355,-0.6129992198148987,0.06373195268733915,0.9955579608812818,0.09353957216661732,-0.004372521351583821,0.009776298983781784
1668678414.1711416,43410,1668678414,171044581,,-0.08797829905086192,-0.6129992169926421,0.0637319526410319,0.9955579608780983,0.09353957216637426,-0.004372521474361135,0.009776299255377652
1668678414.1794672,43411,1668678414,179274760,,-0.08783168526181359,-0.6129992141646783,0.06373195259527213,0.9955579608748594,0.09353957216612876,-0.004372521599301185,0.009776299531687835
1668678414.187106,43412,1668678414,186972936,,-0.08768354195699891,-0.6129992113315441,0.06373195255008272,0.9955579608715646,0.09353957216588103,-0.00437252172641131,0.009776299812725153
1668678414.1954465,43413,1668678414,195205966,,-0.08753386971307539,-0.6129992084937649,0.06373195250548629,0.9955579608682139,0.0935395721656311,-0.004372521855698374,0.009776300098501403
1668678414.2030282,43414,1668678414,202904327,,-0.08738266914100098,-0.6129992056518524,0.06373195246150477,0.9955579608648072,0.09353957216537911,-0.004372521987169091,0.009776300389027577
1668678414.2111182,43415,1668678414,210999768,,-0.08722994088474277,-0.6129992028063062,0.06373195241815963,0.9955579608613443,0.09353957216512516,-0.004372522120829346,0.00977630068431327
1668678414.2189844,43416,1668678414,218854699,,-0.08707568562004142,-0.612999199957614,0.06373195237547191,0.9955579608578252,0.09353957216486943,-0.004372522256685277,0.009776300984367915
1668678414.2278242,43417,1668678414,227662005,,-0.08691990405322825,-0.6129991971062501,0.06373195233346242,0.9955579608542496,0.09353957216461171,-0.004372522394741976,0.009776301289199657
1668678414.2356565,43418,1668678414,235457499,,-0.08676259692009479,-0.6129991942526768,0.06373195229215117,0.9955579608506175,0.0935395721643522,-0.004372522535004768,0.009776301598815679
1668678414.2432988,43419,1668678414,243106714,,-0.08660376498481186,-0.6129991913973442,0.06373195225155838,0.9955579608469289,0.09353957216409105,-0.0043725226774784035,0.009776301913222778
1668678414.2511184,43420,1668678414,250992633,,-0.08644340903889582,-0.6129991885406905,0.0637319522117031,0.9955579608431836,0.09353957216382842,-0.004372522822167269,0.009776302232426622
1668678414.259477,43421,1668678414,259286207,,-0.08628152990022203,-0.612999185683141,0.06373195217260424,0.9955579608393814,0.09353957216356426,-0.004372522969075216,0.009776302556431766
1668678414.2670374,43422,1668678414,266897507,,-0.08611812841208193,-0.6129991828251098,0.06373195213428,0.9955579608355225,0.09353957216329888,-0.004372523118206045,0.009776302885242002
1668678414.275215,43423,1668678414,275045052,,-0.08595320544228358,-0.6129991799669985,0.06373195209674891,0.9955579608316067,0.09353957216303206,-0.00437252326956304,0.009776303218860832
1668678414.2826135,43424,1668678414,282480189,,-0.08578676188229219,-0.6129991771091977,0.06373195206002819,0.995557960827634,0.09353957216276414,-0.004372523423149138,0.009776303557290162
1668678414.2912638,43425,1668678414,291115672,,-0.08561879864641167,-0.6129991742520865,0.0637319520241352,0.9955579608236041,0.09353957216249553,-0.0043725235789670155,0.009776303900531615
1668678414.2991037,43426,1668678414,298931269,,-0.08544931667100349,-0.6129991713960322,0.06373195198908604,0.9955579608195175,0.09353957216222579,-0.004372523737018857,0.009776304248585447
1668678414.3072276,43427,1668678414,307028493,,-0.08527831691374138,-0.612999168541391,0.06373195195489784,0.9955579608153738,0.09353957216195528,-0.004372523897306945,0.009776304601452212
1668678414.3155582,43428,1668678414,315274105,,-0.08510580035290233,-0.6129991656885087,0.06373195192158566,0.9955579608111732,0.09353957216168407,-0.004372524059832349,0.009776304959129954
1668678414.3234606,43429,1668678414,323323918,,-0.08493176798669118,-0.6129991628377198,0.06373195188916522,0.9955579608069155,0.09353957216141245,-0.004372524224596972,0.009776305321617487
1668678414.3319118,43430,1668678414,331681373,,-0.0847562208325963,-0.6129991599893481,0.06373195185765122,0.9955579608026006,0.09353957216114038,-0.004372524391601327,0.009776305688911772
1668678414.3399248,43431,1668678414,339666552,,-0.08457915992677831,-0.6129991571437078,0.06373195182705846,0.995557960798229,0.0935395721608681,-0.0043725245608463295,0.009776306061009628
1668678414.3478837,43432,1668678414,347640589,,-0.0844005863234867,-0.6129991543011026,0.06373195179740077,0.9955579607938003,0.09353957216059551,-0.004372524732332081,0.009776306437906921
1668678414.3562422,43433,1668678414,356050331,,-0.08422050109450616,-0.612999151461826,0.06373195176869187,0.9955579607893147,0.09353957216032306,-0.0043725249060586405,0.009776306819598608
1668678414.3633406,43434,1668678414,363146687,,-0.08403890532863048,-0.6129991486261624,0.06373195174094513,0.9955579607847722,0.09353957216005065,-0.004372525082025709,0.0097763072060788
1668678414.371921,43435,1668678414,371783346,,-0.08385580013116176,-0.6129991457943862,0.06373195171417306,0.9955579607801729,0.09353957215977848,-0.00437252526023279,0.009776307597341207
1668678414.3797088,43436,1668678414,379469612,,-0.083671186623435,-0.6129991429667625,0.06373195168838806,0.9955579607755168,0.09353957215950683,-0.0043725254406787074,0.009776307993378289
1668678414.3881202,43437,1668678414,387791499,,-0.08348506594236765,-0.612999140143548,0.06373195166360256,0.9955579607708042,0.09353957215923565,-0.004372525623362332,0.009776308394182283
1668678414.3962479,43438,1668678414,395681204,,-0.08329743924082701,-0.612999137327456,0.06373217530886577,0.9955579607660348,0.09353957215896522,-0.004372525808282092,0.009776308799744433
1668678414.4026809,43439,1668678414,402574664,,-0.08310836777982354,-0.6130003769761889,0.06373379971333663,0.9955579607611905,0.09353957215869432,-0.004372525996137197,0.00977630921162408
1668678414.411197,43440,1668678414,411007673,,-0.08291790764793934,-0.6130040009542539,0.06373768256398182,0.9955579607562361,0.09353957215842103,-0.004372526188277543,0.009776309632835446
1668678414.4194446,43441,1668678414,419278842,,-0.08272608254985907,-0.6130104710574406,0.06374415167343246,0.9955579607511655,0.09353957215814532,-0.004372526384927715,0.009776310063871651
1668678414.4270325,43442,1668678414,426914214,,-0.08253545749500611,-0.6130238441478271,0.06375453820373014,0.9955579607460405,0.09353957215787086,-0.004372526583744936,0.009776310499481336
1668678414.4349558,43443,1668678414,434848122,,-0.08234970309119423,-0.6130491100149594,0.06377009390886106,0.9955579607410546,0.09353957215761019,-0.0043725267773404505,0.009776310923122943
1668678414.4428813,43444,1668678414,442715256,,-0.08217085757998703,-0.6130901957900348,0.06379243552703226,0.995557960736287,0.09353957215736801,-0.004372526962692133,0.009776311328041598
1668678414.4513156,43445,1668678414,451193340,,-0.0819994352782548,-0.6131487627302559,0.06382249117336602,0.9955579607317423,0.09353957215714437,-0.0043725271396196546,0.009776311713846998
1668678414.4592385,43446,1668678414,459025202,,-0.08183394403415127,-0.6132257129301487,0.06386008133010644,0.9955579607273154,0.09353957215693277,-0.00437252731212878,0.009776312089517356
1668678414.4671052,43447,1668678414,466995467,,-0.0816726042576927,-0.6133231108184171,0.06390528408242221,0.9955579607227856,0.09353957215671942,-0.004372527488638691,0.009776312473899998
1668678414.4760778,43448,1668678414,475859040,,-0.08151326771483645,-0.6134425287452013,0.06395658895216853,0.9955579607179622,0.09353957215649351,-0.0043725276764283155,0.009776312883274914
1668678414.4833179,43449,1668678414,483223572,,-0.08135300066634757,-0.6135858020747654,0.06401025977422162,0.9955579607125338,0.09353957215623748,-0.004372527887359974,0.009776313344167065
1668678414.4918802,43450,1668678414,491663627,,-0.08119033511371758,-0.6137524634474232,0.06406392814584853,0.9955579607063051,0.09353957215594065,-0.004372528128908187,0.009776313873262096
1668678414.4990413,43451,1668678414,498837675,,-0.08102455172076461,-0.6139412359171758,0.06411638931147627,0.995557960699245,0.09353957215560253,-0.004372528402278301,0.00977631447319696
1668678414.5070472,43452,1668678414,506919148,,-0.08085461649906198,-0.6141511450913436,0.0641659241868245,0.9955579606912316,0.09353957215521805,-0.004372528712121597,0.009776315154318828
1668678414.515021,43453,1668678414,514899175,,-0.08068009276430076,-0.6143804818219596,0.06421173031823275,0.9955579606822311,0.09353957215478682,-0.0043725290597593025,0.009776315919506845
1668678414.5226586,43454,1668678414,522559747,,-0.08050085415279422,-0.6146279132836896,0.06425351665368383,0.9955579606722403,0.09353957215431101,-0.0043725294453409854,0.009776316769011183
1668678414.5308986,43455,1668678414,530784538,,-0.0803169888220153,-0.6148920465211313,0.06429134683444925,0.9955579606612756,0.09353957215379338,-0.004372529868264698,0.009776317701394916
1668678414.5393052,43456,1668678414,539163257,,-0.08012863397648531,-0.6151716889561177,0.06432536823305914,0.995557960649378,0.09353957215323824,-0.004372530326985144,0.009776318713105416
1668678414.548118,43457,1668678414,547175367,,-0.07993589216575105,-0.6154660543573032,0.06435567589629289,0.9955579606365611,0.09353957215264878,-0.004372530821022298,0.009776319802974918
1668678414.5556462,43458,1668678414,555431294,,-0.07973890435176671,-0.6157736883775555,0.06438243046228026,0.9955579606228725,0.09353957215202974,-0.004372531348589178,0.009776320966907528
1668678414.5631142,43459,1668678414,562976880,,-0.07953782792658683,-0.6160924577017927,0.06440582206484613,0.9955579606083956,0.0935395721513871,-0.004372531906531441,0.009776322197745838
1668678414.5714087,43460,1668678414,571189706,,-0.07933282889184796,-0.6164204291434712,0.06442605806967026,0.9955579605932247,0.09353957215072817,-0.00437253249128523,0.009776323487420302
1668678414.579344,43461,1668678414,579223044,,-0.07912406851771236,-0.6167560042310416,0.06444334177333405,0.9955579605774368,0.09353957215005841,-0.004372533099940782,0.009776324829333766
1668678414.5870802,43462,1668678414,586925227,,-0.07891169782579088,-0.6170976733273137,0.06445786262991528,0.9955579605611139,0.09353957214938359,-0.0043725337294033195,0.009776326216480585
1668678414.5950832,43463,1668678414,594982572,,-0.07869586302935201,-0.6174442470235711,0.06446980547356551,0.995557960544324,0.0935395721487085,-0.0043725343770998895,0.009776327643031026
1668678414.602788,43464,1668678414,602590682,,-0.07847670477960564,-0.6177941414753924,0.06448007803838923,0.9955579605271467,0.09353957214803826,-0.004372535040015861,0.00977632910217262
1668678414.6112568,43465,1668678414,611151642,,-0.07825435785836544,-0.6181459032266864,0.06448952207442844,0.9955579605096722,0.0935395721473782,-0.004372535714739676,0.009776330586211782
1668678414.6191704,43466,1668678414,619058206,,-0.07802894951287094,-0.618498577449884,0.0644984818546336,0.9955579604919594,0.093539572146732,-0.0043725363990282816,0.009776332090081255
1668678414.6271546,43467,1668678414,627030718,,-0.07780060006840889,-0.6188512229004309,0.064507431613024,0.9955579604740699,0.09353957214610337,-0.004372537090567924,0.00977633360856237
1668678414.6351643,43468,1668678414,635056789,,-0.07756942345456898,-0.6192030883150766,0.0645162313083954,0.9955579604560557,0.09353957214549524,-0.0043725377873743195,0.009776335137181581
1668678414.6429658,43469,1668678414,642844827,,-0.07733552716055246,-0.619553885588378,0.06452417027141237,0.9955579604379519,0.09353957214490974,-0.004372538488117839,0.009776336672936578
1668678414.6512806,43470,1668678414,651137538,,-0.07709901257166249,-0.6199033495856872,0.06453087538068686,0.9955579604197814,0.09353957214434841,-0.004372539191935599,0.009776338213875415
1668678414.6596918,43471,1668678414,659400539,,-0.07685997582273403,-0.6202510775876171,0.06453620622557135,0.995557960401581,0.09353957214381288,-0.004372539897441591,0.009776339756876617
1668678414.66686,43472,1668678414,666766001,,-0.07661850721275301,-0.6205970501795726,0.06453991670859088,0.9955579603833683,0.09353957214330448,-0.004372540603953876,0.00977634130040027
1668678414.6750712,43473,1668678414,674930275,,-0.07637469181118516,-0.6209412559799947,0.06454194541654694,0.9955579603651554,0.09353957214282403,-0.0043725413110282975,0.009776342843440856
