Time,header.seq,header.stamp.secs,header.stamp.nsecs,header.frame_id,twist.linear.x,twist.linear.y,twist.linear.z,twist.angular.x,twist.angular.y,twist.angular.z
1668678412.1718636,43160,1668678412,171483880,,9.409994230440405e-16,2.3952121934708268e-15,-4.448342381341544e-15,9.703461793174896e-15,-1.2472181684911313e-15,1.092669166941818e-15
1668678412.1801205,43161,1668678412,179970729,,9.41002087154114e-16,2.3952237000568595e-15,-4.448356457523952e-15,9.633724732955798e-15,-1.2401826077566098e-15,1.0852660176799371e-15
1668678412.1872814,43162,1668678412,187121461,,9.41004538135382e-16,2.395234286116009e-15,-4.448369407611767e-15,9.564545569218451e-15,-1.2332033315079638e-15,1.0779220936121505e-15
1668678412.195236,43163,1668678412,195077736,,9.41006793038148e-16,2.395244025290426e-15,-4.4483813216925575e-15,9.495919838791003e-15,-1.2262798894693077e-15,1.0706369209369062e-15
1668678412.2022595,43164,1668678412,202064359,,9.41008867548693e-16,2.3952529853308907e-15,-4.448392282646885e-15,9.427843114206975e-15,-1.2194118349669598e-15,1.063410029643064e-15
1668678412.211146,43165,1668678412,211016976,,9.410107760983943e-16,2.3952612285681176e-15,-4.448402366724866e-15,9.360311003419622e-15,-1.2125987249006308e-15,1.0562409534795726e-15
1668678412.2193089,43166,1668678412,219165553,,9.410125319641197e-16,2.3952688123463664e-15,-4.448411644076609e-15,9.293319149518564e-15,-1.2058401197148326e-15,1.049129229925389e-15
1668678412.2270103,43167,1668678412,226861066,,9.410141473605867e-16,2.3952757894223555e-15,-4.4484201792402116e-15,9.226863230448716e-15,-1.199135583370521e-15,1.0420744001596388e-15
1668678412.2349858,43168,1668678412,234886197,,9.410156335253366e-16,2.3952822083322654e-15,-4.448428031590726e-15,9.160938958731427e-15,-1.1924846833169636e-15,1.035076009032015e-15
1668678412.2423687,43169,1668678412,242253245,,9.410170007969063e-16,2.3952881137293828e-15,-4.4484352557532e-15,9.095542081187876e-15,-1.1858869904638346e-15,1.0281336050334118e-15
1668678412.2511954,43170,1668678412,251001742,,9.410182586867505e-16,2.3952935466947305e-15,-4.448441901982676e-15,9.030668378664671e-15,-1.1793420791535311e-15,1.0212467402667973e-15
1668678412.2595286,43171,1668678412,259288876,,9.410194159454074e-16,2.3952985450228505e-15,-4.4484480165137936e-15,8.966313665761655e-15,-1.1728495271337098e-15,1.014414970418316e-15
1668678412.2672062,43172,1668678412,267030265,,9.410204806233715e-16,2.3953031434847208e-15,-4.448453641882422e-15,8.902473790561861e-15,-1.166408915530047e-15,1.0076378547286225e-15
1668678412.2750678,43173,1668678412,274950414,,9.410214601270987e-16,2.3953073740696415e-15,-4.44845881722156e-15,8.839144634363669e-15,-1.160019828819214e-15,1.0009149559644464e-15
1668678412.2822468,43174,1668678412,282114350,,9.410223612705272e-16,2.3953112662077686e-15,-4.448463578533567e-15,8.776322111415058e-15,-1.1536818548020672e-15,9.942458403903839e-16
1668678412.291097,43175,1668678412,290983793,,9.410231903224819e-16,2.3953148469748456e-15,-4.448467958940613e-15,8.714002168650039e-15,-1.1473945845770572e-15,9.876300777409138e-16
1668678412.299423,43176,1668678412,299155143,,9.410239530502801e-16,2.395318141280556e-15,-4.448471988915095e-15,8.652180785427139e-15,-1.1411576125138473e-15,9.810672411926394e-16
1668678412.3081286,43177,1668678412,307731700,,9.410246547598546e-16,2.39532117204181e-15,-4.44847569649162e-15,8.590853973270021e-15,-1.1349705362271438e-15,9.745569073367517e-16
1668678412.3158622,43178,1668678412,315536514,,9.410253003326627e-16,2.3953239603421638e-15,-4.4484791074620225e-15,8.530017775610162e-15,-1.1288329565507338e-15,9.680986561517104e-16
1668678412.322401,43179,1668678412,322233650,,9.410258942596467e-16,2.3953265255784887e-15,-4.448482245554792e-15,8.46966826753158e-15,-1.122744477511735e-15,9.616920709761498e-16
1668678412.3309228,43180,1668678412,330796391,,9.410264406724717e-16,2.395328885595908e-15,-4.4484851326001415e-15,8.409801555517628e-15,-1.1167047063050486e-15,9.553367384819934e-16
1668678412.3391483,43181,1668678412,339004713,,9.410269433722707e-16,2.395331056811934e-15,-4.448487788681862e-15,8.350413777199787e-15,-1.1107132532680147e-15,9.490322486477906e-16
1668678412.34708,43182,1668678412,346951481,,9.41027405856086e-16,2.3953330543306776e-15,-4.4484902322770444e-15,8.291501101108488e-15,-1.1047697318552774e-15,9.427781947322614e-16
1668678412.3552544,43183,1668678412,355079919,,9.410278313411959e-16,2.395334892047922e-15,-4.448492480384613e-15,8.233059726425922e-15,-1.0988737586138426e-15,9.365741732480563e-16
1668678412.3622086,43184,1668678412,362093323,,9.410282227874968e-16,2.3953365827477865e-15,-4.4484945486435756e-15,8.175085882740816e-15,-1.0930249531583382e-15,9.304197839357248e-16
1668678412.371417,43185,1668678412,371182011,,9.410285829180936e-16,2.3953381381916617e-15,-4.448496451441821e-15,8.11757582980519e-15,-1.087222938146479e-15,9.24314629737892e-16
1668678412.3791614,43186,1668678412,379019344,,9.41028914238243e-16,2.395339569200027e-15,-4.448498202016207e-15,8.060525857293047e-15,-1.0814673392547139e-15,9.18258316773642e-16
1668678412.387165,43187,1668678412,386942604,,9.410292190527804e-16,2.3953408857277232e-15,-4.4484998125446425e-15,8.003932284561004e-15,-1.075757785154083e-15,9.12250454313106e-16
1668678412.394991,43188,1668678412,394844886,,9.410294994821547e-16,2.3953420969332034e-15,-4.448501294230803e-15,7.947791460410815e-15,-1.0700939074862575e-15,9.062906547522542e-16
1668678412.4026453,43189,1668678412,402252177,,9.41029757477179e-16,2.395343211242246e-15,-4.44850265738207e-15,7.89209976285383e-15,-1.0644753408397743e-15,9.003785335878892e-16
1668678412.4112053,43190,1668678412,411039286,,9.410299948326018e-16,2.395344236406564e-15,-4.448503911481237e-15,7.836853598877299e-15,-1.058901722726463e-15,8.94513709392839e-16
1668678412.4190295,43191,1668678412,418905156,,9.4103021319959e-16,2.3953451795577376e-15,-4.44850506525247e-15,7.782049404212578e-15,-1.0533726935580584e-15,8.886958037913493e-16
1668678412.427122,43192,1668678412,426971559,,9.410304140972198e-16,2.3953460472568167e-15,-4.448506126722003e-15,7.72768364310518e-15,-1.047887896623001e-15,8.829244414346718e-16
1668678412.4351177,43193,1668678412,435016223,,9.410305989230391e-16,2.39534684553997e-15,-4.448507103273976e-15,7.67375280808664e-15,-1.042446978063424e-15,8.771992499768474e-16
1668678412.4422712,43194,1668678412,442093942,,9.410307689627926e-16,2.3953475799604704e-15,-4.448508001701789e-15,7.620253419748246e-15,-1.0370495868523233e-15,8.715198600506857e-16
1668678412.4517126,43195,1668678412,451503015,,9.410309253993656e-16,2.3953482556273307e-15,-4.448508828255378e-15,7.56718202651656e-15,-1.0316953747709113e-15,8.658859052439332e-16
1668678412.4592276,43196,1668678412,459004246,,9.410310693210133e-16,2.3953488772408426e-15,-4.44850958868468e-15,7.514535204430727e-15,-1.026383996386151e-15,8.602970220756348e-16
1668678412.4670508,43197,1668678412,466840031,,9.410312017289291e-16,2.395349449125274e-15,-4.448510288279637e-15,7.462309556921582e-15,-1.0211151090284693e-15,8.547528499726828e-16
1668678412.4751854,43198,1668678412,475007495,,9.410313235442114e-16,2.3953499752589497e-15,-4.448510931906999e-15,7.41050171459251e-15,-1.015888372769648e-15,8.492530312465545e-16
1668678412.4823217,43199,1668678412,482110675,,9.410314356142714e-16,2.3953504593019323e-15,-4.4485115240441695e-15,7.35910833500207e-15,-1.0107034504008975e-15,8.43797211070235e-16
1668678412.491102,43200,1668678412,490962243,,9.410315387187261e-16,2.3953509046214757e-15,-4.4485120688103676e-15,7.308126102448355e-15,-1.005560007411097e-15,8.383850374553262e-16
1668678412.4992905,43201,1668678412,499136825,,9.410316335748249e-16,2.395351314315456e-15,-4.4485125699952705e-15,7.257551727755065e-15,-1.0004577119652157e-15,8.330161612293366e-16
1668678412.507211,43202,1668678412,507075670,,9.410317208424355e-16,2.3953516912339183e-15,-4.4485130310853815e-15,7.207381948059326e-15,-9.953962348829013e-16,8.27690236013155e-16
1668678412.5150206,43203,1668678412,514828648,,9.410318011286378e-16,2.395352037998903e-15,-4.448513455288282e-15,7.157613526601153e-15,-9.903752496172445e-16,8.224069181987027e-16
1668678412.5222657,43204,1668678412,522166397,,9.410318749919434e-16,2.395352357022689e-15,-4.448513845554952e-15,7.108243252514646e-15,-9.853944322337137e-16,8.171658669267662e-16
1668678412.532027,43205,1668678412,531733486,,9.410319429461847e-16,2.395352650524573e-15,-4.448514204600288e-15,7.059267940620827e-15,-9.804534613892509e-16,8.119667440650053e-16
1668678412.5399013,43206,1668678412,539650426,,9.410320054640867e-16,2.395352920546305e-15,-4.448514534921997e-15,7.0106844312221614e-15,-9.755520183115445e-16,8.0680921418613835e-16
1668678412.5479708,43207,1668678412,547825009,,9.410320629805566e-16,2.395353168966299e-15,-4.448514838817969e-15,6.962489589898684e-15,-9.706897867784584e-16,8.016929445463023e-16
1668678412.555913,43208,1668678412,555652301,,9.410321158957086e-16,2.395353397512693e-15,-4.4485151184022625e-15,6.914680307305794e-15,-9.658664530976374e-16,7.966176050635849e-16
1668678412.562361,43209,1668678412,562249810,,9.410321645776486e-16,2.395353607775376e-15,-4.448515375619813e-15,6.8672534989736485e-15,-9.610817060862634e-16,7.915828682967294e-16
1668678412.57133,43210,1668678412,571141368,,9.410322093650335e-16,2.3953538012170442e-15,-4.4485156122599594e-15,6.820206105108159e-15,-9.563352370509801e-16,7.865884094240085e-16
1668678412.5791779,43211,1668678412,579031103,,9.410322505694276e-16,2.3953539791833785e-15,-4.448515829968894e-15,6.773535090393591e-15,-9.516267397679787e-16,7.816339062222694e-16
1668678412.587145,43212,1668678412,586974965,,9.410322884774699e-16,2.395354142912407e-15,-4.4485160302611144e-15,6.727237443796746e-15,-9.469559104632424e-16,7.767190390461445e-16
1668678412.5958424,43213,1668678412,595567141,,9.410323233528695e-16,2.395354293543112e-15,-4.448516214529957e-15,6.68131017837267e-15,-9.423224477929432e-16,7.718434908074283e-16
1668678412.6022243,43214,1668678412,602085393,,9.410323554382363e-16,2.3953544321233613e-15,-4.448516384057292e-15,6.63575033107199e-15,-9.377260528240064e-16,7.670069469546221e-16
1668678412.6110039,43215,1668678412,610865234,,9.410323849567742e-16,2.3953545596171904e-15,-4.448516540022441e-15,6.590554962549713e-15,-9.331664290148214e-16,7.622090954526381e-16
1668678412.6191955,43216,1668678412,619064555,,9.410324121138291e-16,2.395354676911514e-15,-4.448516683510377e-15,6.545721156975617e-15,-9.286432821961093e-16,7.5744962676267e-16
1668678412.6274107,43217,1668678412,627228581,,9.410324370983197e-16,2.3953547848222906e-15,-4.448516815519279e-15,6.501246021846112e-15,-9.24156320551948e-16,7.527282338222219e-16
1668678412.6350684,43218,1668678412,634950334,,9.410324600840505e-16,2.3953548841002056e-15,-4.448516936967467e-15,6.457126687797641e-15,-9.197052546009387e-16,7.480446120252973e-16
1668678412.6422744,43219,1668678412,642147474,,9.410324812309233e-16,2.395354975435887e-15,-4.448517048699803e-15,6.413360308421561e-15,-9.152897971775383e-16,7.433984592027479e-16
1668678412.6511383,43220,1668678412,651006293,,9.410325006860463e-16,2.3953550594647153e-15,-4.448517151493551e-15,6.36994406008049e-15,-9.10909663413525e-16,7.387894756027791e-16
1668678412.6593606,43221,1668678412,659226006,,9.410325185847592e-16,2.3953551367712357e-15,-4.4485172460637975e-15,6.326875141726146e-15,-9.065645707196232e-16,7.342173638716099e-16
1668678412.6671543,43222,1668678412,666990361,,9.410325350515753e-16,2.3953552078932353e-15,-4.448517333068426e-15,6.284150774718637e-15,-9.022542387672737e-16,7.296818290342901e-16
1668678412.6751509,43223,1668678412,675001499,,9.410325502010459e-16,2.3953552733254747e-15,-4.448517413112684e-15,6.2417682026471884e-15,-8.979783894705425e-16,7.25182578475669e-16
1668678412.6824152,43224,1668678412,682276242,,9.410325641385593e-16,2.3953553335231352e-15,-4.4485174867534015e-15,6.199724691152312e-15,-8.937367469681849e-16,7.207193219215167e-16
1668678412.691355,43225,1668678412,691212663,,9.410325769610709e-16,2.395355388904982e-15,-4.448517554502861e-15,6.1580175277493935e-15,-8.89529037605846e-16,7.162917714197976e-16
1668678412.6995783,43226,1668678412,699312298,,9.410325887577823e-16,2.395355439856282e-15,-4.448517616832363e-15,6.116644021653698e-15,-8.853549899184064e-16,7.118996413220922e-16
1668678412.7071805,43227,1668678412,706990385,,9.41032599610756e-16,2.3953554867314775e-15,-4.448517674175506e-15,6.0756015036067676e-15,-8.81214334612466e-16,7.075426482651686e-16
1668678412.7151582,43228,1668678412,714953687,,9.410326095954924e-16,2.3953555298566576e-15,-4.448517726931198e-15,6.034887325704214e-15,-8.771068045489734e-16,7.032205111527002e-16
1668678412.722327,43229,1668678412,722195798,,9.410326187814499e-16,2.3953555695318232e-15,-4.448517775466434e-15,5.994498861224882e-15,-8.730321347259886e-16,6.989329511371318e-16
1668678412.7314415,43230,1668678412,731156819,,9.410326272325307e-16,2.395355606032976e-15,-4.44851782011885e-15,5.9544335044613825e-15,-8.689900622615878e-16,6.946796916016879e-16
1668678412.7400835,43231,1668678412,739826590,,9.410326350075249e-16,2.3953556396140355e-15,-4.4485178611990744e-15,5.914688670551993e-15,-8.649803263769016e-16,6.904604581425276e-16
1668678412.7471411,43232,1668678412,746953093,,9.410326421605194e-16,2.3953556705086105e-15,-4.44851789899288e-15,5.8752617953138755e-15,-8.610026683792927e-16,6.862749785510404e-16
1668678412.7556882,43233,1668678412,755496226,,9.410326487412748e-16,2.39535569893162e-15,-4.448517933763181e-15,5.836150335077663e-15,-8.570568316456661e-16,6.821229827962853e-16
1668678412.7621975,43234,1668678412,762045831,,9.410326547955694e-16,2.395355725080788e-15,-4.448517965751858e-15,5.79735176652334e-15,-8.531425616059068e-16,6.780042030075681e-16
1668678412.7709715,43235,1668678412,770788419,,9.410326603655208e-16,2.3953557491380234e-15,-4.448517995181442e-15,5.7588635865174544e-15,-8.492596057264668e-16,6.739183734571608e-16
1668678412.7791238,43236,1668678412,778975054,,9.410326654898757e-16,2.3953557712706797e-15,-4.4485180222566584e-15,5.7206833119516165e-15,-8.45407713494062e-16,6.698652305431566e-16
1668678412.7873876,43237,1668678412,787166525,,9.410326702042824e-16,2.3953557916327235e-15,-4.448518047165857e-15,5.682808479582303e-15,-8.415866363995164e-16,6.658445127724644e-16
1668678412.7951705,43238,1668678412,794957821,,9.410326745415367e-16,2.3953558103658038e-15,-4.44851807008232e-15,5.6452366458719445e-15,-8.377961279217268e-16,6.6185596074393775e-16
1668678412.8023944,43239,1668678412,802234539,,9.4103267853181e-16,2.3953558276002373e-15,-4.4485180911654666e-15,5.607965386831269e-15,-8.340359435117596e-16,6.578993171316395e-16
1668678412.811301,43240,1668678412,811144827,,9.410326822028623e-16,2.3953558434559167e-15,-4.448518110561961e-15,5.57099229786292e-15,-8.303058405770726e-16,6.539743266682394e-16
1668678412.8191223,43241,1668678412,818924554,,9.410326855802298e-16,2.3953558580431417e-15,-4.448518128406736e-15,5.534314993606315e-15,-8.266055784658628e-16,6.5008073612854665e-16
1668678412.8271444,43242,1668678412,826995032,,9.410326886874082e-16,2.3953558714633878e-15,-4.448518144823929e-15,5.497931107783764e-15,-8.229349184515426e-16,6.462182943131715e-16
1668678412.8352342,43243,1668678412,835057690,,9.410326915460125e-16,2.3953558838100154e-15,-4.448518159927746e-15,5.461838293047794e-15,-8.192936237173375e-16,6.423867520323191e-16
1668678412.842311,43244,1668678412,842141318,,9.410326941759282e-16,2.3953558951689116e-15,-4.448518173823258e-15,5.426034220829711e-15,-8.156814593410055e-16,6.385858620897138e-16
1668678412.8512306,43245,1668678412,851079099,,9.410326965954508e-16,2.395355905619097e-15,-4.448518186607129e-15,5.390516581189376e-15,-8.120981922796849e-16,6.34815379266649e-16
1668678412.8593493,43246,1668678412,859092471,,9.410326988214112e-16,2.3953559152332684e-15,-4.448518198368291e-15,5.3552830826661605e-15,-8.085435913548541e-16,6.310750603061689e-16
1668678412.8673143,43247,1668678412,867112772,,9.410327008692953e-16,2.3953559240783047e-15,-4.4485182091885606e-15,5.320331452131132e-15,-8.050174272374228e-16,6.273646638973728e-16
1668678412.8750527,43248,1668678412,874871211,,9.410327027533483e-16,2.3953559322157386e-15,-4.448518219143207e-15,5.285659434640384e-15,-8.015194724329301e-16,6.236839506598469e-16
1668678412.8823454,43249,1668678412,882139399,,9.410327044866771e-16,2.3953559397021777e-15,-4.448518228301482e-15,5.2512647932895626e-15,-7.980495012668738e-16,6.200326831282213e-16
1668678412.89116,43250,1668678412,891033835,,9.4103270608134e-16,2.3953559465897025e-15,-4.4485182367270945e-15,5.2171453090695465e-15,-7.946072898701462e-16,6.164106257368486e-16
1668678412.8999703,43251,1668678412,899736903,,9.410327075484297e-16,2.395355952926224e-15,-4.44851824447866e-15,5.183298780723289e-15,-7.911926161645918e-16,6.128175448046069e-16
1668678412.907411,43252,1668678412,907231264,,9.410327088981518e-16,2.3953559587558242e-15,-4.4485182516100985e-15,5.149723024603803e-15,-7.878052598486815e-16,6.092532085198232e-16
1668678412.916377,43253,1668678412,916236527,,9.410327101398965e-16,2.395355964119057e-15,-4.448518258171022e-15,5.1164158745332716e-15,-7.844450023832989e-16,6.057173869253177e-16
1668678412.922321,43254,1668678412,922144697,,9.410327112823014e-16,2.39535596905323e-15,-4.448518264207073e-15,5.083375181663306e-15,-7.811116269776395e-16,6.022098519035682e-16
1668678412.931192,43255,1668678412,930995454,,9.410327123333142e-16,2.3953559735926697e-15,-4.448518269760239e-15,5.0505988143363004e-15,-7.778049185752255e-16,5.987303771619929e-16
1668678412.9389842,43256,1668678412,938860030,,9.410327133002457e-16,2.395355977768954e-15,-4.448518274869151e-15,5.01808465794791e-15,-7.745246638400299e-16,5.952787382183502e-16
1668678412.947008,43257,1668678412,946887845,,9.410327141898226e-16,2.395355981611136e-15,-4.448518279569351e-15,4.985830614810627e-15,-7.712706511427172e-16,5.918547123862564e-16
1668678412.955349,43258,1668678412,955121883,,9.410327150082337e-16,2.3953559851459435e-15,-4.448518283893535e-15,4.953834604018442e-15,-7.680426705469823e-16,5.884580787608195e-16
1668678412.9622202,43259,1668678412,962104174,,9.410327157611718e-16,2.3953559883979654e-15,-4.448518287871784e-15,4.922094561312595e-15,-7.648405137960132e-16,5.85088618204386e-16
1668678412.9710891,43260,1668678412,970960221,,9.410327164538747e-16,2.3953559913898276e-15,-4.4485182915317725e-15,4.890608438948393e-15,-7.616639742990517e-16,5.817461133324043e-16
1668678412.979528,43261,1668678412,979348413,,9.410327170911613e-16,2.3953559941423385e-15,-4.448518294898962e-15,4.859374205563105e-15,-7.585128471180662e-16,5.784303484993981e-16
1668678412.9870324,43262,1668678412,986845074,,9.410327176774654e-16,2.3953559966746506e-15,-4.448518297996778e-15,4.828389846044903e-15,-7.553869289545285e-16,5.75141109785056e-16
1668678412.9953103,43263,1668678412,995156952,,9.410327182168649e-16,2.395355999004376e-15,-4.448518300846767e-15,4.797653361402843e-15,-7.522860181362997e-16,5.718781849804287e-16
1668678413.0022743,43264,1668678413,2099265,,9.410327187131124e-16,2.395356001147725e-15,-4.448518303468759e-15,4.767162768637921e-15,-7.492099146046163e-16,5.686413635742385e-16
1668678413.0114174,43265,1668678413,11304180,,9.410327191696601e-16,2.3953560031196047e-15,-4.448518305880989e-15,4.736916100615118e-15,-7.461584199011859e-16,5.654304367392977e-16
1668678413.0190802,43266,1668678413,18955714,,9.410327195896842e-16,2.3953560049337348e-15,-4.4485183081002426e-15,4.706911405936498e-15,-7.431313371553836e-16,5.622451973190366e-16
1668678413.0270753,43267,1668678413,26858274,,9.410327199761063e-16,2.3953560066027333e-15,-4.448518310141954e-15,4.6771467488153065e-15,-7.401284710715477e-16,5.590854398141374e-16
1668678413.0350192,43268,1668678413,34843535,,9.410327203316146e-16,2.395356008138214e-15,-4.448518312020331e-15,4.647620208951085e-15,-7.371496279163821e-16,5.559509603692774e-16
1668678413.04249,43269,1668678413,42306794,,9.41032720658682e-16,2.395356009550855e-15,-4.448518313748436e-15,4.618329881405777e-15,-7.341946155064581e-16,5.528415567599763e-16
1668678413.0510993,43270,1668678413,50970742,,9.410327209595841e-16,2.395356010850484e-15,-4.448518315338293e-15,4.58927387648083e-15,-7.312632431958137e-16,5.497570283795495e-16
1668678413.059214,43271,1668678413,59017854,,9.410327212364144e-16,2.395356012046145e-15,-4.448518316800962e-15,4.560450319595285e-15,-7.283553218636537e-16,5.466971762261663e-16
1668678413.0675685,43272,1668678413,67204283,,9.410327214910977e-16,2.3953560131461507e-15,-4.448518318146616e-15,4.531857351164822e-15,-7.254706639021519e-16,5.436618028900101e-16
1668678413.0754066,43273,1668678413,75272684,,9.41032721725407e-16,2.395356014158157e-15,-4.44851831938462e-15,4.503493126481804e-15,-7.226090832043417e-16,5.406507125405431e-16
1668678413.0822175,43274,1668678413,82097946,,9.410327219409709e-16,2.395356015089202e-15,-4.448518320523581e-15,4.4753558155962504e-15,-7.197703951521141e-16,5.37663710913872e-16
1668678413.0909512,43275,1668678413,90826809,,9.410327221392903e-16,2.3953560159457644e-15,-4.448518321571428e-15,4.447443603197781e-15,-7.16954416604304e-16,5.34700605300214e-16
1668678413.1000159,43276,1668678413,99643321,,9.410327223217436e-16,2.3953560167338014e-15,-4.448518322535444e-15,4.419754688498498e-15,-7.141609658848759e-16,5.317612045314655e-16
1668678413.1074605,43277,1668678413,107326661,,9.410327224896008e-16,2.3953560174587953e-15,-4.44851832342234e-15,4.392287285116811e-15,-7.113898627712044e-16,5.288453189688669e-16
1668678413.1150427,43278,1668678413,114865688,,1.9468894666336592e-07,2.64566910784429e-15,-4.454739527006537e-15,4.357525770009001e-15,-7.060932748314597e-16,5.259519795868754e-16
1668678413.123018,43279,1668678413,122903491,,9.576763604146488e-07,9.413044975051922e-15,-4.581869519940793e-15,4.1229200941285654e-15,-6.335229139569054e-16,5.210688346459543e-16
1668678413.1310782,43280,1668678413,130842196,,2.6319267700104842e-06,5.912906432421341e-14,-5.7968178931827e-15,2.587762221008108e-15,-1.1858805368695027e-16,5.209659201428629e-16
1668678413.1397045,43281,1668678413,139563534,,5.531502081192952e-06,2.611960532260612e-13,-1.077179783627435e-14,-3.633295867069963e-15,1.9861683033334595e-15,5.199613390674193e-16
1668678413.1472816,43282,1668678413,147128317,,9.94322329057089e-06,8.52171583222327e-13,-2.5425126239472197e-14,-2.1972481673414464e-14,8.199067806459524e-15,5.204441478473543e-16
1668678413.155316,43283,1668678413,155146259,,1.6128254634778177e-05,2.254101245048792e-12,-6.023878152081935e-14,-6.59494615686304e-14,2.3104014247047526e-14,5.179911404321058e-16
1668678413.1628044,43284,1668678413,162639642,,2.4323613180895952e-05,5.132519016977658e-12,-1.3172048218978546e-13,-1.5733241917906206e-13,5.408148360074022e-14,5.055838018207248e-16
1668678413.1715183,43285,1668678413,171370139,,3.474360677114577e-05,1.0450518453398713e-11,-2.638299206086566e-13,-3.2830424637180706e-13,1.1204434618095809e-13,4.897002399938122e-16
1668678413.1790273,43286,1668678413,178860247,,4.758120314715567e-05,1.9516233523493553e-11,-4.890337195431599e-13,-6.235604074105242e-13,2.1214779700689623e-13,4.61490654718455e-16
1668678413.187229,43287,1668678413,187055270,,6.300933299146461e-05,3.402118961101168e-11,-8.494151878238494e-13,-1.1022303255966254e-12,3.7443625699407827e-13,4.176753344228845e-16
1668678413.195791,43288,1668678413,195528024,,8.118212953663173e-05,5.606951825784105e-11,-1.3972829491399787e-12,-1.839657220911164e-12,6.244556869309376e-13,3.4588759807718805e-16
1668678413.2033105,43289,1668678413,203097367,,0.00010223610730987376,8.819679882345433e-11,-2.195603265430859e-12,-2.9289230859513957e-12,9.937666500521667e-13,2.392021043046144e-16
1668678413.2115767,43290,1668678413,211166181,,0.00012629128249667753,1.3337906656097828e-10,-3.3183146122746765e-12,-4.482132917633675e-12,1.5203775018403603e-12,9.0015885370609e-17
1668678413.2190661,43291,1668678413,218962373,,0.0001534522373263216,1.9503135773075226e-10,-4.850237568666734e-12,-6.631414827417247e-12,2.249089689783227e-12,-1.2002118049414534e-16
1668678413.226903,43292,1668678413,226754892,,0.00018380913080345441,2.769978373638821e-10,-6.886914616847737e-12,-9.529678334209505e-12,3.231744996361663e-12,-3.999079713212783e-16
1668678413.2354054,43293,1668678413,235180735,,0.00021743865803021498,3.835324321905481e-10,-9.53396418690106e-12,-1.3351109644435527e-11,4.527404420973265e-12,-7.708135345285694e-16
1668678413.2428627,43294,1668678413,242737487,,0.00025440496028973023,5.192725235729118e-10,-1.2906549609525047e-11,-1.82913976095117e-11,6.202414733005065e-12,-1.2465614478152087e-15
1668678413.2511845,43295,1668678413,250975925,,0.00029476048798538813,6.892054226606863e-10,-1.7128396827231857e-11,-2.4567706521900308e-11,8.330409855038332e-12,-1.842655802247739e-15
1668678413.2599874,43296,1668678413,259715452,,0.0003385468184590129,8.986296425605955e-10,-2.2330899595039286e-11,-3.2418452646853986e-11,1.099222878789708e-11,-2.5929779157163324e-15
1668678413.2675385,43297,1668678413,267410993,,0.0003857954306399976,1.1531113138646523e-09,-2.8652050727475767e-11,-4.210281311652455e-11,1.4275751313361359e-11,-3.5205128742776814e-15
1668678413.2759001,43298,1668678413,275679987,,0.0004365284384078433,1.4584367750343683e-09,-3.62352200584967e-11,-5.390009498316739e-11,1.8275685891188027e-11,-4.6489504954005945e-15
1668678413.2834823,43299,1668678413,283299476,,0.0004907592844836486,1.8205628973052444e-09,-4.5227867342716197e-11,-6.810888840218764e-11,2.309328074633684e-11,-6.012551567735613e-15
1668678413.2918859,43300,1668678413,291743109,,0.0005484933966008803,2.245565317654859e-09,-5.578022778802586e-11,-8.50460931638554e-11,2.8835998909862437e-11,-7.632241193211708e-15
1668678413.2998018,43301,1668678413,299592094,,0.0006097288076407608,2.739586054248359e-09,-6.804403210569362e-11,-1.0504579056188707e-10,3.561713237507807e-11,-9.539244394396462e-15
1668678413.3074486,43302,1668678413,307238701,,0.0006744567413567857,3.3087809311152322e-09,-8.217109281641914e-11,-1.2845799905291787e-10,4.355538220468893e-11,-1.1769231422764648e-14
1668678413.3154716,43303,1668678413,315255117,,0.0007426621652516649,3.959267711533973e-09,-9.831207228915474e-11,-1.5564735204569454e-10,5.2774411133071604e-11,-1.4345512625024703e-14
1668678413.3226285,43304,1668678413,322506619,,0.0008143243121110738,4.697075387316239e-09,-1.1661511936411326e-10,-1.8699168246666875e-10,6.340237136234664e-11,-1.7303432991999657e-14
1668678413.3309608,43305,1668678413,330835696,,0.0008894171716424629,5.5280953976172464e-09,-1.3722461696348206e-10,-2.2288055711601864e-10,7.557140213631554e-11,-2.067942171668502e-14
1668678413.3394685,43306,1668678413,339234537,,0.0009679099536108555,6.4580352940191685e-09,-1.6027997686643338e-10,-2.6371376962747606e-10,8.941711794960153e-11,-2.4508390109034828e-14
1668678413.347027,43307,1668678413,346865149,,0.001049767523810114,7.49237488044528e-09,-1.8591457667905866e-10,-3.0989977937644043e-10,1.0507809056328537e-10,-2.882481579813412e-14
1668678413.355127,43308,1668678413,354851094,,0.0011349508141560972,8.63632556222044e-09,-2.1425475349308914e-10,-3.6185416841972987e-10,1.2269532162863988e-10,-3.365211755090858e-14
1668678413.3646345,43309,1668678413,364097599,,0.0012234172081372141,9.894793155538665e-09,-2.4541870945347625e-10,-4.1999809704958656e-10,1.4241172478746903e-10,-3.90282424433952e-14
1668678413.3711374,43310,1668678413,370949397,,0.0013151209028095898,1.1272343838605985e-08,-2.7951566913466106e-10,-4.847567467539961e-10,1.6437159537527292e-10,-4.498441549816157e-14
1668678413.3790362,43311,1668678413,378923106,,0.0014100132484753895,1.277317435648142e-08,-3.166450741421554e-10,-5.565578112529031e-10,1.8872010470869687e-10,-5.15416702373539e-14
1668678413.3873136,43312,1668678413,387044601,,0.001508043067138029,1.4401085473743076e-08,-3.568959268015463e-10,-6.358300169196935e-10,2.1560280041740777e-10,-5.873036432180179e-14
1668678413.3955517,43313,1668678413,395345787,,0.0016091569507827941,1.615945946499166e-08,-4.0034623701023464e-10,-7.230016593047733e-10,2.451651095339096e-10,-6.658215645494181e-14
1668678413.4027207,43314,1668678413,402531597,,0.0017132995404885946,1.8051241378368292e-08,-4.470624697940045e-10,-8.184991978045714e-10,2.7755187946944867e-10,-7.512003172283066e-14
1668678413.4110246,43315,1668678413,410900265,,0.0018204137873346984,2.00789240091784e-08,-4.970990470556812e-10,-9.227459487591582e-10,3.129069127828614e-10,-8.436090367935911e-14
1668678413.4192119,43316,1668678413,419026359,,0.0019304411960263746,2.2244536693428918e-08,-5.50498185499387e-10,-1.0361607664474584e-09,3.513725408722801e-10,-9.432905845319084e-14
1668678413.4310627,43317,1668678413,427595948,,0.002043322052124417,2.4549637308761712e-08,-6.072897343534132e-10,-1.1591568227092852e-09,3.9308921334711266e-10,-1.0503273598083673e-13
1668678413.4350986,43318,1668678413,434915167,,0.002158995633725376,2.6995308112130146e-08,-6.674906253669267e-10,-1.2921404799476756e-09,4.381951115302969e-10,-1.1648017619880768e-13
1668678413.4428213,43319,1668678413,442695508,,0.002277400408404019,2.958215458547877e-08,-7.311053352945905e-10,-1.4355101795607771e-09,4.868257771190564e-10,-1.286852568949115e-13
1668678413.4510403,43320,1668678413,450904252,,0.0023984742161938717,3.231030740176673e-08,-7.981256719992335e-10,-1.5896554480062828e-09,5.39113777830503e-10,-1.4165188119696914e-13
1668678413.459682,43321,1668678413,459475547,,0.0025221544393478888,3.517942731128235e-08,-8.685308614305951e-10,-1.7549559375264537e-09,5.951883892696148e-10,-1.553800491049806e-13
1668678413.466917,43322,1668678413,466796496,,0.002648378159589285,3.818871259716456e-08,-9.422878648872668e-10,-1.9317805760523006e-09,6.55175305081337e-10,-1.6986499012938694e-13
1668678413.4751518,43323,1668678413,474965345,,0.002777082303530396,4.1336909394347043e-08,-1.0193513988639762e-09,-2.1204867686005927e-09,7.191963669842417e-10,-1.8509499488672532e-13
1668678413.482927,43324,1668678413,482757138,,0.0029082037769079445,4.462232377541627e-08,-1.099664444015598e-09,-2.32141966556614e-09,7.873693284009015e-10,-2.010570529509259e-13
1668678413.4915423,43325,1668678413,491388669,,0.0030416795882534904,4.804283624507651e-08,-1.183158541491426e-09,-2.534911534111538e-09,8.598076412359799e-10,-2.1773988861939486e-13
1668678413.5023477,43326,1668678413,502175298,,0.003177446962589818,5.159591784569489e-08,-1.26975411759091e-09,-2.7612811776141742e-09,9.366202559900078e-10,-2.3510794006087465e-13
1668678413.5075216,43327,1668678413,507193360,,0.00331544344571702,5.5278648140433776e-08,-1.3593611257827458e-09,-3.0008334123997663e-09,1.0179114576247279e-09,-2.5314212531712954e-13
1668678413.5155573,43328,1668678413,515322433,,0.0034556069996266037,5.908773426663907e-08,-1.4518792539401364e-09,-3.2538586517170476e-09,1.1037807141271554e-09,-2.717990763012601e-13
1668678413.5231736,43329,1668678413,523018084,,0.003597876089555756,6.301953163986874e-08,-1.5471987424907146e-09,-3.520632498958665e-09,1.1943225550382778e-09,-2.9103455756462893e-13
1668678413.5313742,43330,1668678413,531250652,,0.003742189763170846,6.707006523057104e-08,-1.6452007395460787e-09,-3.8014154701460794e-09,1.2896264689823966e-09,-3.108112725525025e-13
1668678413.5392747,43331,1668678413,539141574,,0.003888487722346482,7.12350520170217e-08,-1.745757986756396e-09,-4.096452708838606e-09,1.3897768157383316e-09,-3.3106937330495967e-13
1668678413.5469406,43332,1668678413,546811354,,0.004036710387982552,7.550992369425889e-08,-1.8487354452912119e-09,-4.405973820643505e-09,1.4948527650091026e-09,-3.5175161394729315e-13
1668678413.555342,43333,1668678413,555209771,,0.00418679895828237,7.988985044435893e-08,-1.953990732351011e-09,-4.730192700021457e-09,1.6049282592202428e-09,-3.727964117961058e-13
1668678413.5628479,43334,1668678413,562698414,,0.004338695460893225,8.436976413941704e-08,-2.0613749336549572e-09,-5.069307482127665e-09,1.7200719733365556e-09,-3.941283063801926e-13
1668678413.5710387,43335,1668678413,570911836,,0.0044923427992915885,8.894438263596437e-08,-2.1707331604250563e-09,-5.423500466599212e-09,1.8403473062156023e-09,-4.156753066753005e-13
1668678413.579126,43336,1668678413,578933033,,0.004647684793776299,9.360823354373145e-08,-2.281905180655327e-09,-5.792938145812081e-09,1.965812392777872e-09,-4.373593501250106e-13
1668678413.5873969,43337,1668678413,587211608,,0.004804666217414933,9.835567775547831e-08,-2.394726025013626e-09,-6.1777712405243035e-09,2.096520115011432e-09,-4.590789554059782e-13
1668678413.5949514,43338,1668678413,594827415,,0.004963232827270912,1.0318093309083082e-07,-2.5090266873870662e-09,-6.57813480542304e-09,2.2325181305406575e-09,-4.807387127270246e-13
1668678413.6029065,43339,1668678413,602794180,,0.0051233313912233186,1.0807809746906173e-07,-2.62463470795433e-09,-6.994148347126434e-09,2.3738489388980873e-09,-5.022336713178532e-13
1668678413.6113605,43340,1668678413,611131982,,0.005284909710674133,1.1304117129136553e-07,-2.741374714492375e-09,-7.425915996808925e-09,2.5205498972724616e-09,-5.234510741525256e-13
1668678413.6198392,43341,1668678413,619647032,,0.0054479166394234835,1.1806407990562167e-07,-2.8590691878407067e-09,-7.87352667464084e-09,2.6726533360033576e-09,-5.442903072694349e-13
1668678413.6269495,43342,1668678413,626829741,,0.0056123020989782245,1.2314069495211202e-07,-2.9775388940006593e-09,-8.337054349902046e-09,2.8301865902669986e-09,-5.646195316844071e-13
1668678413.6350582,43343,1668678413,634888527,,0.0057780170905458545,1.282648549933432e-07,-3.0966035707968965e-09,-8.816558254515564e-09,2.993172117468244e-09,-5.84305173689792e-13
1668678413.6429968,43344,1668678413,642765721,,0.005945013703951443,1.334303857097829e-07,-3.2160823664374174e-09,-9.312083186407342e-09,3.1616275847628095e-09,-6.032171290248911e-13
1668678413.6516178,43345,1668678413,651372319,,0.006113245123703713,1.3863111895598274e-07,-3.335794397789736e-09,-9.823659792625324e-09,3.3355659493153333e-09,-6.212148850881505e-13
1668678413.6597638,43346,1668678413,659415663,,0.0062826656324234025,1.438609111982134e-07,-3.455559304444844e-09,-1.0351304870862845e-08,3.5149955852865553e-09,-6.381440514902081e-13
1668678413.6678228,43347,1668678413,667516385,,0.0064532306118352985,1.4911366075648362e-07,-3.5751977357682706e-09,-1.089502170846155e-08,3.6999203895701337e-09,-6.538537072886541e-13
1668678413.6752396,43348,1668678413,675014640,,0.006624896541515107,1.543833244299745e-07,-3.694531775597506e-09,-1.1454800428109253e-08,3.8903398936281e-09,-6.681790537532706e-13
1668678413.682824,43349,1668678413,682687938,,0.006797620995570285,1.5966393303658546e-07,-3.813385494676384e-09,-1.203061833055625e-08,4.086249393893274e-09,-6.809691699416476e-13
1668678413.690949,43350,1668678413,690829234,,0.00697136263742553,1.6494960586410667e-07,-3.931585113236175e-09,-1.2622440287503073e-08,4.287640067453637e-09,-6.920349709949036e-13
1668678413.6990395,43351,1668678413,698844855,,0.007146081212872164,1.7023456426525093e-07,-4.0489596179318686e-09,-1.3230219085644951e-08,4.494499106195244e-09,-7.01209923459345e-13
1668678413.7068675,43352,1668678413,706761755,,0.007321737541532806,1.7551314440003445e-07,-4.165341015988279e-09,-1.3853895845566868e-08,4.706809846554121e-09,-7.082945341352342e-13
1668678413.7152297,43353,1668678413,715101568,,0.007498293506883435,1.8077980873986774e-07,-4.280564681267427e-09,-1.4493400381359873e-08,4.924551891245061e-09,-7.131049223341179e-13
1668678413.7227607,43354,1668678413,722610361,,0.007675712044966233,1.860291566520966e-07,-4.394469794403699e-09,-1.5148651603551265e-08,5.147701242482969e-09,-7.154415948562587e-13
1668678413.7310054,43355,1668678413,730851084,,0.007853957131919108,1.9125593424684168e-07,-4.506899466208032e-09,-1.5819557900215208e-08,5.376230453174851e-09,-7.151067932253952e-13
1668678413.7391994,43356,1668678413,739072912,,0.008032993770440087,1.9645504310776548e-07,-4.61770105059497e-09,-1.6506017555420558e-08,5.610108740191841e-09,-7.118871464539822e-13
1668678413.7472968,43357,1668678413,747132442,,0.008212787975297358,2.0162154789968033e-07,-4.726726387292198e-09,-1.720791913321462e-08,5.8493021249631134e-09,-7.055814266188065e-13
1668678413.755149,43358,1668678413,755012058,,0.008393306757989038,2.0675068350746632e-07,-4.833832044550391e-09,-1.7925141863409382e-08,6.093773567022488e-09,-6.959623849445151e-13
1668678413.7627153,43359,1668678413,762529870,,0.00857451811064992,2.1183786096385882e-07,-4.938879471030915e-09,-1.8657556051315067e-08,6.343483095793204e-09,-6.828010379322791e-13
1668678413.771267,43360,1668678413,771118491,,0.00875639098929681,2.1687867253496562e-07,-5.04173519617405e-09,-1.9405023452535278e-08,6.598387942914792e-09,-6.658822798710773e-13
1668678413.7793071,43361,1668678413,779097175,,0.008938895296497622,2.21868896193326e-07,-5.142270891321606e-09,-2.0167397666152908e-08,6.858442660909007e-09,-6.44961514750797e-13
1668678413.7874055,43362,1668678413,787144395,,0.009122001863543765,2.268044990989586e-07,-5.24036362012434e-09,-2.094452450804806e-08,7.123599267324504e-09,-6.197976160082774e-13
1668678413.7953126,43363,1668678413,795173048,,0.009305682432200613,2.3168164037443352e-07,-5.335895826753481e-09,-2.1736242387942898e-08,7.393807362264353e-09,-5.901581306977377e-13
1668678413.8031669,43364,1668678413,802914077,,0.009489909636105263,2.364966732532472e-07,-5.428755384506941e-09,-2.254238268563336e-08,7.669014239354132e-09,-5.557863197447332e-13
1668678413.8114579,43365,1668678413,811312527,,0.009674656981875966,2.4124614636771983e-07,-5.51883590640163e-09,-2.3362770090913643e-08,7.949165027447153e-09,-5.164375871391513e-13
1668678413.819174,43366,1668678413,818969888,,0.009859898829993644,2.4592680443912383e-07,-5.606036415554045e-09,-2.419722297662306e-08,8.23420280511621e-09,-4.718343771248357e-13
1668678413.8271558,43367,1668678413,826910412,,0.010045610375510886,2.505355882704059e-07,-5.690261712227746e-09,-2.504555374796243e-08,8.524068708802741e-09,-4.2174597147948134e-13
1668678413.8352077,43368,1668678413,834999638,,0.010231767628640568,2.550696345120791e-07,-5.7714221046871864e-09,-2.5907569167036453e-08,8.818702046712278e-09,-3.6588093665912425e-13
1668678413.842928,43369,1668678413,842797810,,0.010418347395271402,2.595262743843409e-07,-5.849433653927583e-09,-2.6783070687357176e-08,9.118040408752533e-09,-3.039825335893198e-13
1668678413.8511472,43370,1668678413,850998304,,0.01060532725745484,2.639030320839545e-07,-5.924217986244065e-09,-2.767185477964675e-08,9.422019804389715e-09,-2.3578014540781567e-13
1668678413.859114,43371,1668678413,859006622,,0.01079268555390456,2.6819762274124174e-07,-5.995702211658086e-09,-2.8573713263413555e-08,9.730574705474511e-09,-1.6099274691150356e-13
1668678413.867046,43372,1668678413,866930331,,0.01098040136054512,2.7240795005624226e-07,-6.063818993754565e-09,-2.948843357060307e-08,1.0043638185453646e-08,-7.93427823442272e-14
1668678413.8753998,43373,1668678413,875265646,,0.011168454471145062,2.7653210330406514e-07,-6.128506550838184e-09,-3.041579904804962e-08,1.036114204741416e-08,9.461181837977506e-15
1668678413.8828533,43374,1668678413,882690940,,0.011356825378065592,2.8056835389201525e-07,-6.189708346196833e-09,-3.1355589295964294e-08,1.0683016860241548e-08,1.0571404862602662e-13
1668678413.8911402,43375,1668678413,890973001,,0.011545495253154018,2.8451515199629037e-07,-6.2473731844236525e-09,-3.230758037489558e-08,1.1009192066714722e-08,2.0967949598826863e-13
1668678413.8990269,43376,1668678413,898859863,,0.011734445928807737,2.883711223507949e-07,-6.301455146740651e-09,-3.3271545111515036e-08,1.13395961164834e-08,3.2168365193818715e-13
1668678413.907464,43377,1668678413,907257747,,0.01192365987923311,2.9213506031704125e-07,-6.3519133623694886e-09,-3.4247253357484134e-08,1.1674156491113183e-08,4.4199366389108263e-13
1668678413.9150538,43378,1668678413,914855143,,0.012113120201920843,2.9580592696724407e-07,-6.398711915546133e-09,-3.523447221143107e-08,1.2012799810716835e-08,5.709425987543426e-13
1668678413.9227948,43379,1668678413,922620412,,0.012302810599356683,2.9938284482417043e-07,-6.4418198587565145e-09,-3.6232966291627634e-08,1.235545193662823e-08,7.088080122841234e-13
1668678413.9311552,43380,1668678413,931047297,,0.012492715360985776,3.0286509280405174e-07,-6.48121090130623e-09,-3.724249793906026e-08,1.2702038009186796e-08,8.559125630469566e-13
1668678413.9394405,43381,1668678413,939302595,,0.012682819345445637,3.0625210094845527e-07,-6.516863468654184e-09,-3.8262827460264215e-08,1.3052482532359497e-08,1.0125511540337584e-12
1668678413.9476209,43382,1668678413,947376775,,0.012873107963081783,3.0954344558715335e-07,-6.548760424804927e-09,-3.9293713322452895e-08,1.3406709479884225e-08,1.1790499132580123e-12
1668678413.9552724,43383,1668678413,955067410,,0.013063567158758393,3.1273884359200437e-07,-6.576889038472512e-09,-4.033491237743266e-08,1.3764642306599711e-08,1.3557106826045384e-12
1668678413.962689,43384,1668678413,962579804,,0.01325418339497404,3.1583814745202824e-07,-6.601240695225545e-09,-4.138618003179549e-08,1.4126204047487396e-08,1.5428595900868203e-12
1668678413.9711406,43385,1668678413,971019604,,0.013444943635292333,3.18841339320576e-07,-6.621810979039592e-09,-4.2447270464870696e-08,1.4491317356973756e-08,1.7408019470366298e-12
1668678413.9789178,43386,1668678413,978794759,,0.013635835328095054,3.2174852579251444e-07,-6.6385993651633626e-09,-4.3517936757338444e-08,1.4859904613989498e-08,1.9498742898083066e-12
1668678413.9869683,43387,1668678413,986836514,,0.013826846390664083,3.245599323057836e-07,-6.651609058819377e-09,-4.4597931140948587e-08,1.523188791465119e-08,2.1703958075214302e-12
1668678413.9950826,43388,1668678413,994955466,,0.014017965193598098,3.2727589723101955e-07,-6.660846946476425e-09,-4.568700507254458e-08,1.5607189172441548e-08,2.4026891587425325e-12
1668678414.0027907,43389,1668678414,2605519,,0.014209180545567787,3.298968667560936e-07,-6.666323379414112e-09,-4.678490946326383e-08,1.5985730138592426e-08,2.6470665936972892e-12
1668678414.0110497,43390,1668678414,10924621,,0.014400481678413552,3.32423389068237e-07,-6.66805203289087e-09,-4.7891394780588204e-08,1.6367432483996303e-08,2.9038785265278477e-12
1668678414.0191646,43391,1668678414,19014675,,0.0145918582325873,3.348561088576167e-07,-6.6660498800873135e-09,-4.9006211214010133e-08,1.6752217805928327e-08,3.1734372074598838e-12
1668678414.0270898,43392,1668678414,26976399,,0.014783300242940433,3.3719576195547964e-07,-6.660336786407524e-09,-5.0129108767054276e-08,1.7140007705620987e-08,3.456082642294689e-12
1668678414.0355244,43393,1668678414,35286819,,0.014974798124858558,3.3944316966674223e-07,-6.650935580008693e-09,-5.1259837460646733e-08,1.7530723811845506e-08,3.7521444284926986e-12
1668678414.0427203,43394,1668678414,42589982,,0.01516634266074286,3.415992338401645e-07,-6.637871850736682e-09,-5.239814737401658e-08,1.7924287824496767e-08,4.0619486940673966e-12
1668678414.0512285,43395,1668678414,51043497,,0.015357924986837404,3.4366493118921206e-07,-6.621173718089307e-09,-5.354378880976563e-08,1.8320621539367338e-08,4.385849322607882e-12
1668678414.059226,43396,1668678414,59029459,,0.015549536580401141,3.4564130846725836e-07,-6.600871853163615e-09,-5.4696512386296714e-08,1.8719646922632158e-08,4.724168972680687e-12
1668678414.067423,43397,1668678414,67246458,,0.015741169247222634,3.475294772851057e-07,-6.576999211477419e-09,-5.585606912392638e-08,1.9121286066558878e-08,5.077247650087102e-12
1668678414.075019,43398,1668678414,74841930,,0.015932815109474908,3.493306091794282e-07,-6.549590931226182e-09,-5.702221057577524e-08,1.9525461327418378e-08,5.445421891181468e-12
1668678414.0827997,43399,1668678414,82649045,,0.016124466593907958,3.510459307548552e-07,-6.518684164261928e-09,-5.81946888757168e-08,1.9932095254361105e-08,5.829042110105931e-12
1668678414.0912547,43400,1668678414,91056803,,0.016316116420374987,3.5267671911919603e-07,-6.484318017113082e-09,-5.937325687997426e-08,2.0341110675827986e-08,6.228427495980071e-12
1668678414.099219,43401,1668678414,99084900,,0.016507757590689218,3.542242970886298e-07,-6.44653342039933e-09,-6.055766818278724e-08,2.0752430674830617e-08,6.643945810180796e-12
1668678414.1072204,43402,1668678414,107044342,,0.0166993833778064,3.556900290691379e-07,-6.405372995339701e-09,-6.174767723320746e-08,2.1165978709297706e-08,7.0759127723807325e-12
1668678414.115286,43403,1668678414,115133330,,0.016890987315329693,3.570753164407787e-07,-6.360880830740695e-09,-6.294303939719643e-08,2.158167850690746e-08,7.524678796722029e-12
1668678414.122885,43404,1668678414,122692828,,0.017082563187331104,3.583815936591561e-07,-6.313102500454674e-09,-6.414351103072773e-08,2.199945420484125e-08,7.990597766793783e-12
1668678414.131311,43405,1668678414,131194053,,0.01727410501848528,3.596103240908351e-07,-6.2620848897074105e-09,-6.534884952074283e-08,2.2419230280394664e-08,8.474020096738144e-12
1668678414.1391664,43406,1668678414,139044487,,0.01746560706450997,3.6076299624040566e-07,-6.207876062310499e-09,-6.655881339373386e-08,2.2840931601176076e-08,8.97526497567469e-12
1668678414.1470776,43407,1668678414,146907270,,0.01765706380290834,3.6184112003668357e-07,-6.150525195507726e-09,-6.777316227931447e-08,2.326448347454626e-08,9.494675878851666e-12
1668678414.1550467,43408,1668678414,154891906,,0.01784846992400694,3.6284622310535476e-07,-6.09008245004718e-09,-6.899165707558775e-08,2.3689811592215657e-08,1.0032620567645978e-11
1668678414.1630013,43409,1668678414,162802319,,0.018039820322284197,3.637798476501449e-07,-6.026598949663632e-09,-7.021405989179191e-08,2.41168421290152e-08,1.0589428639518061e-11
1668678414.1711507,43410,1668678414,171044581,,0.01823111008798322,3.646435469886001e-07,-5.960126548894143e-09,-7.144013416230418e-08,2.4545501670363186e-08,1.1165471325291776e-11
1668678414.1794724,43411,1668678414,179274760,,0.01842233449900317,3.654388824934742e-07,-5.890717920171854e-09,-7.266964465601914e-08,2.4975717306157177e-08,1.1761046997404989e-11
1668678414.1871147,43412,1668678414,186972936,,0.018613489013063308,3.6616742061779996e-07,-5.818426275118054e-09,-7.390235752399938e-08,2.5407416573744977e-08,1.237652688668156e-11
1668678414.1954548,43413,1668678414,195205966,,0.01880456926013338,3.668307300015212e-07,-5.743305381525258e-09,-7.51380403276648e-08,2.584052751126737e-08,1.3012261407263637e-11
1668678414.2030375,43414,1668678414,202904327,,0.018995571035124482,3.6743037897932414e-07,-5.665409528744774e-09,-7.637646208294674e-08,2.6274978638250908e-08,1.3668587095505558e-11
1668678414.2111278,43415,1668678414,210999768,,0.019186490290834076,3.6796793283109205e-07,-5.584793382622998e-09,-7.761739325578849e-08,2.671069901838321e-08,1.4345837018314711e-11
1668678414.218993,43416,1668678414,218854699,,0.01937732313113908,3.6844495143061413e-07,-5.501511906526293e-09,-7.886060586362667e-08,2.7147618180908308e-08,1.5044368528727148e-11
1668678414.2278447,43417,1668678414,227662005,,0.019568065804431028,3.688629872265202e-07,-5.415620304031609e-09,-8.010587340218046e-08,2.7585666202700754e-08,1.5764507754756352e-11
1668678414.2357159,43418,1668678414,235457499,,0.019758714697286784,3.69223582801278e-07,-5.327174004854756e-09,-8.135297096216595e-08,2.8024773697423594e-08,1.6506612049438374e-11
1668678414.2433267,43419,1668678414,243106714,,0.01994926632836902,3.6952826903626e-07,-5.2362285150318245e-09,-8.260167519110514e-08,2.8464871769232937e-08,1.7271017949127554e-11
1668678414.2511296,43420,1668678414,250992633,,0.020139717342550233,3.6977856324687505e-07,-5.1428395281913115e-09,-8.385176432688197e-08,2.8905892083142676e-08,1.8058082806859943e-11
1668678414.2594836,43421,1668678414,259286207,,0.020330064505254163,3.699759675613936e-07,-5.047062679914883e-09,-8.510301819427291e-08,2.9347766859603476e-08,1.8868136220095977e-11
1668678414.2670481,43422,1668678414,266897507,,0.020520304697008804,3.701219670948765e-07,-4.948953586944575e-09,-8.635521828162713e-08,2.979042886680494e-08,1.9701497377955235e-11
1668678414.2752247,43423,1668678414,275045052,,0.020710434908204723,3.7021802858321817e-07,-4.848567724979331e-09,-8.76081476974171e-08,3.023381137416334e-08,2.055852710292072e-11
1668678414.2826226,43424,1668678414,282480189,,0.02090045223405339,3.702655989610083e-07,-4.745960593944083e-09,-8.886159119617814e-08,3.067784825835657e-08,2.143957233968763e-11
1668678414.2912838,43425,1668678414,291115672,,0.021090353869738877,3.7026610419323563e-07,-4.641187439986928e-09,-9.011533520352638e-08,3.112247392200902e-08,2.2344973094057252e-11
1668678414.2991037,43426,1668678414,298931269,,0.021280137105757945,3.702209481082671e-07,-4.534303380478259e-09,-9.13691678083525e-08,3.156762334757639e-08,2.327503467736136e-11
1668678414.307254,43427,1668678414,307028493,,0.02146979932344259,3.701315112896159e-07,-4.425363158691504e-09,-9.26228788130745e-08,3.201323200746533e-08,2.4230110973189056e-11
1668678414.3155768,43428,1668678414,315274105,,0.02165933799065923,3.699991501010162e-07,-4.314421482565208e-09,-9.387625963023193e-08,3.245923604693838e-08,2.5210541987341628e-11
1668678414.3234694,43429,1668678414,323323918,,0.021848750657679394,3.698251959625174e-07,-4.2015325811827454e-09,-9.512910346791154e-08,3.2905572064020894e-08,2.6216660786726464e-11
1668678414.3319273,43430,1668678414,331681373,,0.022038034953216493,3.6961095455994564e-07,-4.0867504595295304e-09,-9.63812051483603e-08,3.335217728893652e-08,2.7248800438250953e-11
1668678414.3399415,43431,1668678414,339666552,,0.022227188580623163,3.6935770499009443e-07,-3.970128731609247e-09,-9.763236125700896e-08,3.379898946788071e-08,2.8307266253246866e-11
1668678414.3478892,43432,1668678414,347640589,,0.022416209314244248,3.690666995244905e-07,-3.851720718388528e-09,-9.888237004383672e-08,3.4245946917122426e-08,2.93924051764094e-11
1668678414.3562524,43433,1668678414,356050331,,0.022605094995920207,3.68739162935036e-07,-3.731579303634865e-09,-1.0013103149056476e-07,3.469298853005145e-08,3.050455721353984e-11
1668678414.363344,43434,1668678414,363146687,,0.022793843531635896,3.6837629199343805e-07,-3.6097569973310914e-09,-1.0137814729290233e-07,3.514005375820483e-08,3.164405543154558e-11
1668678414.3719301,43435,1668678414,371783346,,0.02298245288831021,3.6797925532387373e-07,-3.4863059283916304e-09,-1.0262352086610332e-07,3.558708259337757e-08,3.281117738618278e-11
1668678414.3797328,43436,1668678414,379469612,,0.023170921090721375,3.6754919296924007e-07,-3.3612777304493123e-09,-1.0386695731691258e-07,3.603401560882229e-08,3.400629777772224e-11
1668678414.3881328,43437,1668678414,387791499,,0.023359246218563404,3.670872162181841e-07,-3.2347236041455233e-09,-1.0510826349292412e-07,3.648079391327906e-08,3.5229701100814026e-11
1668678414.3962743,43438,1668678414,395681204,,0.023547426107041695,3.656754379847958e-07,5.5913344133120686e-05,-1.0634724794479676e-07,3.6927359172876303e-08,3.648174123904724e-11
1668678414.4026904,43439,1668678414,402574664,,0.02372047973229741,-0.0003102550279166625,0.00035019035480304996,-1.0880668569336182e-07,3.7787847146286344e-08,3.8171923955054865e-11
1668678414.411202,43440,1668678414,411007673,,0.02389459167691002,-0.0005957148344187072,0.0006205249849536794,-1.1117325319029035e-07,3.861787615871363e-08,3.98773999932267e-11
1668678414.4194481,43441,1668678414,419278842,,0.024061743512026074,-0.0010217865465436138,0.0009967573592518366,-1.1411099347586381e-07,3.9642323182019663e-08,4.1828367158824875e-11
1668678414.4270418,43442,1668678414,426914214,,0.02359472146224285,-0.0023215576703833345,0.0015998953788864385,-1.118169621628631e-07,3.8896123666972565e-08,4.197609621003906e-11
1668678414.4349792,43443,1668678414,434848122,,0.02284414207079127,-0.003995005752188446,0.0022890490141520693,-1.0710158241067315e-07,3.7329257649831166e-08,4.1229332448100564e-11
1668678414.4428911,43444,1668678414,442715256,,0.02186759822257556,-0.006276525418428553,0.0032963657287192485,-1.0196144511299488e-07,3.56170558079346e-08,4.027468636369491e-11
1668678414.4513247,43445,1668678414,451193340,,0.02098831429916919,-0.008365250947355716,0.004217540657354059,-9.73632116262578e-08,3.4086772534788756e-08,3.946694360212888e-11
1668678414.4592469,43446,1668678414,459025202,,0.020384926393652237,-0.010872253495331307,0.005179968972042032,-9.866905854432348e-08,3.455476435445647e-08,4.0869037321034085e-11
1668678414.4671297,43447,1668678414,466995467,,0.01995049565382249,-0.013477108785528156,0.006120662080879357,-1.0286151978344382e-07,3.600103621053015e-08,4.342660953060573e-11
1668678414.47609,43448,1668678414,475859040,,0.019884224728122134,-0.016377190911475912,0.006705429482986734,-1.1398307978819234e-07,3.9795636876441796e-08,4.8803371066608037e-11
1668678414.4833257,43449,1668678414,483223572,,0.020183221440659666,-0.019440919111037527,0.006712043348654345,-1.3193044766097832e-07,4.590576037225361e-08,5.711058015389625e-11
1668678414.4918802,43450,1668678414,491663627,,0.02048384195579214,-0.022224193212351598,0.006704781007480957,-1.4918253715836367e-07,5.17868135141257e-08,6.541951702576654e-11
1668678414.4990592,43451,1668678414,498837675,,0.020962735347800056,-0.024968676244598875,0.006410162619618213,-1.6990961722491722e-07,5.885100322876053e-08,7.547669433893844e-11
1668678414.507056,43452,1668678414,506919148,,0.02152180352712555,-0.02750836779342051,0.005973163889805592,-1.9173545806545943e-07,6.629531297053844e-08,8.63684609941906e-11
1668678414.51503,43453,1668678414,514899175,,0.022109850763609842,-0.029825568346648037,0.005477953449419083,-2.1360472871615127e-07,7.376331716745996e-08,9.768240383234428e-11
1668678414.5226734,43454,1668678414,522559747,,0.022700531364898448,-0.03203204549560137,0.00496818773513563,-2.355873104069187e-07,8.127917581536061e-08,1.0947079354117761e-10
1668678414.530909,43455,1668678414,530784538,,0.023266490897711007,-0.03400102227603481,0.004488924351403901,-2.562218106911987e-07,8.834873891456693e-08,1.2109212937927438e-10
1668678414.5393162,43456,1668678414,539163257,,0.023822920083279905,-0.035909339067677876,0.004015972465289421,-2.767961781689754e-07,9.540783534284052e-08,1.331239424251507e-10
1668678414.548118,43457,1668678414,547175367,,0.024363213013574445,-0.037681767769311515,0.0035604924040394006,-2.965829867524047e-07,1.0221064880469415e-07,1.4523669072952217e-10
1668678414.555672,43458,1668678414,555431294,,0.02488436376862666,-0.039226511136672255,0.0031277289292694637,-3.147562495424373e-07,1.0847767626374384e-07,1.5702220079738538e-10
1668678414.5631223,43459,1668678414,562976880,,0.025385272851852547,-0.040465624054476436,0.0027198109661292135,-3.3058380030599526e-07,1.1396073474668512e-07,1.6808139602364491e-10
1668678414.5714169,43460,1668678414,571189706,,0.025864961225648686,-0.04152705762241107,0.002338865816921189,-3.448231291720773e-07,1.1891529631716073e-07,1.7873411084501356e-10
1668678414.5793529,43461,1668678414,579223044,,0.026325532125103728,-0.042366560301959566,0.0019817882075782957,-3.5710269111763684e-07,1.232150623551708e-07,1.8874591473094782e-10
1668678414.5870845,43462,1668678414,586925227,,0.0267674856444644,-0.04305057745929115,0.0016481933965189859,-3.6784831016915863e-07,1.2700328556381792e-07,1.9828454156378683e-10
1668678414.595093,43463,1668678414,594982572,,0.0271915057139829,-0.04359272722229797,0.001337323335016855,-3.771232812870072e-07,1.303007113179211e-07,2.0733890992996606e-10
1668678414.6028042,43464,1668678414,602590682,,0.02759825580780674,-0.04388078413742066,0.001230729579851154,-3.840345898749927e-07,1.328044987565849e-07,2.15371234735251e-10
1668678414.6112676,43465,1668678414,611151642,,0.027988628839979168,-0.04405956784718907,0.001130221629160251,-3.896821998328648e-07,1.348855873301892e-07,2.2292309664884158e-10
1668678414.6191792,43466,1668678414,619058206,,0.028363560440490206,-0.0441089146665641,0.0011097161087759632,-3.93911579825467e-07,1.364910370824958e-07,2.2986434977667614e-10
1668678414.6271634,43467,1668678414,627030718,,0.0287238596743467,-0.04405238766537118,0.0011277523945010782,-3.9691294131369336e-07,1.376844331393845e-07,2.362589984761243e-10
1668678414.6351726,43468,1668678414,635056789,,0.029070315098722946,-0.04391392485713036,0.001072208797189566,-3.988865588026402e-07,1.3853285251753944e-07,2.421852302036953e-10
1668678414.6429744,43469,1668678414,642844827,,0.029403777493576855,-0.04378536112219129,0.0009125466166983783,-4.0057721918749633e-07,1.3928770321814873e-07,2.4806301457402924e-10
1668678414.6512887,43470,1668678414,651137538,,0.02972485582733543,-0.043580616745076566,0.0007637680852952928,-4.0131391788341244e-07,1.397218132813665e-07,2.534652765451284e-10
1668678414.6597073,43471,1668678414,659400539,,0.03003430364012489,-0.04335137047244458,0.0005689784047559683,-4.0152724815775654e-07,1.3998031099570277e-07,2.5863236552403635e-10
1668678414.6668696,43472,1668678414,666766001,,0.030332825672908206,-0.043141763718923955,0.000358669028680369,-4.0158754406512944e-07,1.4018819047300658e-07,2.637861873378e-10
1668678414.6750808,43473,1668678414,674930275,,0.030620990051515272,-0.042909676487600294,0.0001485405723730921,-4.011714028241426e-07,1.4023595244880456e-07,2.6870868030659523e-10
1668678414.6830096,43474,1668678414,682840612,,0.030899744706265966,-0.04295378215620111,-5.383339606414261e-05,-4.026978428575429e-07,1.4094175966399523e-07,2.7501091681703116e-10
1668678414.6912897,43475,1668678414,691092474,,0.031169193831006983,-0.04290970682518147,-0.00024003021265483218,-4.032332047817144e-07,1.4131426570433182e-07,2.807564042361932e-10
1668678414.6994343,43476,1668678414,699140469,,0.031481035633015464,-0.04306387503822857,-0.0005720635436658573,-4.0645827356346155e-07,1.4259821328453139e-07,2.884781025169758e-10
1668678414.707913,43477,1668678414,707769550,,0.031807425035241706,-0.04326872456971779,-0.0009621771132297027,-4.104475480847512e-07,1.4414383849308161e-07,2.9691182845681396e-10
1668678414.7159235,43478,1668678414,715708713,,0.03208362938807036,-0.04354919932958262,-0.0014711990606349247,-4.136692447779741e-07,1.454334134923848e-07,3.049816510447556e-10
1668678414.72337,43479,1668678414,723154464,,0.032426086799196785,-0.04394727470696074,-0.0021966917794235953,-4.196078483068282e-07,1.4764538422049577e-07,3.152252348037621e-10
1668678414.7319312,43480,1668678414,731665026,,0.03275286642754247,-0.04422723918405982,-0.0028603987843434865,-4.241115025049912e-07,1.4937685850042147e-07,3.246418828206643e-10
1668678414.7394881,43481,1668678414,739351921,,0.03310520964818367,-0.044517264578265964,-0.0036032781328089224,-4.2936593143926265e-07,1.5136644932844771e-07,3.348443189388206e-10
1668678414.747032,43482,1668678414,746921230,,0.033386112629560476,-0.04482838639001295,-0.004385179963827871,-4.3277946166922574e-07,1.527379035648653e-07,3.438568735303349e-10
1668678414.755169,43483,1668678414,755012340,,0.03362681487018682,-0.04509628397770899,-0.005151823463586972,-4.346612610904837e-07,1.5359467480735925e-07,3.5185299118722924e-10
1668678414.7627528,43484,1668678414,762608396,,0.03402026816149281,-0.04546497575558804,-0.006108732038322132,-4.416350526108715e-07,1.561766365359811e-07,3.6408340231552927e-10
1668678414.7713428,43485,1668678414,771172572,,0.03439255529024849,-0.04571488314851971,-0.006977828766069936,-4.4697514320422415e-07,1.5821187053012033e-07,3.752752414376559e-10
1668678414.7791193,43486,1668678414,778979049,,0.03482761052310259,-0.04597075292616476,-0.007894640710463254,-4.5412879282156083e-07,1.608655630887853e-07,3.882224958173808e-10
1668678414.787033,43487,1668678414,786905794,,0.035281096952495976,-0.04617704755599619,-0.008792204074064945,-4.6136905388943945e-07,1.6355478435177775e-07,4.0154957137161773e-10
