Time,header.seq,header.stamp.secs,header.stamp.nsecs,header.frame_id,wrench.force.x,wrench.force.y,wrench.force.z,wrench.torque.x,wrench.torque.y,wrench.torque.z
1668678412.1802118,43161,1668678412,179970729,,-5e-324,-5e-324,0.0,0.0,0.0,0.0
1668678412.1873214,43162,1668678412,187121461,,-5e-324,-5e-324,0.0,0.0,0.0,0.0
1668678412.195289,43163,1668678412,195077736,,-5e-324,-5e-324,0.0,0.0,0.0,0.0
1668678412.2022936,43164,1668678412,202064359,,-5e-324,-5e-324,0.0,0.0,0.0,0.0
1668678412.2111804,43165,1668678412,211016976,,-5e-324,-5e-324,0.0,0.0,0.0,0.0
1668678412.219387,43166,1668678412,219165553,,-5e-324,-5e-324,0.0,0.0,0.0,0.0
1668678412.227095,43167,1668678412,226861066,,-5e-324,-5e-324,0.0,0.0,0.0,0.0
1668678412.2350624,43168,1668678412,234886197,,-5e-324,-5e-324,0.0,0.0,0.0,0.0
1668678412.2424488,43169,1668678412,242253245,,-5e-324,-5e-324,0.0,0.0,0.0,0.0
1668678412.25123,43170,1668678412,251001742,,-5e-324,-5e-324,0.0,0.0,0.0,0.0
1668678412.2596397,43171,1668678412,259288876,,-5e-324,-5e-324,0.0,0.0,0.0,0.0
1668678412.2672522,43172,1668678412,267030265,,-5e-324,-5e-324,0.0,0.0,0.0,0.0
1668678412.275146,43173,1668678412,274950414,,-5e-324,-5e-324,0.0,0.0,0.0,0.0
1668678412.282334,43174,1668678412,282114350,,-5e-324,-5e-324,0.0,0.0,0.0,0.0
1668678412.2911854,43175,1668678412,290983793,,-5e-324,-5e-324,0.0,0.0,0.0,0.0
1668678412.2994664,43176,1668678412,299155143,,-5e-324,-5e-324,0.0,0.0,0.0,0.0
1668678412.30817,43177,1668678412,307731700,,-5e-324,-5e-324,0.0,0.0,0.0,0.0
1668678412.3159266,43178,1668678412,315536514,,-5e-324,-5e-324,0.0,0.0,0.0,0.0
1668678412.322465,43179,1668678412,322233650,,-5e-324,-5e-324,0.0,0.0,0.0,0.0
1668678412.331001,43180,1668678412,330796391,,-5e-324,-5e-324,0.0,0.0,0.0,0.0
1668678412.3392286,43181,1668678412,339004713,,-5e-324,-5e-324,0.0,0.0,0.0,0.0
1668678412.3471892,43182,1668678412,346951481,,-5e-324,-5e-324,0.0,0.0,0.0,0.0
1668678412.3553195,43183,1668678412,355079919,,-5e-324,-5e-324,0.0,0.0,0.0,0.0
1668678412.3622863,43184,1668678412,362093323,,-5e-324,-5e-324,0.0,0.0,0.0,0.0
1668678412.3714678,43185,1668678412,371182011,,-5e-324,-5e-324,0.0,0.0,0.0,0.0
1668678412.379315,43186,1668678412,379019344,,-5e-324,-5e-324,0.0,0.0,0.0,0.0
1668678412.3872044,43187,1668678412,386942604,,-5e-324,-5e-324,0.0,0.0,0.0,0.0
1668678412.3950732,43188,1668678412,394844886,,-5e-324,-5e-324,0.0,0.0,0.0,0.0
1668678412.4027064,43189,1668678412,402252177,,-5e-324,-5e-324,0.0,0.0,0.0,0.0
1668678412.4112606,43190,1668678412,411039286,,-5e-324,-5e-324,0.0,0.0,0.0,0.0
1668678412.4191053,43191,1668678412,418905156,,-5e-324,-5e-324,0.0,0.0,0.0,0.0
1668678412.4271693,43192,1668678412,426971559,,-5e-324,-5e-324,0.0,0.0,0.0,0.0
1668678412.435219,43193,1668678412,435016223,,-5e-324,-5e-324,0.0,0.0,0.0,0.0
1668678412.4424582,43194,1668678412,442093942,,-5e-324,-5e-324,0.0,0.0,0.0,0.0
1668678412.4518137,43195,1668678412,451503015,,-5e-324,-5e-324,0.0,0.0,0.0,0.0
1668678412.459272,43196,1668678412,459004246,,-5e-324,-5e-324,0.0,0.0,0.0,0.0
1668678412.4670975,43197,1668678412,466840031,,-5e-324,-5e-324,0.0,0.0,0.0,0.0
1668678412.47523,43198,1668678412,475007495,,-5e-324,-5e-324,0.0,0.0,0.0,0.0
1668678412.4824157,43199,1668678412,482110675,,-5e-324,-5e-324,0.0,0.0,0.0,0.0
1668678412.491166,43200,1668678412,490962243,,-5e-324,-5e-324,0.0,0.0,0.0,0.0
1668678412.4993854,43201,1668678412,499136825,,-5e-324,-5e-324,0.0,0.0,0.0,0.0
1668678412.5073166,43202,1668678412,507075670,,-5e-324,-5e-324,0.0,0.0,0.0,0.0
1668678412.5150828,43203,1668678412,514828648,,-5e-324,-5e-324,0.0,0.0,0.0,0.0
1668678412.5223756,43204,1668678412,522166397,,-5e-324,-5e-324,0.0,0.0,0.0,0.0
1668678412.532082,43205,1668678412,531733486,,-5e-324,-5e-324,0.0,0.0,0.0,0.0
1668678412.539951,43206,1668678412,539650426,,-5e-324,-5e-324,0.0,0.0,0.0,0.0
1668678412.5480704,43207,1668678412,547825009,,-5e-324,-5e-324,0.0,0.0,0.0,0.0
1668678412.55597,43208,1668678412,555652301,,-5e-324,-5e-324,0.0,0.0,0.0,0.0
1668678412.562454,43209,1668678412,562249810,,-5e-324,-5e-324,0.0,0.0,0.0,0.0
1668678412.571377,43210,1668678412,571141368,,-5e-324,-5e-324,0.0,0.0,0.0,0.0
1668678412.579248,43211,1668678412,579031103,,-5e-324,-5e-324,0.0,0.0,0.0,0.0
1668678412.5871937,43212,1668678412,586974965,,-5e-324,-5e-324,0.0,0.0,0.0,0.0
1668678412.5958936,43213,1668678412,595567141,,-5e-324,-5e-324,0.0,0.0,0.0,0.0
1668678412.602301,43214,1668678412,602085393,,-5e-324,-5e-324,0.0,0.0,0.0,0.0
1668678412.6110651,43215,1668678412,610865234,,-5e-324,-5e-324,0.0,0.0,0.0,0.0
1668678412.6192544,43216,1668678412,619064555,,-5e-324,-5e-324,0.0,0.0,0.0,0.0
1668678412.6275618,43217,1668678412,627228581,,-5e-324,-5e-324,0.0,0.0,0.0,0.0
1668678412.6351874,43218,1668678412,634950334,,-5e-324,-5e-324,0.0,0.0,0.0,0.0
1668678412.6423714,43219,1668678412,642147474,,-5e-324,-5e-324,0.0,0.0,0.0,0.0
1668678412.6512039,43220,1668678412,651006293,,-5e-324,-5e-324,0.0,0.0,0.0,0.0
1668678412.6594298,43221,1668678412,659226006,,-5e-324,-5e-324,0.0,0.0,0.0,0.0
1668678412.6672213,43222,1668678412,666990361,,-5e-324,-5e-324,0.0,0.0,0.0,0.0
1668678412.6752264,43223,1668678412,675001499,,-5e-324,-5e-324,0.0,0.0,0.0,0.0
1668678412.6825013,43224,1668678412,682276242,,-5e-324,-5e-324,0.0,0.0,0.0,0.0
1668678412.6914861,43225,1668678412,691212663,,-5e-324,-5e-324,0.0,0.0,0.0,0.0
1668678412.6996298,43226,1668678412,699312298,,-5e-324,-5e-324,0.0,0.0,0.0,0.0
1668678412.7072318,43227,1668678412,706990385,,-5e-324,-5e-324,0.0,0.0,0.0,0.0
1668678412.7152011,43228,1668678412,714953687,,-5e-324,-5e-324,0.0,0.0,0.0,0.0
1668678412.7224207,43229,1668678412,722195798,,-5e-324,-5e-324,0.0,0.0,0.0,0.0
1668678412.7315288,43230,1668678412,731156819,,-5e-324,-5e-324,0.0,0.0,0.0,0.0
1668678412.7401276,43231,1668678412,739826590,,-5e-324,-5e-324,0.0,0.0,0.0,0.0
1668678412.747245,43232,1668678412,746953093,,-5e-324,-5e-324,0.0,0.0,0.0,0.0
1668678412.7557325,43233,1668678412,755496226,,-5e-324,-5e-324,0.0,0.0,0.0,0.0
1668678412.7623734,43234,1668678412,762045831,,-5e-324,-5e-324,0.0,0.0,0.0,0.0
1668678412.7711625,43235,1668678412,770788419,,-5e-324,-5e-324,0.0,0.0,0.0,0.0
1668678412.7791972,43236,1668678412,778975054,,-5e-324,-5e-324,0.0,0.0,0.0,0.0
1668678412.78744,43237,1668678412,787166525,,-5e-324,-5e-324,0.0,0.0,0.0,0.0
1668678412.795254,43238,1668678412,794957821,,-5e-324,-5e-324,0.0,0.0,0.0,0.0
1668678412.802501,43239,1668678412,802234539,,-5e-324,-5e-324,0.0,0.0,0.0,0.0
1668678412.8113554,43240,1668678412,811144827,,-5e-324,-5e-324,0.0,0.0,0.0,0.0
1668678412.8191714,43241,1668678412,818924554,,-5e-324,-5e-324,0.0,0.0,0.0,0.0
1668678412.8271885,43242,1668678412,826995032,,-5e-324,-5e-324,0.0,0.0,0.0,0.0
1668678412.8353024,43243,1668678412,835057690,,-5e-324,-5e-324,0.0,0.0,0.0,0.0
1668678412.842363,43244,1668678412,842141318,,-5e-324,-5e-324,0.0,0.0,0.0,0.0
1668678412.851269,43245,1668678412,851079099,,-5e-324,-5e-324,0.0,0.0,0.0,0.0
1668678412.859397,43246,1668678412,859092471,,-5e-324,-5e-324,0.0,0.0,0.0,0.0
1668678412.86735,43247,1668678412,867112772,,-5e-324,-5e-324,0.0,0.0,0.0,0.0
1668678412.875148,43248,1668678412,874871211,,-5e-324,-5e-324,0.0,0.0,0.0,0.0
1668678412.8825157,43249,1668678412,882139399,,-5e-324,-5e-324,0.0,0.0,0.0,0.0
1668678412.8912637,43250,1668678412,891033835,,-5e-324,-5e-324,0.0,0.0,0.0,0.0
1668678412.9000041,43251,1668678412,899736903,,-5e-324,-5e-324,0.0,0.0,0.0,0.0
1668678412.9074566,43252,1668678412,907231264,,-5e-324,-5e-324,0.0,0.0,0.0,0.0
1668678412.9164639,43253,1668678412,916236527,,-5e-324,-5e-324,0.0,0.0,0.0,0.0
1668678412.9223564,43254,1668678412,922144697,,-5e-324,-5e-324,0.0,0.0,0.0,0.0
1668678412.9312406,43255,1668678412,930995454,,-5e-324,-5e-324,0.0,0.0,0.0,0.0
1668678412.9390779,43256,1668678412,938860030,,-5e-324,-5e-324,0.0,0.0,0.0,0.0
1668678412.9470992,43257,1668678412,946887845,,-5e-324,-5e-324,0.0,0.0,0.0,0.0
1668678412.9553819,43258,1668678412,955121883,,-5e-324,-5e-324,0.0,0.0,0.0,0.0
1668678412.962303,43259,1668678412,962104174,,-5e-324,-5e-324,0.0,0.0,0.0,0.0
1668678412.971145,43260,1668678412,970960221,,-5e-324,-5e-324,0.0,0.0,0.0,0.0
1668678412.9796662,43261,1668678412,979348413,,-5e-324,-5e-324,0.0,0.0,0.0,0.0
1668678412.9870925,43262,1668678412,986845074,,-5e-324,-5e-324,0.0,0.0,0.0,0.0
1668678412.9954438,43263,1668678412,995156952,,-5e-324,-5e-324,0.0,0.0,0.0,0.0
1668678413.002343,43264,1668678413,2099265,,-5e-324,-5e-324,0.0,0.0,0.0,0.0
1668678413.0115044,43265,1668678413,11304180,,-5e-324,-5e-324,0.0,0.0,0.0,0.0
1668678413.0191536,43266,1668678413,18955714,,-5e-324,-5e-324,0.0,0.0,0.0,0.0
1668678413.0271394,43267,1668678413,26858274,,-5e-324,-5e-324,0.0,0.0,0.0,0.0
1668678413.0350642,43268,1668678413,34843535,,-5e-324,-5e-324,0.0,0.0,0.0,0.0
1668678413.0425482,43269,1668678413,42306794,,-5e-324,-5e-324,0.0,0.0,0.0,0.0
1668678413.0511844,43270,1668678413,50970742,,-5e-324,-5e-324,0.0,0.0,0.0,0.0
1668678413.0592735,43271,1668678413,59017854,,-5e-324,-5e-324,0.0,0.0,0.0,0.0
1668678413.0677605,43272,1668678413,67204283,,-5e-324,-5e-324,0.0,0.0,0.0,0.0
1668678413.0758722,43273,1668678413,75272684,,-5e-324,-5e-324,0.0,0.0,0.0,0.0
1668678413.0822752,43274,1668678413,82097946,,-5e-324,-5e-324,0.0,0.0,0.0,0.0
1668678413.091034,43275,1668678413,90826809,,-5e-324,-5e-324,0.0,0.0,0.0,0.0
1668678413.1000783,43276,1668678413,99643321,,-5e-324,-5e-324,0.0,0.0,0.0,0.0
1668678413.107535,43277,1668678413,107326661,,-5e-324,-5e-324,0.0,0.0,0.0,0.0
1668678413.1151006,43278,1668678413,114865688,,-5e-324,-5e-324,0.0,0.0,0.0,0.0
1668678413.123107,43279,1668678413,122903491,,-5e-324,-5e-324,0.0,0.0,0.0,0.0
1668678413.1311195,43280,1668678413,130842196,,-5e-324,-5e-324,0.0,0.0,0.0,0.0
1668678413.1397495,43281,1668678413,139563534,,-5e-324,-5e-324,0.0,0.0,0.0,0.0
1668678413.1473405,43282,1668678413,147128317,,-5e-324,-5e-324,0.0,0.0,0.0,0.0
1668678413.1554081,43283,1668678413,155146259,,-5e-324,-5e-324,0.0,0.0,0.0,0.0
1668678413.1628585,43284,1668678413,162639642,,-5e-324,-5e-324,0.0,0.0,0.0,0.0
1668678413.1715918,43285,1668678413,171370139,,-5e-324,-5e-324,0.0,0.0,0.0,0.0
1668678413.1792567,43286,1668678413,178860247,,-5e-324,-5e-324,0.0,0.0,0.0,0.0
1668678413.1872752,43287,1668678413,187055270,,-5e-324,-5e-324,0.0,0.0,0.0,0.0
1668678413.1958287,43288,1668678413,195528024,,-5e-324,-5e-324,0.0,0.0,0.0,0.0
1668678413.2033465,43289,1668678413,203097367,,-5e-324,-5e-324,0.0,0.0,0.0,0.0
1668678413.2116191,43290,1668678413,211166181,,-5e-324,-5e-324,0.0,0.0,0.0,0.0
1668678413.219107,43291,1668678413,218962373,,-5e-324,-5e-324,0.0,0.0,0.0,0.0
1668678413.226949,43292,1668678413,226754892,,-5e-324,-5e-324,0.0,0.0,0.0,0.0
1668678413.2354972,43293,1668678413,235180735,,-5e-324,-5e-324,0.0,0.0,0.0,0.0
1668678413.242985,43294,1668678413,242737487,,-5e-324,-5e-324,0.0,0.0,0.0,0.0
1668678413.2512317,43295,1668678413,250975925,,-5e-324,-5e-324,0.0,0.0,0.0,0.0
1668678413.2600322,43296,1668678413,259715452,,-5e-324,-5e-324,0.0,0.0,0.0,0.0
1668678413.2676508,43297,1668678413,267410993,,-5e-324,-5e-324,0.0,0.0,0.0,0.0
1668678413.275967,43298,1668678413,275679987,,-5e-324,-5e-324,0.0,0.0,0.0,0.0
1668678413.2835405,43299,1668678413,283299476,,-5e-324,-5e-324,0.0,0.0,0.0,0.0
1668678413.2920232,43300,1668678413,291743109,,-5e-324,-5e-324,0.0,0.0,0.0,0.0
1668678413.299887,43301,1668678413,299592094,,-5e-324,-5e-324,0.0,0.0,0.0,0.0
1668678413.3074908,43302,1668678413,307238701,,-5e-324,-5e-324,0.0,0.0,0.0,0.0
1668678413.315592,43303,1668678413,315255117,,-5e-324,-5e-324,0.0,0.0,0.0,0.0
1668678413.3227472,43304,1668678413,322506619,,-5e-324,-5e-324,0.0,0.0,0.0,0.0
1668678413.3310475,43305,1668678413,330835696,,-5e-324,-5e-324,0.0,0.0,0.0,0.0
1668678413.3395126,43306,1668678413,339234537,,-5e-324,-5e-324,0.0,0.0,0.0,0.0
1668678413.3471181,43307,1668678413,346865149,,-5e-324,-5e-324,0.0,0.0,0.0,0.0
1668678413.3551996,43308,1668678413,354851094,,-5e-324,-5e-324,0.0,0.0,0.0,0.0
1668678413.364766,43309,1668678413,364097599,,-5e-324,-5e-324,0.0,0.0,0.0,0.0
1668678413.3712301,43310,1668678413,370949397,,-5e-324,-5e-324,0.0,0.0,0.0,0.0
1668678413.3791182,43311,1668678413,378923106,,-5e-324,-5e-324,0.0,0.0,0.0,0.0
1668678413.3873692,43312,1668678413,387044601,,-5e-324,-5e-324,0.0,0.0,0.0,0.0
1668678413.3955982,43313,1668678413,395345787,,-5e-324,-5e-324,0.0,0.0,0.0,0.0
1668678413.4027777,43314,1668678413,402531597,,-5e-324,-5e-324,0.0,0.0,0.0,0.0
1668678413.411137,43315,1668678413,410900265,,-5e-324,-5e-324,0.0,0.0,0.0,0.0
1668678413.4192674,43316,1668678413,419026359,,-5e-324,-5e-324,0.0,0.0,0.0,0.0
1668678413.431102,43317,1668678413,427595948,,-5e-324,-5e-324,0.0,0.0,0.0,0.0
1668678413.435176,43318,1668678413,434915167,,-5e-324,-5e-324,0.0,0.0,0.0,0.0
1668678413.4428875,43319,1668678413,442695508,,-5e-324,-5e-324,0.0,0.0,0.0,0.0
1668678413.4511325,43320,1668678413,450904252,,-5e-324,-5e-324,0.0,0.0,0.0,0.0
1668678413.4597623,43321,1668678413,459475547,,-5e-324,-5e-324,0.0,0.0,0.0,0.0
1668678413.4670305,43322,1668678413,466796496,,-5e-324,-5e-324,0.0,0.0,0.0,0.0
1668678413.4751997,43323,1668678413,474965345,,-5e-324,-5e-324,0.0,0.0,0.0,0.0
1668678413.4829502,43324,1668678413,482757138,,-5e-324,-5e-324,0.0,0.0,0.0,0.0
1668678413.4915836,43325,1668678413,491388669,,-5e-324,-5e-324,0.0,0.0,0.0,0.0
1668678413.5023806,43326,1668678413,502175298,,-5e-324,-5e-324,0.0,0.0,0.0,0.0
1668678413.507571,43327,1668678413,507193360,,-5e-324,-5e-324,0.0,0.0,0.0,0.0
1668678413.5156028,43328,1668678413,515322433,,-5e-324,-5e-324,0.0,0.0,0.0,0.0
1668678413.5232186,43329,1668678413,523018084,,-5e-324,-5e-324,0.0,0.0,0.0,0.0
1668678413.5314636,43330,1668678413,531250652,,-5e-324,-5e-324,0.0,0.0,0.0,0.0
1668678413.5393665,43331,1668678413,539141574,,-5e-324,-5e-324,0.0,0.0,0.0,0.0
1668678413.547056,43332,1668678413,546811354,,-5e-324,-5e-324,0.0,0.0,0.0,0.0
1668678413.5554242,43333,1668678413,555209771,,-5e-324,-5e-324,0.0,0.0,0.0,0.0
1668678413.5629597,43334,1668678413,562698414,,-5e-324,-5e-324,0.0,0.0,0.0,0.0
1668678413.5711188,43335,1668678413,570911836,,-5e-324,-5e-324,0.0,0.0,0.0,0.0
1668678413.579166,43336,1668678413,578933033,,-5e-324,-5e-324,0.0,0.0,0.0,0.0
1668678413.5874422,43337,1668678413,587211608,,-5e-324,-5e-324,0.0,0.0,0.0,0.0
1668678413.595034,43338,1668678413,594827415,,-5e-324,-5e-324,0.0,0.0,0.0,0.0
1668678413.6030056,43339,1668678413,602794180,,-5e-324,-5e-324,0.0,0.0,0.0,0.0
1668678413.6114047,43340,1668678413,611131982,,-5e-324,-5e-324,0.0,0.0,0.0,0.0
1668678413.6200092,43341,1668678413,619647032,,-5e-324,-5e-324,0.0,0.0,0.0,0.0
1668678413.6270423,43342,1668678413,626829741,,-5e-324,-5e-324,0.0,0.0,0.0,0.0
1668678413.635123,43343,1668678413,634888527,,-5e-324,-5e-324,0.0,0.0,0.0,0.0
1668678413.6431687,43344,1668678413,642765721,,-5e-324,-5e-324,0.0,0.0,0.0,0.0
1668678413.6516755,43345,1668678413,651372319,,-5e-324,-5e-324,0.0,0.0,0.0,0.0
1668678413.6598327,43346,1668678413,659415663,,-5e-324,-5e-324,0.0,0.0,0.0,0.0
1668678413.6678905,43347,1668678413,667516385,,-5e-324,-5e-324,0.0,0.0,0.0,0.0
1668678413.6752512,43348,1668678413,675014640,,-5e-324,-5e-324,0.0,0.0,0.0,0.0
1668678413.6829405,43349,1668678413,682687938,,-5e-324,-5e-324,0.0,0.0,0.0,0.0
1668678413.691034,43350,1668678413,690829234,,-5e-324,-5e-324,0.0,0.0,0.0,0.0
1668678413.699106,43351,1668678413,698844855,,-5e-324,-5e-324,0.0,0.0,0.0,0.0
1668678413.7069852,43352,1668678413,706761755,,-5e-324,-5e-324,0.0,0.0,0.0,0.0
1668678413.7153258,43353,1668678413,715101568,,-5e-324,-5e-324,0.0,0.0,0.0,0.0
1668678413.7228134,43354,1668678413,722610361,,-5e-324,-5e-324,0.0,0.0,0.0,0.0
1668678413.7310863,43355,1668678413,730851084,,-5e-324,-5e-324,0.0,0.0,0.0,0.0
1668678413.7392864,43356,1668678413,739072912,,-5e-324,-5e-324,0.0,0.0,0.0,0.0
1668678413.7473733,43357,1668678413,747132442,,-5e-324,-5e-324,0.0,0.0,0.0,0.0
1668678413.7552757,43358,1668678413,755012058,,-5e-324,-5e-324,0.0,0.0,0.0,0.0
1668678413.7628064,43359,1668678413,762529870,,-5e-324,-5e-324,0.0,0.0,0.0,0.0
1668678413.7713723,43360,1668678413,771118491,,-5e-324,-5e-324,0.0,0.0,0.0,0.0
1668678413.7793448,43361,1668678413,779097175,,-5e-324,-5e-324,0.0,0.0,0.0,0.0
1668678413.7874522,43362,1668678413,787144395,,-5e-324,-5e-324,0.0,0.0,0.0,0.0
1668678413.7954025,43363,1668678413,795173048,,-5e-324,-5e-324,0.0,0.0,0.0,0.0
1668678413.803224,43364,1668678413,802914077,,-5e-324,-5e-324,0.0,0.0,0.0,0.0
1668678413.8114934,43365,1668678413,811312527,,-5e-324,-5e-324,0.0,0.0,0.0,0.0
1668678413.8192139,43366,1668678413,818969888,,-5e-324,-5e-324,0.0,0.0,0.0,0.0
1668678413.827189,43367,1668678413,826910412,,-5e-324,-5e-324,0.0,0.0,0.0,0.0
1668678413.8352566,43368,1668678413,834999638,,-5e-324,-5e-324,0.0,0.0,0.0,0.0
1668678413.8430424,43369,1668678413,842797810,,-5e-324,-5e-324,0.0,0.0,0.0,0.0
1668678413.8511817,43370,1668678413,850998304,,-5e-324,-5e-324,0.0,0.0,0.0,0.0
1668678413.859201,43371,1668678413,859006622,,-5e-324,-5e-324,0.0,0.0,0.0,0.0
1668678413.8671148,43372,1668678413,866930331,,-5e-324,-5e-324,0.0,0.0,0.0,0.0
1668678413.8754926,43373,1668678413,875265646,,-5e-324,-5e-324,0.0,0.0,0.0,0.0
1668678413.8829145,43374,1668678413,882690940,,-5e-324,-5e-324,0.0,0.0,0.0,0.0
1668678413.8911743,43375,1668678413,890973001,,-5e-324,-5e-324,0.0,0.0,0.0,0.0
1668678413.8990734,43376,1668678413,898859863,,-5e-324,-5e-324,0.0,0.0,0.0,0.0
1668678413.9075153,43377,1668678413,907257747,,-5e-324,-5e-324,0.0,0.0,0.0,0.0
1668678413.9150958,43378,1668678413,914855143,,-5e-324,-5e-324,0.0,0.0,0.0,0.0
1668678413.9228504,43379,1668678413,922620412,,-5e-324,-5e-324,0.0,0.0,0.0,0.0
1668678413.9312458,43380,1668678413,931047297,,-5e-324,-5e-324,0.0,0.0,0.0,0.0
1668678413.9395297,43381,1668678413,939302595,,-5e-324,-5e-324,0.0,0.0,0.0,0.0
1668678413.9476516,43382,1668678413,947376775,,-5e-324,-5e-324,0.0,0.0,0.0,0.0
1668678413.955322,43383,1668678413,955067410,,-5e-324,-5e-324,0.0,0.0,0.0,0.0
1668678413.962774,43384,1668678413,962579804,,-5e-324,-5e-324,0.0,0.0,0.0,0.0
1668678413.9713097,43385,1668678413,971019604,,-5e-324,-5e-324,0.0,0.0,0.0,0.0
1668678413.9789853,43386,1668678413,978794759,,-5e-324,-5e-324,0.0,0.0,0.0,0.0
1668678413.987048,43387,1668678413,986836514,,-5e-324,-5e-324,0.0,0.0,0.0,0.0
1668678413.99518,43388,1668678413,994955466,,-5e-324,-5e-324,0.0,0.0,0.0,0.0
1668678414.002904,43389,1668678414,2605519,,-5e-324,-5e-324,0.0,0.0,0.0,0.0
1668678414.0111346,43390,1668678414,10924621,,-5e-324,-5e-324,0.0,0.0,0.0,0.0
1668678414.01924,43391,1668678414,19014675,,-5e-324,-5e-324,0.0,0.0,0.0,0.0
1668678414.0271947,43392,1668678414,26976399,,-5e-324,-5e-324,0.0,0.0,0.0,0.0
1668678414.0355704,43393,1668678414,35286819,,-5e-324,-5e-324,0.0,0.0,0.0,0.0
1668678414.0428107,43394,1668678414,42589982,,-5e-324,-5e-324,0.0,0.0,0.0,0.0
1668678414.0512705,43395,1668678414,51043497,,-5e-324,-5e-324,0.0,0.0,0.0,0.0
1668678414.059292,43396,1668678414,59029459,,-5e-324,-5e-324,0.0,0.0,0.0,0.0
1668678414.0675497,43397,1668678414,67246458,,-5e-324,-5e-324,0.0,0.0,0.0,0.0
1668678414.0751023,43398,1668678414,74841930,,-5e-324,-5e-324,0.0,0.0,0.0,0.0
1668678414.0829337,43399,1668678414,82649045,,-5e-324,-5e-324,0.0,0.0,0.0,0.0
1668678414.0912979,43400,1668678414,91056803,,-5e-324,-5e-324,0.0,0.0,0.0,0.0
1668678414.0993369,43401,1668678414,99084900,,-5e-324,-5e-324,0.0,0.0,0.0,0.0
1668678414.107258,43402,1668678414,107044342,,-5e-324,-5e-324,0.0,0.0,0.0,0.0
1668678414.1153405,43403,1668678414,115133330,,-5e-324,-5e-324,0.0,0.0,0.0,0.0
1668678414.122942,43404,1668678414,122692828,,-5e-324,-5e-324,0.0,0.0,0.0,0.0
1668678414.1313999,43405,1668678414,131194053,,-5e-324,-5e-324,0.0,0.0,0.0,0.0
1668678414.1392434,43406,1668678414,139044487,,-5e-324,-5e-324,0.0,0.0,0.0,0.0
1668678414.147158,43407,1668678414,146907270,,-5e-324,-5e-324,0.0,0.0,0.0,0.0
1668678414.1551144,43408,1668678414,154891906,,-5e-324,-5e-324,0.0,0.0,0.0,0.0
1668678414.1630442,43409,1668678414,162802319,,-5e-324,-5e-324,0.0,0.0,0.0,0.0
1668678414.1712425,43410,1668678414,171044581,,-5e-324,-5e-324,0.0,0.0,0.0,0.0
1668678414.1795204,43411,1668678414,179274760,,-5e-324,-5e-324,0.0,0.0,0.0,0.0
1668678414.1872063,43412,1668678414,186972936,,-5e-324,-5e-324,0.0,0.0,0.0,0.0
1668678414.195502,43413,1668678414,195205966,,-5e-324,-5e-324,0.0,0.0,0.0,0.0
1668678414.2031457,43414,1668678414,202904327,,-5e-324,-5e-324,0.0,0.0,0.0,0.0
1668678414.2111712,43415,1668678414,210999768,,-5e-324,-5e-324,0.0,0.0,0.0,0.0
1668678414.219078,43416,1668678414,218854699,,-5e-324,-5e-324,0.0,0.0,0.0,0.0
1668678414.227884,43417,1668678414,227662005,,-5e-324,-5e-324,0.0,0.0,0.0,0.0
1668678414.2357316,43418,1668678414,235457499,,-5e-324,-5e-324,0.0,0.0,0.0,0.0
1668678414.2433813,43419,1668678414,243106714,,-5e-324,-5e-324,0.0,0.0,0.0,0.0
1668678414.2512,43420,1668678414,250992633,,-5e-324,-5e-324,0.0,0.0,0.0,0.0
1668678414.2595246,43421,1668678414,259286207,,-5e-324,-5e-324,0.0,0.0,0.0,0.0
1668678414.2671204,43422,1668678414,266897507,,-5e-324,-5e-324,0.0,0.0,0.0,0.0
1668678414.275266,43423,1668678414,275045052,,-5e-324,-5e-324,0.0,0.0,0.0,0.0
1668678414.2826629,43424,1668678414,282480189,,-5e-324,-5e-324,0.0,0.0,0.0,0.0
1668678414.2913296,43425,1668678414,291115672,,-5e-324,-5e-324,0.0,0.0,0.0,0.0
1668678414.299161,43426,1668678414,298931269,,-5e-324,-5e-324,0.0,0.0,0.0,0.0
1668678414.3073323,43427,1668678414,307028493,,-5e-324,-5e-324,0.0,0.0,0.0,0.0
1668678414.3156676,43428,1668678414,315274105,,-5e-324,-5e-324,0.0,0.0,0.0,0.0
1668678414.32354,43429,1668678414,323323918,,-5e-324,-5e-324,0.0,0.0,0.0,0.0
1668678414.331999,43430,1668678414,331681373,,-5e-324,-5e-324,0.0,0.0,0.0,0.0
1668678414.3399951,43431,1668678414,339666552,,-5e-324,-5e-324,0.0,0.0,0.0,0.0
1668678414.3479524,43432,1668678414,347640589,,-5e-324,-5e-324,0.0,0.0,0.0,0.0
1668678414.3564076,43433,1668678414,356050331,,-5e-324,-5e-324,0.0,0.0,0.0,0.0
1668678414.3635237,43434,1668678414,363146687,,-5e-324,-5e-324,0.0,0.0,0.0,0.0
1668678414.3720765,43435,1668678414,371783346,,-5e-324,-5e-324,0.0,0.0,0.0,0.0
1668678414.3797696,43436,1668678414,379469612,,-5e-324,-5e-324,0.0,0.0,0.0,0.0
1668678414.3882277,43437,1668678414,387791499,,-5e-324,-5e-324,0.06989859434509549,0.0,0.0,0.0
1668678414.3964086,43438,1668678414,395681204,,-0.01888716600157476,-0.38825043561389855,0.37349575867814955,0.0,0.0,0.0
1668678414.4027874,43439,1668678414,402574664,,-0.01888716600157476,-0.38825043561389855,0.37349575867814955,0.0,0.0,0.0
1668678414.4112613,43440,1668678414,411007673,,-0.028913450857275494,-0.5936766613954347,0.534089679532441,0.0,0.0,0.0
1668678414.4194973,43441,1668678414,419278842,,-0.8241220257249338,-1.7300353036102882,0.8572786092478393,0.0,0.0,0.0
1668678414.427088,43442,1668678414,426914214,,-1.244996978260657,-2.33113116470466,1.0283177307065159,0.0,0.0,0.0
1668678414.4350433,43443,1668678414,434848122,,-1.6243244296596377,-3.266375074518746,1.4997570912614335,0.0,0.0,0.0
1668678414.4429395,43444,1668678414,442715256,,-1.6243244296596377,-3.266375074518746,1.4997570912614335,0.0,0.0,0.0
1668678414.4514008,43445,1668678414,451193340,,-1.3944681231645617,-4.016467640087875,1.6527910824208876,0.0,0.0,0.0
1668678414.4593065,43446,1668678414,459025202,,-1.272805982315708,-4.413442472299975,1.7335522381148132,0.0,0.0,0.0
1668678414.4672036,43447,1668678414,466995467,,-0.8871802781601557,-5.073254953478383,1.396893551553186,0.0,0.0,0.0
1668678414.476143,43448,1668678414,475859040,,-0.4693873971073349,-5.604782977332572,0.7488789331922336,0.0,-0.02519405796663042,0.0
1668678414.4834352,43449,1668678414,483223572,,-0.4693873971073349,-5.604782977332572,0.7488789331922336,0.0,-0.02519405796663042,0.0
1668678414.4920063,43450,1668678414,491663627,,-0.24834245529004587,-5.886055609134891,0.4057936165746906,0.0,-0.038529817161256225,0.0
1668678414.4991035,43451,1668678414,498837675,,-0.13139248194468553,-5.96270577106861,0.21469639726637504,0.0,-0.04837639164234049,0.0
1668678414.507155,43452,1668678414,506919148,,-0.06951684637015221,-6.003250060344129,0.11359109930867271,0.0,-0.05357436946868898,0.0
1668678414.5151098,43453,1668678414,514899175,,-0.036779820715205004,-6.167271978514664,0.06009852986095522,0.0,-0.09718656695615982,0.0
1668678414.5227442,43454,1668678414,522559747,,-0.036779820715205004,-6.167271978514664,0.06009852986095522,0.0,-0.09718656695615982,0.0
1668678414.530996,43455,1668678414,530784538,,-0.019459386932480914,-6.369778162633919,0.031796798458947235,0.0,-0.14365162348035174,0.0
1668678414.5394068,43456,1668678414,539163257,,-0.01029552978847081,-6.47692740107416,0.016822980438590707,0.0,-0.16823334980651733,0.0
1668678414.5481763,43457,1668678414,547175367,,-0.005447136335439317,-6.460229600799497,0.008900665618980556,0.0,-0.17244159455961533,0.0
1668678414.5558012,43458,1668678414,555431294,,-0.0028819589536897773,-6.327373045522399,0.004709144657814218,0.0,-0.1463389761715737,0.0
1668678414.5631661,43459,1668678414,562976880,,-0.0028819589536897773,-6.327373045522399,0.004709144657814218,0.0,-0.1463389761715737,0.0
1668678414.5714781,43460,1668678414,571189706,,-0.0015247805267357632,-6.257098318376681,0.002491503934372061,0.0,-0.13253112194338748,0.0
1668678414.5794594,43461,1668678414,579223044,,-0.0008067275391746806,-6.250057160048742,0.0013181994408880094,0.0,-0.12270788829737558,0.0
1668678414.5871353,43462,1668678414,586925227,,-0.0004268216382957636,-6.24637106626149,0.0006974300710447821,0.0,-0.11751170983186965,0.0
1668678414.5951896,43463,1668678414,594982572,,-0.0002258218569107667,-6.089725187895478,0.22824119104316745,0.0,-0.08516290869053675,0.0
1668678414.602844,43464,1668678414,602590682,,-0.0002258218569107667,-6.089725187895478,0.22824119104316745,0.0,-0.08516290869053675,0.0
1668678414.6113439,43465,1668678414,611151642,,-0.00011947733311329859,-6.054180805724222,0.320915100819682,0.0,-0.0770361703174669,0.0
1668678414.6192598,43466,1668678414,619058206,,-6.321280554125813e-05,-6.035426127144257,0.3696675268882058,0.0,-0.07273395973539654,0.0
1668678414.627297,43467,1668678414,627030718,,-3.3444492610223406e-05,-6.0359744551390335,0.28222310706775133,0.0,-0.08055310222213877,0.0
1668678414.6352868,43468,1668678414,635056789,,-1.769473884884347e-05,-6.142921152194871,0.14931798292991627,0.0,-0.11287905843272023,0.0
1668678414.6430783,43469,1668678414,642844827,,-1.769473884884347e-05,-6.142921152194871,0.14931798292991627,0.0,-0.11287905843272023,0.0
1668678414.651415,43470,1668678414,651137538,,-9.361893648016053e-06,-6.199500565655651,0.07900083114351922,0.0,-0.12998197456552052,0.0
1668678414.6597385,43471,1668678414,659400539,,-4.953170172527967e-06,-6.308304305719448,0.041797586592742596,0.0,-0.16203061834809568,0.0
1668678414.6670165,43472,1668678414,666766001,,-2.620612418858217e-06,-6.365864334060818,0.022114175505369132,0.0,-0.17898776331733354,0.0
1668678414.6751258,43473,1668678414,674930275,,-1.386507874888714e-06,-6.794127529085795,0.011700119508028739,0.0,-0.26261767398693153,0.0
1668678414.683105,43474,1668678414,682840612,,-1.386507874888714e-06,-6.794127529085795,0.011700119508028739,0.0,-0.26261767398693153,0.0
1668678414.6915352,43475,1668678414,691092474,,0.06348071161827828,-7.143478116287434,-0.1892803458023577,0.0,-0.327338175716026,0.0
1668678414.6995056,43476,1668678414,699140469,,0.09691895478853195,-7.328268643721823,-0.2959938720187478,0.0,-0.3615826387361991,0.0
1668678414.7080479,43477,1668678414,707769550,,0.05127766817911621,-7.549704326622651,-0.48536414838033537,0.0,-0.3981523498929216,0.0
1668678414.7159686,43478,1668678414,715708713,,0.14632011136398027,-7.831856832093571,-0.8095876945625555,0.0,-0.44665961624374345,0.0
1668678414.7235394,43479,1668678414,723154464,,0.14632011136398027,-7.831856832093571,-0.8095876945625555,0.0,-0.44665961624374345,0.0
1668678414.7319877,43480,1668678414,731665026,,0.19648261896877334,-7.981162109793365,-0.9810939559926358,0.0,-0.4723239794526633,0.0
1668678414.7396078,43481,1668678414,739351921,,0.1284257335529701,-8.145916723372455,-1.1120650876605338,0.0,-0.5047646657068301,0.0
1668678414.7471216,43482,1668678414,746921230,,0.09270133285563474,-8.233120199511468,-1.1810806807378083,0.0,-0.521926164199265,0.0
1668678414.7552538,43483,1668678414,755012340,,0.2939741177881552,-8.496930517771531,-1.5071068130767342,0.0,-0.5729580255746893,0.0
1668678414.7628002,43484,1668678414,762608396,,0.2939741177881552,-8.496930517771531,-1.5071068130767342,0.0,-0.5729580255746893,0.0
1668678414.7714808,43485,1668678414,771172572,,0.39703031221171214,-8.641860672454976,-1.6697625889404177,0.0,-0.6013285356403562,0.0
1668678414.7791874,43486,1668678414,778979049,,0.45164362625992927,-8.718534022022409,-1.7557937264247905,0.0,-0.6163387848917977,0.0
1668678414.7871287,43487,1668678414,786905794,,0.32710361993122616,-8.752543272333485,-1.6922482365235252,0.0,-0.6168585621610969,0.0
1668678414.7952502,43488,1668678414,794940529,,0.17649753181466654,-8.776316274340791,-1.6151564571332275,0.0,-0.6081648190669827,0.0
1668678414.8030546,43489,1668678414,802802751,,0.17649753181466654,-8.776316274340791,-1.6151564571332275,0.0,-0.6081648190669827,0.0
1668678414.81122,43490,1668678414,810996706,,0.09724408764773229,-8.788734116223527,-1.574817900419676,0.0,-0.6035667160483711,0.0
1668678414.8191206,43491,1668678414,818833883,,0.0837743848712558,-8.817941000607147,-1.5205643758723246,0.0,-0.5971027135206631,0.0
1668678414.8273544,43492,1668678414,827058563,,0.07687812936204116,-8.833402120056496,-1.4917263023193836,0.0,-0.593681445112413,0.0
1668678414.8355155,43493,1668678414,835252528,,0.04067451218659217,-8.679912886556687,-1.1863838717047979,0.0,-0.5460789688500642,0.0
1668678414.843312,43494,1668678414,842965210,,0.04067451218659217,-8.679912886556687,-1.1863838717047979,0.0,-0.5460789688500642,0.0
1668678414.8513572,43495,1668678414,851096204,,0.021519981760041475,-8.431078343540207,-0.7908781589332566,0.0,-0.48820444159108156,0.0
1668678414.8590467,43496,1668678414,858809950,,0.011385744783564385,-8.299398685686368,-0.581721845628487,0.0,-0.4575894585831106,0.0
1668678414.8676474,43497,1668678414,867409229,,0.006023944895584045,-8.377173149119441,-0.581887936412496,0.0,-0.47349874480007015,0.0
1668678414.875336,43498,1668678414,875099217,,0.003187135562481218,-8.608043871867928,-0.5541393062880149,0.0,-0.5076860416369073,0.0
1668678414.8827434,43499,1668678414,882533912,,0.003187135562481218,-8.608043871867928,-0.5541393062880149,0.0,-0.5076860416369073,0.0
1668678414.8911364,43500,1668678414,890843334,,0.0016862426980497186,-8.730199187043855,-0.5393789078739132,0.0,-0.5257740292212516,0.0
1668678414.899537,43501,1668678414,899303688,,0.0008921535908916178,-8.632891842179614,-0.3325393741687516,0.0,-0.49891349958910214,0.0
1668678414.9070807,43502,1668678414,906860295,,0.00047201866650712693,-8.243941741541846,-0.17593920324792747,0.0,-0.41729679864166536,0.0
1668678414.9151435,43503,1668678414,914903923,,0.0002497346015370498,-8.038149416841211,-0.09308552804278508,0.0,-0.3741169931636271,0.0
1668678414.9229593,43504,1668678414,922690016,,0.0002497346015370498,-8.038149416841211,-0.09308552804278508,0.0,-0.3741169931636271,0.0
1668678414.9316864,43505,1668678414,931332103,,0.00013212903562983852,-7.71593748042935,-0.049249487158321545,0.0,-0.3145143734741733,0.0
1668678414.9392958,43506,1668678414,939082116,,6.990654057956447e-05,-7.545458045560528,-0.026056810724034738,0.0,-0.2829771834126754,0.0
1668678414.9472952,43507,1668678414,947066180,,3.698599927341547e-05,-7.148715800317351,-0.01378608030831952,0.0,-0.2089515486928988,0.0
1668678414.9553204,43508,1668678414,955060773,,-0.06625833893244337,-7.246089598615647,-0.007293909154128676,0.0,-0.2026959648418128,0.0
1668678414.962927,43509,1668678414,962693008,,-0.06625833893244337,-7.246089598615647,-0.007293909154128676,0.0,-0.2026959648418128,0.0
1668678414.9712512,43510,1668678414,971005585,,-0.10142858910780456,-7.297589589633501,-0.0038590454689703714,0.0,-0.19938224280303204,0.0
1668678414.9797623,43511,1668678414,979446279,,-0.311005754596822,-7.195673701648177,-0.002041735318728379,0.0,-0.1484047992041159,0.0
1668678414.9871233,43512,1668678414,986818450,,-1.2878231132437472,-7.273832808041965,0.23612929864193638,0.0,-0.09309223312062502,0.0
1668678414.9957738,43513,1668678414,995374623,,-1.804992464134348,-7.315087681143943,0.3618780118582582,0.0,-0.06380415791100513,0.0
1668678415.0028718,43514,1668678415,2626514,,-1.804992464134348,-7.315087681143943,0.3618780118582582,0.0,-0.06380415791100513,0.0
1668678415.0110204,43515,1668678415,10817092,,-3.16380870028367,-6.804495234268963,1.187954628938407,0.0,-0.03375736402592308,0.0
1668678415.0195653,43516,1668678415,19300144,,-3.8827628698543633,-6.534287112140669,1.6251009565775356,0.0,-0.017860272171731476,0.0
1668678415.0274415,43517,1668678415,27199582,,-4.279445050025285,-5.220604547457256,1.8094441978835243,0.0,-0.009449473655684914,0.0
1668678415.0350347,43518,1668678415,34809956,,-4.358007210248235,-4.192959837145984,1.6970464839068795,0.0,-0.004999506811033479,0.0
1668678415.0429509,43519,1668678415,42712041,,-4.358007210248235,-4.192959837145984,1.6970464839068795,0.0,-0.004999506811033479,0.0
1668678415.0511875,43520,1668678415,50931846,,-4.399775650722965,-3.6490709335255946,1.6374398089129416,0.0,-0.002645128106001208,0.0
1668678415.059393,43521,1668678415,59134892,,-4.266083864375634,-3.3150799315284303,1.7314439852221033,0.0,-0.0013994785809105048,0.0
1668678415.067106,43522,1668678415,66892445,,-4.195400701068376,-3.138538383486563,1.7808588673894237,0.0,-0.0007404330603057703,0.0
1668678415.0761678,43523,1668678415,75842591,,-3.6934612160532114,-3.5541997213853813,2.1626805252438355,0.0,-0.00039174670071554884,0.0
1668678415.0832245,43524,1668678415,83051249,,-3.6934612160532114,-3.5541997213853813,2.1626805252438355,0.0,-0.00039174670071554884,0.0
1668678415.0913749,43525,1668678415,91153560,,-2.901662118918599,-4.095609458375737,2.395824803188833,0.0,-0.00020726448581069904,0.0
1668678415.099161,43526,1668678415,98962337,,-2.482573266504426,-4.382301634336725,2.5189315696653165,0.0,-0.00010965903988446378,0.0
1668678415.1072772,43527,1668678415,107020739,,-1.4413151418704406,-4.846300991977128,2.4293622871200284,0.0,-5.801816447881627e-05,0.0
1668678415.11503,43528,1668678415,114821224,,-0.836341194963702,-5.02484862366742,2.337930056087597,0.0,-3.0696123302169086e-05,0.0
1668678415.1235907,43529,1668678415,123347256,,-0.836341194963702,-5.02484862366742,2.337930056087597,0.0,-3.0696123302169086e-05,0.0
1668678415.1313012,43530,1668678415,131064858,,-0.5162698562840702,-5.119272329439097,2.2896334002167853,0.0,-1.6240637639027777e-05,0.0
1668678415.1393318,43531,1668678415,139089351,,-0.27314692403747454,-5.277853544763091,2.2867086274020627,0.0,-8.592560966927303e-06,0.0
1668678415.147524,43532,1668678415,147260494,,0.11327073601337789,-3.736043895487219,3.014405785926937,0.0,-4.54613332378879e-06,0.0
1668678415.1556668,43533,1668678415,155437679,,0.3178314804860705,-2.9202074869434984,3.399438764978179,0.0,-2.405258255043088e-06,0.0
1668678415.1628478,43534,1668678415,162610959,,0.3178314804860705,-2.9202074869434984,3.399438764978179,0.0,-2.405258255043088e-06,0.0
1668678415.1711774,43535,1668678415,170953428,,0.16815758309405968,-2.027863288772225,3.935569998207918,0.0,-1.2725687658960747e-06,0.0
1668678415.1797278,43536,1668678415,179318816,,0.08896844550700468,-1.5556886826219163,4.219250877251102,0.0,-6.73287893530272e-07,0.0
1668678415.1873925,43537,1668678415,187203515,,0.04707123015383348,-0.823080358548524,4.118338753947558,0.0,-3.562216830421966e-07,0.0
1668678415.195049,43538,1668678415,194794565,,0.02490434328225635,-0.43547355212907485,3.8109032693912708,0.0,-1.8846898732140927e-07,0.0
1668678415.202689,43539,1668678415,202501555,,0.02490434328225635,-0.43547355212907485,3.8109032693912708,0.0,-1.8846898732140927e-07,0.0
1668678415.2112424,43540,1668678415,211043791,,0.013176335360123487,-0.2303993925190163,3.6482285055587713,0.0,-9.971475873845081e-08,0.0
1668678415.2192574,43541,1668678415,219057778,,0.006971306633334795,-0.12189920562017881,3.268323970780962,0.0,-5.275686600528556e-08,0.0
1668678415.227158,43542,1668678415,226949452,,0.0036883636343270983,-0.0644941645391022,2.9602223520369115,0.0,-2.791248703715108e-08,0.0
1668678415.2350473,43543,1668678415,234824163,,0.0019514313477442,-0.03412243122040689,2.797206484060147,0.0,-1.4767877464917466e-08,0.0
1668678415.2427185,43544,1668678415,242485912,,0.0019514313477442,-0.03412243122040689,2.797206484060147,0.0,-1.4767877464917466e-08,0.0
1668678415.2513196,43545,1668678415,251104904,,0.001032459020449454,-0.01805342112285942,2.622577435967828,0.0,-7.813356241905012e-09,0.0
1668678415.259756,43546,1668678415,259431295,,0.0005462511556656501,-0.0095516644794169,2.5301499940053462,0.0,-4.133873395682133e-09,0.0
1668678415.2671988,43547,1668678415,266975767,,0.018829587583693748,-0.09921686933579761,2.5715916780171497,0.0,-2.1871406758438034e-09,0.0
1668678415.2750206,43548,1668678415,274828428,,0.03712348578994588,-0.16289677309879452,2.659739320236894,0.0,-1.1571675951486528e-09,0.0
1668678415.2837808,43549,1668678415,282993177,,0.03712348578994588,-0.16289677309879452,2.659739320236894,0.0,-1.1571675951486528e-09,0.0
1668678415.2917678,43550,1668678415,291487567,,0.046817025633006895,-0.19662410312580908,2.706360433903998,0.0,-6.122316950396953e-10,0.0
1668678415.2993114,43551,1668678415,299066728,,0.27937954466231824,-0.34734602203467846,2.807464868988896,0.0,-3.2391820336364254e-10,0.0
1668678415.307115,43552,1668678415,306891438,,0.4122531830287404,-0.45438607563161293,2.8425580390890497,0.0,-1.7137793309365856e-10,0.0
1668678415.31523,43553,1668678415,314952569,,0.48262791177277936,-0.5107448304896648,2.861206217266914,0.0,-9.067226122664745e-11,0.0
1668678415.3229759,43554,1668678415,322752121,,0.48262791177277936,-0.5107448304896648,2.861206217266914,0.0,-9.067226122664745e-11,0.0
1668678415.3312232,43555,1668678415,330985399,,0.5277609044547439,-0.5587382760085693,2.852517444026734,0.0,-4.797268124047419e-11,0.0
1668678415.3391151,43556,1668678415,338915079,,0.5516353549147397,-0.5839574704122762,2.8479948423658428,0.0,-2.538128104743679e-11,0.0
1668678415.347641,43557,1668678415,347229767,,0.583912966769645,-0.5812922804883791,2.750874172477678,0.0,-1.3428672547605266e-11,0.0
1668678415.355319,43558,1668678415,355071801,,0.631657045222668,-0.5411115866917526,2.6608527829971864,0.0,-7.104812639432099e-12,0.0
1668678415.362758,43559,1668678415,362531594,,0.631657045222668,-0.5411115866917526,2.6608527829971864,0.0,-7.104812639432099e-12,0.0
1668678415.3711572,43560,1668678415,370954701,,0.6568724553959555,-0.5200044756950702,2.6131820124884477,0.0,-3.758998699423639e-12,0.0
1668678415.3793912,43561,1668678415,379157306,,0.7756992073874389,-0.46102154926315053,2.534459747537154,0.0,-1.9888027931723266e-12,0.0
1668678415.3870528,43562,1668678415,386814315,,0.9500818622445295,-0.43771514274162954,2.4874889500117066,0.0,-1.0522314228883647e-12,0.0
1668678415.3954875,43563,1668678415,395234605,,1.0425953619101938,-0.4252339328129439,2.462542343766965,0.0,-5.567122950122165e-13,0.0
1668678415.4029229,43564,1668678415,402672847,,1.0425953619101938,-0.4252339328129439,2.462542343766965,0.0,-5.567122950122165e-13,0.0
1668678415.4114652,43565,1668678415,411243565,,1.1739820725970258,-0.45201592373981025,2.402279536352216,0.0,-2.945441208807644e-13,0.0
1668678415.419182,43566,1668678415,418923398,,1.2433976492589638,-0.46596392254019836,2.370562738731751,0.0,-1.5583675791374172e-13,0.0
1668678415.4282649,43567,1668678415,427992252,,1.2986470743176564,-0.5166196172177567,2.4016448491568836,0.0,-8.244977032455213e-14,0.0
1668678415.4353337,43568,1668678415,435091493,,1.2357209561408122,-0.6607019755806739,2.472794427587194,0.0,-4.36223437754922e-14,0.0
1668678415.442968,43569,1668678415,442707617,,1.2357209561408122,-0.6607019755806739,2.472794427587194,0.0,-4.36223437754922e-14,0.0
1668678415.4511657,43570,1668678415,450974210,,1.2024140889685526,-0.7367080698320568,2.5105619002851176,0.0,-2.30796140362391e-14,0.0
1668678415.4593549,43571,1668678415,459111778,,1.2524903786486705,-0.8082917982711886,2.4694913075491343,0.0,-1.2210911609958644e-14,0.0
1668678415.4672236,43572,1668678415,466995876,,1.2065821257830447,-0.8935664240936485,2.4444320387768994,0.0,-6.460522351547963e-15,0.0
1668678415.4753137,43573,1668678415,475076830,,1.1824848733252833,-0.9385746259976226,2.431116044818758,0.0,-3.4181190060217115e-15,0.0
1668678415.4829454,43574,1668678415,482685392,,1.1824848733252833,-0.9385746259976226,2.431116044818758,0.0,-3.4181190060217115e-15,0.0
1668678415.4912393,43575,1668678415,490959142,,1.2100867111466127,-0.997658560656481,2.4386185422673208,0.0,-1.808450912104257e-15,0.0
1668678415.499152,43576,1668678415,498937720,,1.2245903752835414,-1.0289123753988276,2.442656566645989,0.0,-9.568112449359073e-16,0.0
1668678415.5072615,43577,1668678415,507043330,,1.3549753248536938,-1.0604711666281554,2.4535979138807487,0.0,-5.06227596396613e-16,0.0
1668678415.5153959,43578,1668678415,515152824,,1.0685339179357007,-1.5512839793714461,2.495235431205722,0.0,-2.6783378718616373e-16,0.0
1668678415.5230486,43579,1668678415,522856755,,1.0685339179357007,-1.5512839793714461,2.495235431205722,0.0,-2.6783378718616373e-16,0.0
1668678415.5317965,43580,1668678415,531342872,,0.9169080400258944,-1.8111672433443622,2.517122759374102,0.0,-1.4170491310450255e-16,0.0
1668678415.5395455,43581,1668678415,539260170,,0.7632937193718827,-2.091369200509029,2.574384988643872,0.0,-7.49729248461001e-17,0.0
1668678415.547472,43582,1668678415,547172048,,0.45635713904999803,-2.386994770998096,2.642402864934555,0.0,-3.966651075699627e-17,0.0
1668678415.555173,43583,1668678415,554896938,,0.29401712333311947,-2.543514834162605,2.6782625254137704,0.0,-2.0986670572940134e-17,0.0
1668678415.562943,43584,1668678415,562682825,,0.29401712333311947,-2.543514834162605,2.6782625254137704,0.0,-2.0986670572940134e-17,0.0
1668678415.5716677,43585,1668678415,571431311,,0.16351461103666515,-2.6448081186550683,2.6697526673579386,0.0,-1.1103581669568144e-17,0.0
1668678415.5791347,43586,1668678415,578919778,,0.09463626239748549,-2.6981987724826477,2.66541047961973,0.0,-5.874658653656914e-18,0.0
1668678415.5872166,43587,1668678415,586986939,,0.050069946291911915,-2.8308388500951054,2.6623981488387747,0.0,-3.108151524797885e-18,0.0
1668678415.5957687,43588,1668678415,595500432,,0.03002118571006681,-2.4721053356649922,2.6313565083206383,0.0,-1.6444539965040844e-18,0.0
1668678415.6031976,43589,1668678415,602978853,,0.03002118571006681,-2.4721053356649922,2.6313565083206383,0.0,-1.6444539965040844e-18,0.0
1668678415.6122425,43590,1668678415,611838718,,0.019287437667645818,-2.282514959739216,2.6147913220929873,0.0,-8.700441162674991e-19,0.0
1668678415.6198509,43591,1668678415,619646798,,0.4387901896648617,-1.446247251083922,2.5175880441864074,0.0,-4.603210341310471e-19,0.0
1668678415.6280046,43592,1668678415,627727518,,0.6284939790659018,-0.8858048421202891,2.4404095585795265,0.0,-2.4354564383759177e-19,0.0
1668678415.6361382,43593,1668678415,635882929,,0.728867728467153,-0.5892238018132461,2.399596758231346,0.0,-1.2885459545474754e-19,0.0
1668678415.6428716,43594,1668678415,642652545,,0.728867728467153,-0.5892238018132461,2.399596758231346,0.0,-1.2885459545474754e-19,0.0
1668678415.651196,43595,1668678415,650955249,,0.7430137340567029,-0.43039573480798965,2.35944712531794,0.0,-6.817410694842352e-20,0.0
1668678415.6594136,43596,1668678415,659146477,,0.7504219030465988,-0.34641266368468987,2.3382266296149696,0.0,-3.60694070848821e-20,0.0
1668678415.6678765,43597,1668678415,667672755,,0.6952552288074436,-0.271128341632228,2.2748986450148965,0.0,-1.9083522845986147e-20,0.0
1668678415.6751137,43598,1668678415,674859404,,0.6097578626259175,-0.2908871508898505,2.200527027746935,0.0,-1.0096668441381606e-20,0.0
1668678415.6829085,43599,1668678415,682680662,,0.6097578626259175,-0.2908871508898505,2.200527027746935,0.0,-1.0096668441381606e-20,0.0
1668678415.691172,43600,1668678415,690943755,,0.5645851456857034,-0.30136528184054023,2.161138335970464,0.0,-5.341923209772191e-21,0.0
1668678415.6999795,43601,1668678415,699710757,,0.4167618527642367,-0.3344277063509259,2.174774909225463,0.0,-2.8262930237608163e-21,0.0
1668678415.707036,43602,1668678415,706808853,,0.2913497776909415,-0.557445687126227,2.1817372486666375,0.0,-1.4953289185337632e-21,0.0
1668678415.7153604,43603,1668678415,715073772,,0.2249869822380285,-0.6752860742304024,2.185511480977093,0.0,-7.911453468572064e-22,0.0
1668678415.7229686,43604,1668678415,722705877,,0.2249869822380285,-0.6752860742304024,2.185511480977093,0.0,-7.911453468572064e-22,0.0
1668678415.7345812,43605,1668678415,734186817,,0.119035619451268,-0.7386894759944105,2.1456646791954026,0.0,-4.18577446136428e-22,0.0
1668678415.7395823,43606,1668678415,739225107,,0.06297910464506908,-0.7720755539016568,2.1246444871199506,0.0,-2.2146003779216734e-22,0.0
1668678415.7480495,43607,1668678415,747318289,,0.0333208466522775,-1.0697618677759269,2.173330821003808,0.0,-1.1716959141396973e-22,0.0
1668678415.7552595,43608,1668678415,755018241,,0.017629320516412285,-0.7597855352158349,2.1400697771105697,0.0,-6.199183062092916e-23,0.0
1668678415.7634757,43609,1668678415,763254362,,0.017629320516412285,-0.7597855352158349,2.1400697771105697,0.0,-6.199183062092916e-23,0.0
1668678415.7718198,43610,1668678415,771479088,,0.00932728226007283,-0.5956913016664783,2.1225008971645223,0.0,-3.279850187542588e-23,0.0
1668678415.778892,43611,1668678415,778687380,,0.09577275142641875,-0.4005454634103447,2.0774426160721724,0.0,-1.735295948671553e-23,0.0
1668678415.7870412,43612,1668678415,786845086,,0.1907052945220743,-0.23157663511794274,1.9953948782846531,0.0,-9.181065772190258e-24,0.0
1668678415.7956696,43613,1668678415,795426807,,0.24091219699628158,-0.1422168560866505,1.9519804964563914,0.0,-4.857498156312344e-24,0.0
1668678415.8033965,43614,1668678415,803129685,,0.24091219699628158,-0.1422168560866505,1.9519804964563914,0.0,-4.857498156312344e-24,0.0
1668678415.8115308,43615,1668678415,811287044,,0.3474486741474767,-0.11376102972440695,1.9100081373587279,0.0,-2.5699944782063005e-24,0.0
1668678415.8192935,43616,1668678415,819040755,,0.4039112504988779,-0.09882102349880674,1.88770844924201,0.0,-1.3597270457895716e-24,0.0
1668678415.827561,43617,1668678415,827290730,,0.42469317419261765,-0.1924533091062514,1.9204622932579882,0.0,-7.194014052287091e-25,0.0
1668678415.8355417,43618,1668678415,835257182,,0.42181789734630304,-0.26808609120923493,1.9713191407699668,0.0,-3.8061931874313435e-25,0.0
1668678415.8430398,43619,1668678415,842778382,,0.42181789734630304,-0.26808609120923493,1.9713191407699668,0.0,-3.8061931874313435e-25,0.0
1668678415.8512301,43620,1668678415,850992979,,0.42023454301169844,-0.3081730217962393,1.9982236028582543,0.0,-2.0137723494497608e-25,0.0
1668678415.8597984,43621,1668678415,859403785,,0.2817520662610965,-0.560187862956149,2.0794067978199644,0.0,-1.0654422609970474e-25,0.0
1668678415.867117,43622,1668678415,866919638,,0.14906876569232666,-0.88842430118513,2.1693720714535116,0.0,-5.637018562841382e-26,0.0
1668678415.8751566,43623,1668678415,874927332,,0.07886897583367276,-1.0618301169531152,2.2170979154312622,0.0,-2.982421426392658e-26,0.0
1668678415.8834848,43624,1668678415,883258066,,0.07886897583367276,-1.0618301169531152,2.2170979154312622,0.0,-2.982421426392658e-26,0.0
1668678415.8916242,43625,1668678415,891385763,,0.04172782487440057,-1.1938663514604004,2.2759169544235602,0.0,-1.5779329916065603e-26,0.0
1668678415.8994765,43626,1668678415,899170981,,0.022077266128327742,-1.263766502275642,2.3070036149716886,0.0,-8.348493287925497e-27,0.0
1668678415.9074135,43627,1668678415,907183078,,0.1438906775715776,-1.1180615521125317,2.285840538671045,0.0,-4.4170025311135214e-27,0.0
1668678415.9152153,43628,1668678415,914976027,,0.11685356014646961,-1.1397558747780578,2.2819650052149063,0.0,-2.3369380182745812e-27,0.0
1668678415.923034,43629,1668678415,922821280,,0.11685356014646961,-1.1397558747780578,2.2819650052149063,0.0,-2.3369380182745812e-27,0.0
1668678415.9313307,43630,1668678415,931113907,,0.10249754734912163,-1.151158053545176,2.279981591694632,0.0,-1.2364220447662602e-27,0.0
1668678415.9391232,43631,1668678415,938888213,,0.0542291777042917,-1.3689317588519296,2.415617858124019,0.0,-6.541634655388446e-28,0.0
1668678415.947205,43632,1668678415,947002618,,0.02869145448394819,-1.6124177487435905,2.5702401147737817,0.0,-3.461033725961181e-28,0.0
1668678415.955849,43633,1668678415,955600266,,0.015180011854380794,-1.741409599481191,2.651909752511915,0.0,-1.8311561380722552e-28,0.0
1668678415.9627388,43634,1668678415,962507109,,0.015180011854380794,-1.741409599481191,2.651909752511915,0.0,-1.8311561380722552e-28,0.0
1668678415.9711597,43635,1668678415,970923073,,0.008031407401394032,-1.829507458638315,2.7236821475298667,0.0,-9.688240761272793e-29,0.0
1668678415.9792175,43636,1668678415,979046752,,0.0042492394252348215,-1.875933631354809,2.761832318616403,0.0,-5.125833187944344e-29,0.0
1668678415.987539,43637,1668678415,987331149,,0.29259183249123,-1.5801624046398202,2.7589630212554312,0.0,-2.7119645886236124e-29,0.0
1668678415.9953794,43638,1668678415,995108295,,0.6329427819608311,-1.2009351849922618,2.7517505650873697,0.0,-1.4348402806486912e-29,0.0
1668678416.0029325,43639,1668678416,2708776,,0.6329427819608311,-1.2009351849922618,2.7517505650873697,0.0,-1.4348402806486912e-29,0.0
1668678416.0112314,43640,1668678416,10998339,,0.8130602698780189,-1.000284781904534,2.747914795938312,0.0,-7.591421508998718e-30,0.0
1668678416.0190418,43641,1668678416,18850075,,0.9634876676916933,-0.8546624413408921,2.768112340054908,0.0,-4.0164526536175856e-30,0.0
1668678416.0280526,43642,1668678416,27727454,,0.978471862296707,-0.7662190420741559,2.769529868280049,0.0,-2.1250159669871216e-30,0.0
1668678416.0353692,43643,1668678416,35074345,,0.9862842943960235,-0.7196086080177273,2.7702599922081235,0.0,-1.1242987903474885e-30,0.0
1668678416.0429533,43644,1668678416,42733058,,0.9862842943960235,-0.7196086080177273,2.7702599922081235,0.0,-1.1242987903474885e-30,0.0
1668678416.0520291,43645,1668678416,51767618,,1.0444180429304937,-0.7283259775747181,2.761433163815379,0.0,-5.948415398351153e-31,0.0
1668678416.0590103,43646,1668678416,58787801,,1.075087230678625,-0.7330914166701552,2.756741601142375,0.0,-3.1471745816256755e-31,0.0
1668678416.0670483,43647,1668678416,66833328,,1.0717914711014034,-0.7584077543748872,2.759519770138219,0.0,-1.6651002298824392e-31,0.0
1668678416.075215,43648,1668678416,75010323,,1.0340135699190425,-0.8069606324596754,2.7760484433330235,0.0,-8.809675801723031e-32,0.0
1668678416.0833218,43649,1668678416,83126719,,1.0340135699190425,-0.8069606324596754,2.7760484433330235,0.0,-8.809675801723031e-32,0.0
1668678416.0912213,43650,1668678416,90971845,,1.0139674434977288,-0.8327311046291898,2.784783855644087,0.0,-4.661003964724925e-32,0.0
1668678416.0991619,43651,1668678416,98929199,,1.106625967761948,-0.9069755065974892,2.851211284386733,0.0,-2.466033761983888e-32,0.0
1668678416.1072562,43652,1668678416,106974364,,1.3250771824771963,-0.9346642606107523,2.8190609774346225,0.0,-1.3047237379046734e-32,0.0
1668678416.1155374,43653,1668678416,115282749,,1.440774677953536,-0.9495648748525052,2.8018390347401643,0.0,-6.903003756454918e-33,0.0
1668678416.1228447,43654,1668678416,122615891,,1.440774677953536,-0.9495648748525052,2.8018390347401643,0.0,-6.903003756454918e-33,0.0
1668678416.1313465,43655,1668678416,131029712,,1.552564807306256,-0.9481763990597213,2.759443008876711,0.0,-3.6522260979291115e-33,0.0
1668678416.1389773,43656,1668678416,138762604,,1.6117065440194334,-0.9475753921133334,2.7369449812895725,0.0,-1.9323117791905575e-33,0.0
1668678416.1475961,43657,1668678416,147345634,,1.5773509908542431,-1.0318446346053567,2.7130922667484136,0.0,-1.0223432810240683e-33,0.0
1668678416.155456,43658,1668678416,155223421,,0.8345414051101036,-1.9739049136214677,2.718878651775114,0.0,-5.408991424214595e-34,0.0
1668678416.1627777,43659,1668678416,162598423,,0.8345414051101036,-1.9739049136214677,2.718878651775114,0.0,-5.408991424214595e-34,0.0
1668678416.1713576,43660,1668678416,171133898,,0.4415373375243298,-2.4723550121576707,2.7219367749211223,0.0,-2.861777327662434e-34,0.0
1668678416.1793537,43661,1668678416,179129622,,0.2336076068057437,-3.566869494803119,2.583766140652288,0.0,-1.5141028762699373e-34,0.0
1668678416.1873972,43662,1668678416,187103901,,0.12359660060345376,-4.390955643746479,2.16114687611699,0.0,-8.010782312687725e-35,0.0
1668678416.1955407,43663,1668678416,195249444,,0.06539221855661796,-4.826891371853897,1.937709580161001,0.0,-4.238327148506761e-35,0.0
1668678416.2031403,43664,1668678416,202786134,,0.06539221855661796,-4.826891371853897,1.937709580161001,0.0,-4.238327148506761e-35,0.0
1668678416.211748,43665,1668678416,211189745,,0.03459757167170016,-5.142613261077855,1.698068710261213,0.0,-0.0028390505547239084,0.0
1668678416.2192204,43666,1668678416,218973863,,0.018304807391449008,-5.309618254931685,1.5713654396883734,0.0,-0.004341324096452856,0.0
1668678416.2271342,43667,1668678416,226932256,,0.009684667375430882,-5.503965129664085,1.379541165564309,0.0,-0.030725216711323198,0.0
1668678416.235214,43668,1668678416,234981844,,0.005123942588795011,-5.661028844351884,1.236601498923776,0.0,-0.053619123385664186,0.0
1668678416.2433364,43669,1668678416,243108534,,0.005123942588795011,-5.661028844351884,1.236601498923776,0.0,-0.053619123385664186,0.0
1668678416.251897,43670,1668678416,251622851,,0.0027109643145693703,-5.744095452973465,1.1610868719214107,0.0,-0.0657316568982883,0.0
1668678416.2594945,43671,1668678416,259235523,,0.0014343110578444059,-5.787803026272682,1.0348376815332112,0.0,-0.07595856836864462,0.0
1668678416.2680066,43672,1668678416,267673548,,0.0007588621508584952,-5.8837235290105045,0.9797188824195937,0.0,-0.09028103301396578,0.0
1668678416.276244,43673,1668678416,276013450,,0.00040149712355355216,-5.934504953872144,0.9503934076679903,0.0,-0.09785859127571027,0.0
1668678416.2834122,43674,1668678416,283116623,,0.00040149712355355216,-5.934504953872144,0.9503934076679903,0.0,-0.09785859127571027,0.0
1668678416.2914934,43675,1668678416,291287625,,0.0002124232181555135,-5.88694905305031,1.052686327878082,0.0,-0.08719120984376688,0.0
1668678416.2998953,43676,1668678416,299722693,,0.00011238841068689809,-5.861856402886934,1.1066025702483113,0.0,-0.08154697050623597,0.0
1668678416.3079593,43677,1668678416,307666527,,5.946221400091816e-05,-5.938899171628401,1.1235356311467313,0.0,-0.08616624532950254,0.0
1668678416.3159728,43678,1668678416,315686576,,3.1460137858352826e-05,-6.05639062299873,1.0733945925299204,0.0,-0.10376709460362162,0.0
1668678416.3234327,43679,1668678416,323172295,,3.1460137858352826e-05,-6.05639062299873,1.0733945925299204,0.0,-0.10376709460362162,0.0
1668678416.3318224,43680,1668678416,331463953,,1.664486078589812e-05,-6.118425659342042,1.0473358409785543,0.0,-0.11308270563599063,0.0
1668678416.3399148,43681,1668678416,339634077,,8.80642646352455e-06,-6.434475639077718,0.6464670752261986,0.0,-0.17013088842380805,0.0
1668678416.347356,43682,1668678416,347050999,,4.659284811992553e-06,-6.751770254977501,0.3420313832779303,0.0,-0.2273170349538785,0.0
1668678416.3553813,43683,1668678416,355162193,,2.465124196424167e-06,-6.919657055334495,0.18096121462346912,0.0,-0.2575726623214075,0.0
1668678416.3628714,43684,1668678416,362629458,,2.465124196424167e-06,-6.919657055334495,0.18096121462346912,0.0,-0.2575726623214075,0.0
1668678416.3717902,43685,1668678416,371609108,,1.3042425069518604e-06,-7.168567403631599,0.0957425628144523,0.0,-0.3036686195955236,0.0
1668678416.379319,43686,1668678416,379065807,,6.900457670277068e-07,-7.300211662501285,0.050655265291806396,0.0,-0.32805726146564484,0.0
1668678416.3871977,43687,1668678416,387039961,,3.650879020234474e-07,-7.327674960414063,0.02680057673780961,0.0,-0.33625140670531484,0.0
1668678416.3951266,43688,1668678416,394922831,,1.9315990702763124e-07,-7.337367369233423,0.014179590400751561,0.0,-0.34037437549186444,0.0
1668678416.403668,43689,1668678416,403446586,,1.9315990702763124e-07,-7.337367369233423,0.014179590400751561,0.0,-0.34037437549186444,0.0
1668678416.4115,43690,1668678416,411251761,,1.0219662025537866e-07,-7.342491314505421,0.007502106611363854,0.0,-0.3425557316126403,0.0
1668678416.419065,43691,1668678416,418824619,,5.4069963857085784e-08,-7.323089243724176,0.003969198123331275,0.0,-0.338892098431309,0.0
1668678416.4271314,43692,1668678416,426919590,,2.860721797062261e-08,-7.2737050035913775,0.0021000146436725192,0.0,-0.33079996717061,0.0
1668678416.435295,43693,1668678416,435061828,,1.513544418453438e-08,-7.247608188379626,0.0011110711450044056,0.0,-0.326518832260153,0.0
1668678416.442891,43694,1668678416,442694875,,1.513544418453438e-08,-7.247608188379626,0.0011110711450044056,0.0,-0.326518832260153,0.0
1668678416.4512808,43695,1668678416,451072111,,8.007827636312092e-09,-7.199651169012897,0.0005878430862284541,0.0,-0.3180242997328263,0.0
1668678416.4593806,43696,1668678416,459118956,,4.2367638948058006e-09,-7.174351732664489,0.0003110147316670918,0.0,-0.3135306337858804,0.0
1668678416.467535,43697,1668678416,467227946,,2.241577755611727e-09,-7.064564805438841,0.00016455099256940274,0.0,-0.2935758412309677,0.0
1668678416.4755697,43698,1668678416,475241891,,1.1859690460007618e-09,-7.026255432782941,8.70602784969e-05,0.0,-0.2840828736960332,0.0
1668678416.4832335,43699,1668678416,482969473,,1.1859690460007618e-09,-7.026255432782941,8.70602784969e-05,0.0,-0.2840828736960332,0.0
1668678416.4914317,43700,1668678416,491186472,,6.2746990353146e-10,-7.006013300047964,4.6061661334318497e-05,0.0,-0.27906050034684027,0.0
1668678416.4992452,43701,1668678416,498849335,,3.3198040131439216e-10,-7.011471096265533,2.4370202823931917e-05,0.0,-0.28215241638261324,0.0
1668678416.5072296,43702,1668678416,507009421,,1.756434631152618e-10,-7.097650281481631,1.2893733497126073e-05,0.0,-0.2992726667750064,0.0
1668678416.5152466,43703,1668678416,514940858,,9.292905850157752e-11,-7.14322113055333,6.821788259047745e-06,0.0,-0.30833120559385324,0.0
1668678416.5228055,43704,1668678416,522578719,,9.292905850157752e-11,-7.14322113055333,6.821788259047745e-06,0.0,-0.30833120559385324,0.0
1668678416.5316794,43705,1668678416,531418954,,0.011436961033073942,-7.2380575451889655,3.6092567805635507e-06,0.0,-0.3253497532364736,0.0
1668678416.5392227,43706,1668678416,539017864,,0.017717063217759288,-7.288200574533851,1.909577666936026e-06,0.0,-0.3343519717882027,0.0
1668678416.5473044,43707,1668678416,547091559,,0.009373704976192995,-7.5137461411030095,1.010315166739528e-06,0.0,-0.37670315929336606,0.0
1668678416.5554106,43708,1668678416,555115336,,0.0049594192841525536,-7.573819505501289,5.34535334078201e-07,0.0,-0.3968969607037053,0.0
1668678416.5630097,43709,1668678416,562773260,,0.0049594192841525536,-7.573819505501289,5.34535334078201e-07,0.0,-0.3968969607037053,0.0
1668678416.5712173,43710,1668678416,570931227,,0.002623918685140174,-7.605592075160114,2.8281078299575627e-07,0.0,-0.4075809448130464,0.0
1668678416.5792577,43711,1668678416,579051758,,0.3749979420159264,-7.932497230432381,-0.02088751137454931,0.0,-0.47487078532424,0.0
1668678416.587448,43712,1668678416,587217491,,0.48847805265300065,-8.120930805724615,-0.01226215451592818,0.0,-0.516121951703963,0.0
1668678416.5952504,43713,1668678416,595016849,,0.5487048934394523,-8.220598889516372,-0.007657243534227777,0.0,-0.5379445498096369,0.0
1668678416.60285,43714,1668678416,602675100,,0.5487048934394523,-8.220598889516372,-0.007657243534227777,0.0,-0.5379445498096369,0.0
