Time,header.seq,header.stamp.secs,header.stamp.nsecs,header.frame_id,twist.linear.x,twist.linear.y,twist.linear.z,twist.angular.x,twist.angular.y,twist.angular.z
1668680423.8724117,11263,1668680423,871912096,,-1.5694943985834084e-05,1.5424793019987808e-09,-5.1490384757829935e-11,-4.580005423149992e-07,1.5746460916367188e-07,2.067712890976305e-09
1668680423.8798304,11264,1668680423,879639076,,-1.45089063630143e-05,1.5041710970080407e-09,-5.0211677045695867e-11,-4.5467268730578613e-07,1.5545111874531944e-07,2.044641679883473e-09
1668680423.887679,11265,1668680423,887578681,,-1.3387961510254788e-05,1.4659679479633891e-09,-4.893785642233503e-11,-4.5131304510344296e-07,1.534337107883708e-07,2.0214918481309895e-09
1668680423.8956919,11266,1668680423,895554319,,-1.2329177396458351e-05,1.4279317608069249e-09,-4.767082749594861e-11,-4.479222978696905e-07,1.514126745227255e-07,1.9982669839977525e-09
1668680423.9039176,11267,1668680423,903726595,,-1.1329731042172943e-05,1.3901198893985782e-09,-4.641234228120082e-11,-4.4450112634631424e-07,1.4938829735369614e-07,1.9749706504973614e-09
1668680423.9116895,11268,1668680423,911561986,,-1.0386905471636426e-05,1.3525850428066313e-09,-4.516387740397916e-11,-4.4105020979877135e-07,1.473608648499591e-07,1.9516064013565466e-09
1668680423.9202228,11269,1668680423,919897490,,-9.498086696515233e-06,1.315375751296076e-09,-4.392703110680355e-11,-4.375702258962192e-07,1.453306606977992e-07,1.928177767725222e-09
1668680423.9277637,11270,1668680423,927625816,,-8.660760734984863e-06,1.2785363605633225e-09,-4.270312893793693e-11,-4.340618506699365e-07,1.4329796669507645e-07,1.904688257912211e-09
1668680423.9354727,11271,1668680423,935370412,,-7.872510668882102e-06,1.242107358170984e-09,-4.14933640970956e-11,-4.3052575842996043e-07,1.412630627300779e-07,1.881141356253611e-09
1668680423.943776,11272,1668680423,943640334,,-7.131013741950187e-06,1.2061255947452027e-09,-4.029887531939781e-11,-4.269626216998013e-07,1.3922622675393146e-07,1.8575405368448909e-09
1668680423.9517336,11273,1668680423,951528460,,-6.434038501727423e-06,1.1706242986490027e-09,-3.912063041073635e-11,-4.2337311112480143e-07,1.3718773476484096e-07,1.8338892486026177e-09
1668680423.9607556,11274,1668680423,960502839,,-5.7794419870900515e-06,1.1356335300537098e-09,-3.7959582663833704e-11,-4.1975789541274887e-07,1.3514786078575174e-07,1.8101909198841752e-09
1668680423.9680657,11275,1668680423,967952288,,-5.165166963337262e-06,1.1011799440346132e-09,-3.6816520546879744e-11,-4.161176412685667e-07,1.3310687684664096e-07,1.7864489635716551e-09
1668680423.9759364,11276,1668680423,975684392,,-0.0008200584100042997,8.139193442366015e-09,0.0005350595860076341,-4.1258104114728487e-07,1.3111603745717242e-07,1.7626557284079747e-09
1668680423.983468,11277,1668680423,983294867,,-0.0024767604230400875,-0.00035396740219648695,0.0024404396436198306,-4.1006475217717276e-07,1.2948946203268392e-07,1.7387366060828136e-09
1668680423.992069,11278,1668680423,991881267,,-0.003997665641721829,-0.0006791415940415732,0.004190493219045197,-4.086299747909275e-07,1.282409514537995e-07,1.7146877667739702e-09
1668680423.9995952,11279,1668680423,999500940,,-0.005870923090769796,-0.0011644903320687646,0.006541851402128605,-4.0911553099553247e-07,1.2766251752548054e-07,1.6904351703150855e-09
1668680424.007893,11280,1668680424,7730077,,-0.008289584949387878,-0.001781002374663913,0.00973556209336348,-4.131651695887513e-07,1.2832101640934657e-07,1.6658254897022884e-09
1668680424.016078,11281,1668680424,15904305,,-0.010873714420574698,-0.002435946083928887,0.013208625322604141,-4.207294274392935e-07,1.3019634393111792e-07,1.64083842867091e-09
1668680424.0242803,11282,1668680424,24034975,,-0.013450202150304812,-0.003094105719104793,0.01666191824616859,-4.3131114059151844e-07,1.3311578900851526e-07,1.6154839133086796e-09
1668680424.0320275,11283,1668680424,31864068,,-0.015796552995168488,-0.0036939163478076757,0.019809561934473568,-4.432396332894849e-07,1.3650240007377287e-07,1.589881122587844e-09
1668680424.0397847,11284,1668680424,39657106,,-0.01793240358521137,-0.004059507246447095,0.023152002988182707,-4.5645358646119395e-07,1.403351548138771e-07,1.5640049984277926e-09
1668680424.0476677,11285,1668680424,47451998,,-0.019867103148871863,-0.004293276274511454,0.026440114475916307,-4.7021930874686316e-07,1.4436075014914469e-07,1.5378999254633818e-09
1668680424.0558102,11286,1668680424,55669764,,-0.02026660391040587,-0.004222997880666464,0.028292429319886094,-4.7005405938340804e-07,1.435846872227661e-07,1.5131504486898262e-09
1668680424.0636516,11287,1668680424,63526964,,-0.019611617698083554,-0.004003751000224692,0.029119885196013575,-4.591307423039903e-07,1.3910553290166511e-07,1.4896005227915676e-09
1668680424.0717223,11288,1668680424,71578372,,-0.01896973487719257,-0.003793993630241005,0.029824482388740768,-4.485349168461758e-07,1.3474908342066792e-07,1.4660734050375712e-09
1668680424.07961,11289,1668680424,79477124,,-0.0178211628249616,-0.0035159808735360704,0.029979278395793025,-4.3341422518476604e-07,1.2884183351051688e-07,1.4431767274281082e-09
1668680424.087777,11290,1668680424,87588636,,-0.016416150905160784,-0.003212108879057746,0.029759705085445176,-4.1675686448047625e-07,1.2241516374032367e-07,1.4205825439594921e-09
1668680424.0954742,11291,1668680424,95368994,,-0.01492469666484401,-0.002904224928816955,0.029338458088877643,-4.0045396577689904e-07,1.1612130305569106e-07,1.3980514940170607e-09
1668680424.1037915,11292,1668680424,103637546,,-0.013521680494120412,-0.0026148738783028083,0.028892625913620094,-3.8594911694437043e-07,1.1045781205947262e-07,1.3753736483046453e-09
1668680424.1119628,11293,1668680424,111781450,,-0.012115527653845546,-0.00233172846798653,0.028314053578397762,-3.7245342532509396e-07,1.0515201942306414e-07,1.352636710971744e-09
1668680424.119839,11294,1668680424,119682626,,-0.010758672676186281,-0.002060218014198902,0.027681457805051945,-3.60273623383259e-07,1.0030939137889265e-07,1.3297825635777416e-09
1668680424.1278908,11295,1668680424,127756492,,-0.009467770703435269,-0.0018028150423285612,0.027021017058588736,-3.4938421877573874e-07,9.592082891483281e-08,1.3068006676775212e-09
1668680424.1358016,11296,1668680424,135638092,,-0.008241301625473844,-0.0015604500705135955,0.02631632686733066,-3.3963969378588224e-07,9.19358864758977e-08,1.2837011471172888e-09
1668680424.1434357,11297,1668680424,143294746,,-0.007085489622132067,-0.0013331962900338444,0.025603455327484755,-3.3093908444733545e-07,8.831957345472479e-08,1.260490812421411e-09
1668680424.1519077,11298,1668680424,151757708,,-0.006007033532638128,-0.0011212078209642616,0.02489642081398306,-3.231752387684663e-07,8.503483168312092e-08,1.2371800424404444e-09
1668680424.1602433,11299,1668680424,160059412,,-0.004996653009224048,-0.0009232285028495511,0.024189825473302624,-3.1619046361689183e-07,8.20271762738353e-08,1.2137893606878336e-09
1668680424.1676652,11300,1668680424,167508249,,-0.004053456826509462,-0.000738780931986853,0.02346896902618026,-3.098743540273449e-07,7.925848998971809e-08,1.190334032730167e-09
1668680424.1753573,11301,1668680424,175185119,,-0.003175311620328392,-0.0005672751567646711,0.02274696522388327,-3.041234363580341e-07,7.669306885706975e-08,1.1668297248551562e-09
1668680424.1839423,11302,1668680424,183719230,,-0.0023602876782727804,-0.00040815748076659697,0.022037153609727505,-2.988454762313499e-07,7.429910488521423e-08,1.1432914784163806e-09
1668680424.1919641,11303,1668680424,191802409,,-0.0016042312220609543,-0.00026072808154942384,0.021280856884341923,-2.9395595433026085e-07,7.204745319485187e-08,1.1197339730775746e-09
1668680424.1996577,11304,1668680424,199502300,,-0.0009043378044664371,-0.0001243772495811866,0.020499043071765494,-2.8938370912983514e-07,6.991358797931769e-08,1.0961703825456554e-09
1668680424.2079995,11305,1668680424,207754548,,-0.00025774010500815154,1.494326286702831e-06,0.019715654394898426,-2.85066934982278e-07,6.787621295092611e-08,1.0726128114499876e-09
1668680424.2154143,11306,1668680424,215311797,,0.0003383988699790334,0.00011746577753642607,0.01895419277672975,-2.8095244382246466e-07,6.591700437097325e-08,1.0490722627078987e-09
1668680424.2238908,11307,1668680424,223735159,,0.0008867743141735376,0.00022407699259283854,0.018215521279514046,-2.7699478076079925e-07,6.402030460456352e-08,1.0255586785617304e-09
1668680424.2317395,11308,1668680424,231610243,,0.0013901399275266203,0.000321859401950816,0.017499151326732933,-2.7315541339495805e-07,6.217284008846726e-08,1.0020809785259155e-09
1668680424.2397895,11309,1668680424,239605412,,0.0018510302072519149,0.00041131212239757823,0.016804797396218044,-2.694018878585976e-07,6.036343098080824e-08,9.786471325164137e-10
1668680424.247785,11310,1668680424,247642874,,0.0022718713927425724,0.0004928975792322819,0.016094196009632744,-2.657070668077813e-07,5.8582727248391014e-08,9.55264253116317e-10
1668680424.2557058,11311,1668680424,255526505,,0.0026549930420401826,0.0005670832968421896,0.015387905261150912,-2.6204846187745045e-07,5.682297822722014e-08,9.319386729336743e-10
1668680424.2639391,11312,1668680424,263692621,,0.003002613538662213,0.000634313263606684,0.014707076670551725,-2.5840762523276885e-07,5.507782281505822e-08,9.086760085694201e-10
1668680424.2719147,11313,1668680424,271705271,,0.003316853105017698,0.0006949922769515282,0.014021605540308584,-2.5476963679442124e-07,5.3342112611237886e-08,8.854812594966122e-10
1668680424.2799149,11314,1668680424,279784432,,0.003599731262314464,0.0007495286183869785,0.013364967274171594,-2.5112259830090426e-07,5.1611737800392955e-08,8.623588700767959e-10
1668680424.2879927,11315,1668680424,287822149,,0.00385316615221613,0.0007982972712809428,0.01273509152562379,-2.4745722096671446e-07,4.988348512595831e-08,8.393127980815818e-10
1668680424.2958615,11316,1668680424,295550982,,0.004078985495929053,0.0008416623123377993,0.012153392811613995,-2.4376645089923236e-07,4.8154909016776795e-08,8.163465910204781e-10
1668680424.3039963,11317,1668680424,303847816,,0.004278921813764239,0.00087995512854997,0.01159368834126728,-2.40045137856097e-07,4.6424217673839445e-08,7.934634286416165e-10
1668680424.3116655,11318,1668680424,311531015,,0.004454624111542333,0.000913494670219907,0.011037117411612125,-2.362897472417118e-07,4.469017403870338e-08,7.70666176708179e-10
1668680424.3196456,11319,1668680424,319536704,,0.004607661248962056,0.0009425923819689139,0.010493128282228191,-2.3249810127821442e-07,4.2952006862784393e-08,7.479574347032947e-10
1668680424.3276966,11320,1668680424,327540938,,0.004739520479017819,0.0009675370302333508,0.009944776464995834,-2.286691568382894e-07,4.120933435802971e-08,7.253395878717428e-10
1668680424.3358355,11321,1668680424,335719932,,0.004851616151185495,0.0009886107880413024,0.009406037955286245,-2.2480281005847214e-07,3.946209709045491e-08,7.028148280366353e-10
1668680424.3434536,11322,1668680424,343301650,,0.004945290209214618,0.0010060822051629213,0.008899038030218003,-2.2089972620400274e-07,3.7710499555904066e-08,6.803851822223539e-10
1668680424.35196,11323,1668680424,351768427,,0.005021812277153019,0.0010201983046869388,0.00841454726166104,-2.1696119205017361e-07,3.595495946516502e-08,6.580525699004247e-10
1668680424.3599646,11324,1668680424,359731954,,0.005082386783423557,0.0010311967987693632,0.007959321596311407,-2.1298898830756675e-07,3.419606395599806e-08,6.358188003874332e-10
1668680424.3676152,11325,1668680424,367512684,,0.005128153590400346,0.0010393004212540578,0.007528380635484418,-2.0898527950503968e-07,3.243453176171715e-08,6.136855945290676e-10
1668680424.3756537,11326,1668680424,375437864,,0.0051601914670652265,0.0010447193544951652,0.0071111192387377856,-2.0495251979629395e-07,3.067118089673392e-08,5.916546081188856e-10
1668680424.3838942,11327,1668680424,383760201,,0.005179522075697345,0.001047655479990767,0.006712801841849177,-2.00893372537573e-07,2.8906901006583345e-08,5.697274535823582e-10
1668680424.3916934,11328,1668680424,391579184,,0.0051871110957997756,0.0010482986976538095,0.006333665527878376,-1.9681064211400537e-07,2.7142629971491387e-08,5.479056956400608e-10
1668680424.3997078,11329,1668680424,399499375,,0.005183870999016244,0.001046828251243902,0.005972506397189517,-1.9270721646894772e-07,2.5379334154894797e-08,5.261908773285251e-10
1668680424.4076166,11330,1668680424,407501594,,0.0051706642389034805,0.0010434154422778172,0.005643071306123694,-1.88586019084691e-07,2.3617991905163773e-08,5.045845113266223e-10
1668680424.416173,11331,1668680424,415992953,,0.00514830365559217,0.0010382186512267449,0.005336449034626279,-1.844499692452446e-07,2.1859579891916978e-08,4.830880981701591e-10
1668680424.4238832,11332,1668680424,423690574,,0.005117556674673982,0.0010313894118014128,0.005059241308910819,-1.8030194946254603e-07,2.010506189843394e-08,4.617031253845161e-10
1668680424.432122,11333,1668680424,431957707,,0.005079145648249879,0.0010230677052255179,0.004793957617344227,-1.761447791489624e-07,1.8355379780737088e-08,4.4043107529090353e-10
1668680424.439979,11334,1668680424,439847734,,0.00503375177118318,0.0010133876725459076,0.004540237914539357,-1.7198119378326838e-07,1.6611446274533747e-08,4.192734250063612e-10
1668680424.4480007,11335,1668680424,447773962,,0.0049820161944929,0.0010024755434022404,0.004297616830028608,-1.6781382868608237e-07,1.4874139401220825e-08,3.9823164210694983e-10
1668680424.455523,11336,1668680424,455379069,,0.004924541463528158,0.000990448693842509,0.004051278975380937,-1.636452068581946e-07,1.3144298277334996e-08,3.773071959034535e-10
1668680424.4636447,11337,1668680424,463484262,,0.004861894871556037,0.0009774203734195025,0.003816413997130956,-1.5947773023485706e-07,1.1422720079220291e-08,3.5650155136984774e-10
1668680424.4717636,11338,1668680424,471644964,,0.0047946088457412874,0.0009634961516764865,0.003603776758969315,-1.5531367386158494e-07,9.710158031887286e-09,3.358161752148314e-10
1668680424.4797149,11339,1668680424,479574905,,0.0047231823627106925,0.0009487734901544901,0.0034067427520684044,-1.5115518256989793e-07,8.007320229834816e-09,3.1525252547348614e-10
1668680424.4882967,11340,1668680424,488079267,,0.004648082517643557,0.0009333419332510183,0.0031916203284491807,-1.4700426966385673e-07,6.314869182200058e-09,2.948120610482552e-10
1668680424.4954715,11341,1668680424,495283330,,0.004569748105440573,0.0009172892250034874,0.002972944202168747,-1.4286281735692872e-07,4.633421914565115e-09,2.7449622696379405e-10
1668680424.5040195,11342,1668680424,503750137,,0.004488589538555103,0.0009006971282704476,0.00276568217623196,-1.387325786075355e-07,2.9635506094223465e-09,2.543064751836521e-10
1668680424.5115485,11343,1668680424,511450954,,0.004404989743834068,0.0008836402031023222,0.0025580758083218183,-1.346151800815811e-07,1.3057835916328257e-09,2.3424424292622925e-10
1668680424.5196285,11344,1668680424,519526900,,0.004319306197430878,0.000866187996664117,0.0023330251231116926,-1.3051212606308787e-07,-3.3939335510827645e-10,2.1431095613422269e-10
1668680424.5275712,11345,1668680424,527458482,,0.00423187288804158,0.0008484071827475336,0.0021059109055052362,-1.2642480300791345e-07,-1.9715354289856794e-09,1.9450802947462709e-10
1668680424.5354722,11346,1668680424,535289235,,0.004143000756243514,0.0008303594916254632,0.001892292494658521,-1.2235448467341612e-07,-3.590237064769546e-09,1.748368750123519e-10
1668680424.543987,11347,1668680424,543808471,,0.004052978706914766,0.0008121014203259123,0.0016918201134674801,-1.1830233761593578e-07,-5.195130048753823e-09,1.552988779240927e-10
1668680424.5517163,11348,1668680424,551545093,,0.003962075421243285,0.0007936863680824814,0.0015342899932043713,-1.1426942696434676e-07,-6.785881563817751e-09,1.3589542078445982e-10
1668680424.5607412,11349,1668680424,560547526,,0.0038705394909287825,0.0007751621047642124,0.0014023068996220352,-1.1025672231310991e-07,-8.362192169123536e-09,1.166278627492967e-10
1668680424.5713794,11350,1668680424,571110932,,0.003778601290816018,0.0007565733409550202,0.0012863965486091052,-1.062651036879935e-07,-9.923793760759168e-09,9.749755690291462e-11
1668680424.5761955,11351,1668680424,575935653,,0.003686473870348887,0.0007379616146727311,0.0011815595282741549,-1.022953675087717e-07,-1.1470447519357262e-08,7.850582597196398e-11
1668680424.5838401,11352,1668680424,583704794,,0.00359435384058127,0.0007193652841891991,0.0010826752084355182,-9.83482324427848e-08,-1.3001941915081745e-08,5.965397533586048e-11
1668680424.5925653,11353,1668680424,592438971,,0.0035024223766697933,0.0007008199660344091,0.0009994827151095205,-9.44243451813108e-08,-1.451809072460853e-08,4.094330083304065e-11
1668680424.6005044,11354,1668680424,600303198,,0.0034108458758649158,0.0006823580970880949,0.0009298450939700206,-9.0524285986669e-08,-1.6018731126602424e-08,2.2375063607471546e-11
1668680424.6085272,11355,1668680424,608317673,,0.0033197768827682933,0.0006640093679826494,0.0008686356444766005,-8.664857409140456e-08,-1.7503721858383708e-08,3.9505083232471705e-12
1668680424.6158826,11356,1668680424,615684427,,0.0032293548044219265,0.000645800656973398,0.0007905878823356116,-8.279767282236343e-08,-1.8972941446523733e-08,-1.4329153315284504e-11
1668680424.6242466,11357,1668680424,624141812,,0.0031397070096797148,0.000627757162855775,0.0007171473348737604,-7.897199451893839e-08,-2.0426286511776148e-08,-3.246271220586072e-11
1668680424.63241,11358,1668680424,632258824,,0.0030509490835050365,0.0006099012120137506,0.0006294700671788846,-7.517190520099984e-08,-2.186367017647877e-08,-5.044900001222041e-11
1668680424.6409621,11359,1668680424,640765087,,0.0029631858556306108,0.0005922533742887808,0.0005376431035978156,-7.139772893654663e-08,-2.3285020561144643e-08,-6.8286866612699e-11
1668680424.6475897,11360,1668680424,647444489,,0.0028765118817276796,0.0005748320979415541,0.00045061600847866605,-6.764975197309575e-08,-2.4690279345156553e-08,-8.597518617176059e-11
1668680424.6555688,11361,1668680424,655355383,,0.0027910120612158833,0.0005576538198108675,0.00036884584989711554,-6.392822659880405e-08,-2.607940045420477e-08,-1.0351287101778572e-10
1668680424.6636908,11362,1668680424,663544405,,0.0027067622690717594,0.0005407331961376656,0.0002928089505639695,-6.023337473852973e-08,-2.7452348816110837e-08,-1.2089884215277236e-10
1668680424.6719956,11363,1668680424,671800030,,0.0026238299190602917,0.0005240832142018157,0.00022196452664696001,-5.656539127952759e-08,-2.8809099207656604e-08,-1.3813206481416707e-10
1668680424.679678,11364,1668680424,679485980,,0.002542274499693907,0.0005077152999541685,0.00016365721250968568,-5.292444716035457e-08,-3.014963519155109e-08,-1.5521151508143816e-10
1668680424.6878815,11365,1668680424,687738832,,0.002462148079378395,0.0004916394084637326,0.00011352720781165226,-4.931069220331748e-08,-3.147394813160899e-08,-1.721362015601191e-10
1668680424.6960604,11366,1668680424,695884554,,0.0023834958204813415,0.00047586420813003984,5.072688154615669e-05,-4.572425774068505e-08,-3.278203629322881e-08,-1.889051593102764e-10
1668680424.70463,11367,1668680424,704413516,,0.002306356386857259,0.0004603970247893853,-7.211521624823013e-06,-4.216525897172654e-08,-3.4073904021215224e-08,-2.055174520149139e-10
1668680424.7123945,11368,1668680424,712279877,,0.0022307624325181665,0.0004452440811505046,-7.299692008858226e-05,-3.863379713822776e-08,-3.53495609777205e-08,-2.2197216981156842e-10
1668680424.720589,11369,1668680424,720453087,,0.0021567409586965625,0.0004304104187469194,-0.0001400316731145698,-3.5129961500158174e-08,-3.660902147173319e-08,-2.382684423027359e-10
1668680424.7276552,11370,1668680424,727495448,,0.002084313705336989,0.0004158999760483593,-0.00019755709897450227,-3.165383108859199e-08,-3.785230382946842e-08,-2.544054021266784e-10
1668680424.7355075,11371,1668680424,735390246,,0.0020134975766745184,0.000401715819277235,-0.0002480648752991722,-2.8205476322023252e-08,-3.907942984675088e-08,-2.7038222789182997e-10
1668680424.744211,11372,1668680424,743989083,,0.0019443049689741954,0.0003878601451659937,-0.00029409259459551933,-2.4784960413965152e-08,-4.029042428753068e-08,-2.8619811685490215e-10
1668680424.7517576,11373,1668680424,751620051,,0.0018767440258909095,0.00037433412632882596,-0.00031992421639434783,-2.139234065974557e-08,-4.1485314430205736e-08,-3.018523018344377e-10
1668680424.7598264,11374,1668680424,759681759,,0.0018110137907056372,0.000361321918955623,-0.00033091992051100693,-1.8027797880353118e-08,-4.266408558850545e-08,-3.1734404817504447e-10
1668680424.767729,11375,1668680424,767545081,,0.0017474886662873664,0.00034917565397290016,-0.000333954916303023,-1.4691603774328059e-08,-4.382669225590322e-08,-3.326726641557365e-10
1668680424.775408,11376,1668680424,775234022,,0.0016865091714939793,0.0003382180670360889,-0.00034718587483538823,-1.1383973719275602e-08,-4.4973108666151453e-08,-3.478374732343581e-10
1668680424.7839532,11377,1668680424,783818567,,0.001628383769578403,0.00032874368254699456,-0.0003586865915074594,-8.105075114781289e-09,-4.610332594246684e-08,-3.6283782879273363e-10
1668680424.7919567,11378,1668680424,791821839,,0.0015733909091364942,0.0003210208026545318,-0.0003558271073515781,-4.855035149835252e-09,-4.7217349413215164e-08,-3.776731011262413e-10
1668680424.8000493,11379,1668680424,799893901,,0.001521780934195187,0.00031529330814085053,-0.00034575421284915403,-1.633948067457727e-09,-4.831519611822599e-08,-3.92342684816388e-10
1668680424.8079453,11380,1668680424,807800329,,0.001473777771340841,0.00031178199927644915,-0.00034769483006406014,1.5581181678252031e-09,-4.939689251891701e-08,-4.0684600176657537e-10
1668680424.8153727,11381,1668680424,815213604,,0.001429580416111143,0.00031068553302215793,-0.0003550938438960613,4.721115817438225e-09,-5.046247240336472e-08,-4.211824977326528e-10
1668680424.823682,11382,1668680424,823573086,,0.0013893646157356362,0.0003121820891997831,-0.0003612078088856412,7.855011868854978e-09,-5.151197500544407e-08,-4.3535164362396017e-10
1668680424.8318603,11383,1668680424,831665735,,0.00135328447949694,0.0003164309875916302,-0.0003884039461870759,1.095978311924434e-08,-5.254544330448094e-08,-4.4935293463596593e-10
1668680424.8397815,11384,1668680424,839666528,,0.0013214736010213751,0.00032357305607622587,-0.0004204123649569962,1.4035411841074085e-08,-5.356292252966979e-08,-4.631858919849907e-10
1668680424.847706,11385,1668680424,847573991,,0.001294046617097228,0.00033373239746424576,-0.0004531497851586477,1.708188197458937e-08,-5.4564458843493096e-08,-4.768500629082073e-10
1668680424.8559265,11386,1668680424,855742200,,0.0012711003741479655,0.0003470171695580979,-0.00047249973846727125,2.0099175805146427e-08,-5.5550098198816397e-08,-4.903450271688536e-10
1668680424.8635135,11387,1668680424,863328833,,0.0012527152316352405,0.00036352089185680584,-0.00047295498373582586,2.3087271167727695e-08,-5.651988537210521e-08,-5.036703844794876e-10
1668680424.872124,11388,1668680424,871869133,,0.001238956294925285,0.00038332367760884146,-0.000472441341721814,2.6046139108299113e-08,-5.7473863139729554e-08,-5.168257644766472e-10
1668680424.8799632,11389,1668680424,879774508,,0.0012298742274795434,0.0004064923803313935,-0.00046233027486251426,2.8975741918419237e-08,-5.841207160952618e-08,-5.298108173967114e-10
1668680424.8878307,11390,1668680424,887669314,,0.0012255064776093218,0.0004330820475400538,-0.0004438770740792857,3.187603160919419e-08,-5.933454768756763e-08,-5.42625220147433e-10
1668680424.8955545,11391,1668680424,895385830,,0.0012258782113467722,0.0004631366424773065,-0.0004216516522432912,3.4746948733437686e-08,-6.024132465745115e-08,-5.552686804279061e-10
1668680424.9040372,11392,1668680424,903855088,,0.0012310032119895486,0.000496689776969493,-0.00040035065251352113,3.758842152018294e-08,-6.113243187596987e-08,-5.677409306570347e-10
1668680424.9116466,11393,1668680424,911535931,,0.0012408847697069731,0.0005337655177990497,-0.000389018198358475,4.0400365304410954e-08,-6.200789457458188e-08,-5.800417192999147e-10
1668680424.9196544,11394,1668680424,919536344,,0.0012555164900803439,0.0005743790577350831,-0.0003980649645912423,4.3182682257356914e-08,-6.286773375372085e-08,-5.921708310339946e-10
1668680424.9278076,11395,1668680424,927648627,,0.00127488296365503,0.0006185370804174657,-0.00041633926907423446,4.593526129227948e-08,-6.371196614390022e-08,-6.041280730881282e-10
1668680424.9354372,11396,1668680424,935317349,,0.001298960544128706,0.0006662385259768702,-0.00042222816717130536,4.8657978241265355e-08,-6.454060425286929e-08,-6.159132832656705e-10
1668680424.9437368,11397,1668680424,943610771,,0.0013277182682218884,0.0007174758482675793,-0.00042681899957785943,5.1350696159143015e-08,-6.535365646870723e-08,-6.275263162835304e-10
1668680424.9516454,11398,1668680424,951524029,,0.0013611183084113485,0.0007722350111237498,-0.0004363236079256896,5.4013265816732015e-08,-6.615112721638193e-08,-6.38967057433118e-10
1668680424.9603071,11399,1668680424,960124041,,0.0013991165565306978,0.0008304959373682609,-0.0004474646460138179,5.664552632798788e-08,-6.693301716299621e-08,-6.50235401763663e-10
1668680424.967773,11400,1668680424,967598085,,0.0014416632191578144,0.0008922330649347652,-0.00045140706038255965,5.9247305870146116e-08,-6.76993234560006e-08,-6.61331286174599e-10
1668680424.975905,11401,1668680424,975798085,,0.0014887034673296232,0.0009574161288274771,-0.0004512832164169416,6.181842251015534e-08,-6.845003999944127e-08,-6.722546646957539e-10
1668680424.983462,11402,1668680424,983307270,,0.0015401778651311943,0.0010260103742674072,-0.00044880308370369687,6.435868509469884e-08,-6.918515775100435e-08,-6.83005513040999e-10
1668680424.9919472,11403,1668680424,991772827,,0.0015960228559849625,0.0010979769987451429,-0.0004456338425949383,6.686789420800752e-08,-6.990466503969391e-08,-6.935838309934939e-10
1668680424.9998288,11404,1668680424,999617309,,0.0016561711677847884,0.0011732734209760258,-0.00043685915158656535,6.934584316387618e-08,-7.060854789572082e-08,-7.039896393699202e-10
1668680425.0078912,11405,1668680425,7708640,,0.001720552329212955,0.0012518539263893817,-0.0004252802065813557,7.179231902438659e-08,-7.129679039828766e-08,-7.14222988043578e-10
1668680425.015525,11406,1668680425,15384604,,0.0017890930040989855,0.0013336698440685206,-0.0004127446948363096,7.420710364119727e-08,-7.196937501055984e-08,-7.242839505233745e-10
1668680425.0242639,11407,1668680425,24074002,,0.0018617173610551365,0.0014186698765407462,-0.0004003858082406471,7.65899746951037e-08,-7.262628294486546e-08,-7.34172613328643e-10
1668680425.031997,11408,1668680425,31793181,,0.0019383474355759136,0.0015068004568022514,-0.0003912189636906699,7.894070673407037e-08,-7.326749449303822e-08,-7.438890831448774e-10
1668680425.0398896,11409,1668680425,39674709,,0.0020189034051327124,0.0015980059016922428,-0.00038359951218693857,8.12590721959824e-08,-7.389298937908126e-08,-7.534334926784236e-10
1668680425.0477333,11410,1668680425,47634009,,0.002103303769410109,0.0016922283365813483,-0.00035458883565751836,8.354484241786502e-08,-7.450274708602022e-08,-7.628060049932883e-10
1668680425.0556028,11411,1668680425,55359241,,0.002191466040749427,0.001789409128130369,-0.000315952354777849,8.579778859717444e-08,-7.509674718477567e-08,-7.720067835871591e-10
1668680425.063811,11412,1668680425,63627071,,0.0022833067385821027,0.0018894883561770088,-0.0002797458866651295,8.801768274485221e-08,-7.567496965251195e-08,-7.810360314226827e-10
1668680425.0717528,11413,1668680425,71610227,,0.002378741576254683,0.001992404875863243,-0.0002510984051493033,9.020429858830136e-08,-7.623739516611716e-08,-7.898939618708467e-10
1668680425.0798826,11414,1668680425,79702551,,0.002477685887145765,0.002098097103012839,-0.00025609924055113053,9.235741243800947e-08,-7.678400539341986e-08,-7.985808125887672e-10
1668680425.0878518,11415,1668680425,87707170,,0.002580054384351873,0.002206501917084664,-0.0002770874433389492,9.447680400207251e-08,-7.7314783266347e-08,-8.070968342439866e-10
1668680425.0956314,11416,1668680425,95486800,,0.002685761542387763,0.0023175553838022103,-0.0002825381842151763,9.656225717160786e-08,-7.782971323322461e-08,-8.154423022238566e-10
1668680425.103692,11417,1668680425,103584662,,0.00279472223334243,0.0024311942394693495,-0.0002870014612585131,9.861356074587546e-08,-7.83287815064976e-08,-8.236175075282404e-10
1668680425.1117852,11418,1668680425,111665165,,0.0029068513720517343,0.0025473545541046853,-0.00028379377851405846,1.006305091073563e-07,-7.881197628253824e-08,-8.316227615400018e-10
1668680425.119833,11419,1668680425,119707495,,0.0030220643202367153,0.002665972603410072,-0.0002766993556145713,1.0261290285337138e-07,-7.927928794175597e-08,-8.394583903871544e-10
1668680425.1278012,11420,1668680425,127607824,,0.003140276913775094,0.002786984682098483,-0.0002669163906643588,1.0456054937957215e-07,-7.973070925244776e-08,-8.471247392796699e-10
1668680425.135929,11421,1668680425,135748309,,0.003261405611421434,0.0029103272900474694,-0.00025594785909763046,1.0647326340554482e-07,-8.016623553275758e-08,-8.546221751115635e-10
1668680425.143515,11422,1668680425,143348733,,0.0033853675975115695,0.003035937208312848,-0.00024443925116476834,1.0835086746815284e-07,-8.058586481080629e-08,-8.61951075618872e-10
1668680425.1516714,11423,1668680425,151537440,,0.003512080895711714,0.0031637516277970845,-0.000233358484452271,1.1019319235677631e-07,-8.098959796691183e-08,-8.691118471605697e-10
1668680425.1602407,11424,1668680425,159930713,,0.003641464479216954,0.0032937082873472,-0.00022577009538908026,1.1200007749533397e-07,-8.13774388527973e-08,-8.761048956619499e-10
1668680425.167741,11425,1668680425,167590976,,0.0037734382886669923,0.003425745364760994,-0.00021995272196028763,1.1377137128483695e-07,-8.174939440826461e-08,-8.82930657405967e-10
1668680425.1754544,11426,1668680425,175353380,,0.003907923440965029,0.0035598019344040984,-0.00022289651786928832,1.155069314155237e-07,-8.210547474612822e-08,-8.895895825533628e-10
1668680425.1839979,11427,1668680425,183820930,,0.004044842042334238,0.003695817302137244,-0.00022516879273351288,1.1720662510919283e-07,-8.244569323161935e-08,-8.960821347089865e-10
1668680425.1925423,11428,1668680425,192276833,,0.004184117643515591,0.0038337322034980807,-0.0002390259029062096,1.1887032934518465e-07,-8.277006656593735e-08,-9.024087935238789e-10
1668680425.1998882,11429,1668680425,199685580,,0.0043256748613997205,0.003973487616944856,-0.0002577804688913758,1.2049793103604905e-07,-8.307861480915345e-08,-9.085700551289544e-10
1668680425.2076423,11430,1668680425,207530309,,0.004469439883536161,0.0041150261317282,-0.00029693969901980365,1.2208932717812425e-07,-8.337136144680787e-08,-9.145664225940209e-10
1668680425.2155704,11431,1668680425,215400156,,0.004615339931875793,0.004258290331914745,-0.00034427988000433217,1.236444249393538e-07,-8.364833339893582e-08,-9.20398430213909e-10
1668680425.2237628,11432,1668680425,223581029,,0.0047633035917370725,0.004403223682820263,-0.0003872013077759634,1.251631417668563e-07,-8.390956105499235e-08,-9.260666070792789e-10
1668680425.231739,11433,1668680425,231616393,,0.004913260950922447,0.004549770881867096,-0.0004208956346863899,1.2664540539966153e-07,-8.415507825844317e-08,-9.315715135058134e-10
1668680425.2398696,11434,1668680425,239677567,,0.005065143430617423,0.004697877331766763,-0.00043352110700719014,1.2809115389002842e-07,-8.438492232722887e-08,-9.36913729758515e-10
1668680425.2479024,11435,1668680425,247717223,,0.005218884230848952,0.004847490393293501,-0.0004349951056384286,1.295003356131081e-07,-8.45991340246542e-08,-9.420938178877902e-10
1668680425.255876,11436,1668680425,255708646,,0.00537441778601087,0.004998557794960132,-0.000418785156680629,1.3087290919325202e-07,-8.479775754041447e-08,-9.471123911183876e-10
1668680425.2637875,11437,1668680425,263633595,,0.005531680212399825,0.00515102890856366,-0.00039093322862879964,1.3220884346859237e-07,-8.498084046885729e-08,-9.5197004966463e-10
1668680425.2716737,11438,1668680425,271492199,,0.005690609223787304,0.005304854499659384,-0.0003645117303418137,1.3350811741672685e-07,-8.514843376541124e-08,-9.566674180269685e-10
1668680425.2796776,11439,1668680425,279585719,,0.005851143716184027,0.005459985530991586,-0.00033307614566448137,1.3477072002840234e-07,-8.530059171372095e-08,-9.612051354510043e-10
1668680425.2879457,11440,1668680425,287802613,,0.006013224240023934,0.00561637453004476,-0.0003002433531921107,1.3599665020211686e-07,-8.543737186424063e-08,-9.655838533254024e-10
1668680425.2955751,11441,1668680425,295424399,,0.00617679280245036,0.00577397503152562,-0.0002677147119297461,1.3718591661884003e-07,-8.555883499372554e-08,-9.698042360492543e-10
1668680425.3037593,11442,1668680425,303637263,,0.006341792893782695,0.0059327416713129116,-0.00023722908938474897,1.3833853757642153e-07,-8.566504503969199e-08,-9.73866954960545e-10
1668680425.3119266,11443,1668680425,311810274,,0.0065081694368868456,0.006092630062907961,-0.00020784649341341096,1.3945454084388108e-07,-8.575606902895484e-08,-9.777726978771328e-10
1668680425.3199768,11444,1668680425,319834109,,0.006675868706269856,0.0062535965908320145,-0.0001713431707273685,1.4053396346016698e-07,-8.583197702905529e-08,-9.815221638925786e-10
1668680425.3299177,11445,1668680425,329709145,,0.006844838645569153,0.006415599357584375,-0.00013260006518103857,1.415768515935012e-07,-8.589284206998141e-08,-9.851160633761458e-10
1668680425.335912,11446,1668680425,335711667,,0.007015028660127654,0.006578597619943117,-9.829730981824838e-05,1.4258326029681047e-07,-8.593874005973596e-08,-9.88555118840162e-10
1668680425.344495,11447,1668680425,344023412,,0.007186389508032627,0.006742551512322741,-7.115980014821739e-05,1.435532533535121e-07,-8.59697497302889e-08,-9.918400736136368e-10
1668680425.3515913,11448,1668680425,351491395,,0.0073588732243814545,0.006907421868764702,-4.602707016981392e-05,1.444869030346052e-07,-8.598595253989073e-08,-9.949716692908561e-10
1668680425.3597817,11449,1668680425,359673391,,0.007532433357340954,0.007073170947903979,-2.5272044618294327e-05,1.4538428992338915e-07,-8.598743261327879e-08,-9.979506648133407e-10
1668680425.3677423,11450,1668680425,367605511,,0.007707025196518978,0.007239763138796561,-3.399745478341709e-05,1.4624550266642908e-07,-8.597427663293179e-08,-1.00077782345942e-09
1668680425.3755598,11451,1668680425,375376639,,0.007882604694944301,0.007407161894864915,-5.672290461885443e-05,1.470706377722331e-07,-8.594657378567278e-08,-1.0034539327935521e-09
1668680425.3838162,11452,1668680425,383667032,,0.00805912911880292,0.007575331659759522,-7.754194637783308e-05,1.4785979937972091e-07,-8.590441566847917e-08,-1.0059797734413012e-09
1668680425.39182,11453,1668680425,391681134,,0.008236557590650635,0.007744239488854985,-0.00011171927659458599,1.486130990451239e-07,-8.584789620377938e-08,-1.0083561485796366e-09
1668680425.3997889,11454,1668680425,399671271,,0.008414849782559452,0.007913851324713722,-0.00013541970571358283,1.4933065550582555e-07,-8.577711155624036e-08,-1.0105838648549748e-09
1668680425.4079525,11455,1668680425,407768092,,0.00859396714562911,0.008084135604787396,-0.0001529743596788467,1.500125944635752e-07,-8.569216005543685e-08,-1.0126637566693075e-09
1668680425.4154544,11456,1668680425,415284510,,0.008773872021234532,0.008255060746608579,-0.00015167671062687378,1.5065904835220455e-07,-8.559314210456154e-08,-1.0145966393426686e-09
1668680425.4240541,11457,1668680425,423897681,,0.008954528590192917,0.00842659794873485,-0.00015018344987736076,1.5127015612352481e-07,-8.548016010146808e-08,-1.0163833594201144e-09
1668680425.4318626,11458,1668680425,431750399,,0.009135901785111382,0.008598718100806027,-0.00014673162340276885,1.518460630091004e-07,-8.535331835974116e-08,-1.018024770385595e-09
1668680425.439789,11459,1668680425,439662089,,0.009317957744756699,0.008771393154286372,-0.00014230106499505223,1.5238692031309853e-07,-8.521272303342576e-08,-1.0195217326619543e-09
1668680425.447719,11460,1668680425,447597272,,0.009500663883799618,0.008944596381440956,-0.00014511287887505384,1.5289288522052098e-07,-8.505848201787684e-08,-1.0208751118762072e-09
1668680425.4557781,11461,1668680425,455536974,,0.00968398844644982,0.009118301139978358,-0.000151208218371771,1.5336412051760188e-07,-8.48907048742176e-08,-1.0220857823289853e-09
1668680425.4638565,11462,1668680425,463664873,,0.009867900744504075,0.009292481618992484,-0.00015652477319996337,1.5380079442608747e-07,-8.470950277689117e-08,-1.0231546374028788e-09
1668680425.4722664,11463,1668680425,472030140,,0.010052371436352564,0.009467113704487422,-0.00017043563692141093,1.5420308039046132e-07,-8.451498841011932e-08,-1.024082563541584e-09
1668680425.4800265,11464,1668680425,479914430,,0.010237372116342163,0.00964217384680665,-0.00019878015180597002,1.5457115686109046e-07,-8.43072759022811e-08,-1.0248704749443727e-09
1668680425.4879086,11465,1668680425,487654077,,0.01042287502792661,0.00981763828519896,-0.00023287086320038057,1.549052071173377e-07,-8.408648074974766e-08,-1.0255192719327288e-09
1668680425.4959075,11466,1668680425,495785512,,0.010608853300868902,0.00999348379087949,-0.00026105734464932425,1.5520541903603032e-07,-8.385271975397141e-08,-1.0260298704406479e-09
1668680425.5036528,11467,1668680425,503490708,,0.010795281138005281,0.010169688264327216,-0.00027734613150012783,1.5547198493129626e-07,-8.360611093222907e-08,-1.026403193341019e-09
1668680425.5118992,11468,1668680425,511738929,,0.010982134065355418,0.010346231516783714,-0.00029180200584629634,1.557051013499752e-07,-8.334677346755865e-08,-1.0266401912623069e-09
1668680425.5196514,11469,1668680425,519507885,,0.011169388110144379,0.010523092940065327,-0.00029969570730621305,1.5590496889546278e-07,-8.307482762804057e-08,-1.0267418044246357e-09
1668680425.5277503,11470,1668680425,527619997,,0.011357020665185461,0.010700254069348747,-0.00031531859416467306,1.5607179204521233e-07,-8.279039470686844e-08,-1.0267089765175763e-09
1668680425.5361319,11471,1668680425,535854169,,0.011545009849820823,0.010877696781896276,-0.0003489858953615584,1.5620577895685234e-07,-8.249359696095603e-08,-1.0265426651084875e-09
1668680425.5436077,11472,1668680425,543356298,,0.011733334013134278,0.011055401905701031,-0.000389839198424626,1.5630714134130775e-07,-8.218455753423006e-08,-1.0262438329688983e-09
1668680425.551998,11473,1668680425,551845562,,0.011921972277933433,0.011233350850326668,-0.00042669698755903635,1.5637609427118077e-07,-8.186340041239177e-08,-1.0258134602175728e-09
1668680425.5598714,11474,1668680425,559717613,,0.012110904664130862,0.011411526016490089,-0.0004531794360575807,1.5641285602027537e-07,-8.153025036534587e-08,-1.0252525148302105e-09
1668680425.5677788,11475,1668680425,567595534,,0.012300112236247687,0.011589911275636813,-0.0004731680295584081,1.564176479134082e-07,-8.118523287333921e-08,-1.0245619855991928e-09
1668680425.5757787,11476,1668680425,575640168,,0.012489576499311416,0.011768490262537765,-0.000481396636471213,1.5639069418565206e-07,-8.08284740915887e-08,-1.0237428578474539e-09
1668680425.5835774,11477,1668680425,583406697,,0.012679279966210804,0.01194724807386445,-0.00048272129439417075,1.5633222182237538e-07,-8.046010078598814e-08,-1.022796134245163e-09
1668680425.5918665,11478,1668680425,591694406,,0.012869205848554428,0.012126170416624702,-0.0004829902545062532,1.5624246041896002e-07,-8.008024027391075e-08,-1.0217228105235954e-09
1668680425.5998588,11479,1668680425,599748447,,0.01305933773293842,0.012305242711705792,-0.00047949532540522894,1.5612164206340933e-07,-7.96890203814374e-08,-1.0205239014959844e-09
1668680425.6078165,11480,1668680425,607694964,,0.013249660695183884,0.01248445338485908,-0.0004966373677652212,1.5597000115959603e-07,-7.928656938264132e-08,-1.01920042024084e-09
1668680425.616065,11481,1668680425,615811683,,0.013440158395321193,0.012663785446873061,-0.0004965797208700028,1.5578777434516102e-07,-7.887301598733659e-08,-1.0177533850408427e-09
1668680425.6240256,11482,1668680425,623766081,,0.013630816620874397,0.012843226860634938,-0.00048770625967727076,1.5557520035655733e-07,-7.844848924577676e-08,-1.0161838228522901e-09
1668680425.6319954,11483,1668680425,631838554,,0.013821621722159495,0.013022766025664068,-0.00047857295724537295,1.5533251989425666e-07,-7.801311855082328e-08,-1.0144927554273098e-09
1668680425.6397183,11484,1668680425,639558204,,0.014012560274793381,0.013202390834676437,-0.000468414888331685,1.5505997551684995e-07,-7.756703356394867e-08,-1.0126812235999871e-09
1668680425.6478155,11485,1668680425,647622408,,0.014203619423797081,0.01338208971716378,-0.0004577000154058701,1.5475781156711835e-07,-7.711036417273583e-08,-1.010750257796067e-09
1668680425.6554005,11486,1668680425,655300589,,0.01439478642998951,0.013561850354194228,-0.00043520902777034515,1.5442627395067978e-07,-7.664324046377296e-08,-1.0087009075232523e-09
1668680425.6638625,11487,1668680425,663696891,,0.014586049872194985,0.013741663227525298,-0.00041363754609774,1.5406561017027682e-07,-7.616579269901797e-08,-1.006534215350352e-09
1668680425.6719024,11488,1668680425,671647050,,0.014777398275264251,0.013921517650637054,-0.00039089360368552606,1.5367606916116773e-07,-7.567815123047175e-08,-1.0042512377239632e-09
1668680425.6797066,11489,1668680425,679570544,,0.01496882073345761,0.014101403625565554,-0.00036810531660433495,1.53257901165237e-07,-7.518044651546544e-08,-1.0018530276212356e-09
1668680425.6877682,11490,1668680425,687628969,,0.015160306617282588,0.014281311021253525,-0.00034171309330263764,1.5281135771142557e-07,-7.46728090570835e-08,-9.993406414887662e-10
1668680425.69593,11491,1668680425,695815478,,0.015351845669877734,0.014461229889280598,-0.0003064636720935234,1.5233669145433366e-07,-7.415536935759725e-08,-9.967151479162162e-10
1668680425.7033908,11492,1668680425,703271605,,0.015543428426546026,0.014641151725421757,-0.0002679663982029933,1.5183415611182507e-07,-7.362825792930688e-08,-9.939776050849058e-10
1668680425.7116663,11493,1668680425,711572063,,0.01573504580388975,0.014821068300596818,-0.00023198294647394237,1.5130400645487624e-07,-7.309160519289749e-08,-9.911290850539434e-10
1668680425.719901,11494,1668680425,719772294,,0.01592668970041467,0.01500097345250531,-0.0002223264941692312,1.5074649806676144e-07,-7.254554153479338e-08,-9.88170649474096e-10
1668680425.7279797,11495,1668680425,727802765,,0.01611835104872009,0.01518085740889273,-0.00022572210046931815,1.5016188742898934e-07,-7.19901972031289e-08,-9.85103373873919e-10
1668680425.7361622,11496,1668680425,735957736,,0.016310021377172013,0.015360711391023352,-0.0002350915362585625,1.4955043173696153e-07,-7.142570231501253e-08,-9.819283441903082e-10
1668680425.7436402,11497,1668680425,743518426,,0.016501691746275998,0.015540524522529905,-0.00022047626701992927,1.4891238889639465e-07,-7.08521868284461e-08,-9.786466290129248e-10
1668680425.7517848,11498,1668680425,751625650,,0.01669335554386565,0.01572029205920528,-0.00020658173322390128,1.4824801742376352e-07,-7.026978050036613e-08,-9.752593142786647e-10
1668680425.7604523,11499,1668680425,760153619,,0.016885005097085088,0.01590000547545365,-0.0001813363858982995,1.4755757638012417e-07,-6.9678612891577e-08,-9.717674755160832e-10
1668680425.7683187,11500,1668680425,767978833,,0.017045684054790816,0.016079646612212426,-0.00014409463345667169,1.470532661404511e-07,-6.915175207222778e-08,-9.681865170696469e-10
1668680425.7758462,11501,1668680425,775495534,,0.017205001653381752,0.016259221661079678,-0.00010978445206071635,1.465355484716398e-07,-6.862059872788425e-08,-9.645054685480936e-10
1668680425.7836823,11502,1668680425,783494153,,0.017366960496883282,0.016438725403390708,-7.79692996284754e-05,1.459768940782237e-07,-6.807572079490934e-08,-9.607235250397306e-10
1668680425.7918696,11503,1668680425,791660925,,0.01752929291743382,0.016618150486733735,-4.868276682930116e-05,1.4539306574263959e-07,-6.752257993437438e-08,-9.568428237238802e-10
1668680425.799768,11504,1668680425,799665626,,0.017711503060265213,0.016797499896611834,-4.045351223330967e-05,1.4464557112283554e-07,-6.691355745414105e-08,-9.528533344294043e-10
1668680425.8077855,11505,1668680425,807645445,,0.017903846643039026,0.01697676224330873,-4.280318440283224e-05,1.4380121391319666e-07,-6.62716594152955e-08,-9.4876033071567e-10
1668680425.8157876,11506,1668680425,815636225,,0.018101182564525017,0.01715592920583014,-5.3513176248692453e-05,1.428956456335181e-07,-6.560918067253368e-08,-9.445672785601822e-10
1668680425.8236806,11507,1668680425,823518043,,0.018294404795904922,0.017334988396882033,-4.49381496622474e-05,1.419951402126089e-07,-6.494895711040612e-08,-9.40280891342793e-10
1668680425.831685,11508,1668680425,831541164,,0.01848765071029464,0.0175139382925722,-3.6952810268772225e-05,1.4106991806750826e-07,-6.428078300381316e-08,-9.358997153652293e-10
1668680425.8397503,11509,1668680425,839627275,,0.018678873015176147,0.017692771599833793,-1.983258014423246e-05,1.4013561798386569e-07,-6.361007532404254e-08,-9.314263353654706e-10
1668680425.8477576,11510,1668680425,847606493,,0.018875583366715788,0.017871485952166876,8.26590258546653e-06,1.391355935520045e-07,-6.291738204554625e-08,-9.268562306541384e-10
1668680425.8555586,11511,1668680425,855367771,,0.0190702760408787,0.018050073951557607,4.0373315919502365e-05,1.38126828042864e-07,-6.222233734216832e-08,-9.221959931804413e-10
1668680425.8639038,11512,1668680425,863692228,,0.019264812575483542,0.018228532163724585,6.98638287355083e-05,1.3709543404832078e-07,-6.152020035662519e-08,-9.174453349802825e-10
1668680425.8715663,11513,1668680425,871432638,,0.019458209072683207,0.018406854886740886,0.00010016412177909371,1.3604941803525643e-07,-6.081376009709058e-08,-9.126062058828488e-10
1668680425.8798242,11514,1668680425,879701994,,0.019621774190629878,0.01858502594834229,0.000127024761982587,1.3521781718343656e-07,-6.018184774174906e-08,-9.077063857498846e-10
1668680425.888032,11515,1668680425,887835184,,0.01977197449136746,0.01876304812896068,0.0001510823210412738,1.3447330950323985e-07,-5.958073542866593e-08,-9.027343629564033e-10
1668680425.8960009,11516,1668680425,895833485,,0.019931325898403966,0.018940927005076567,0.00016869033211474476,1.3363568890042456e-07,-5.89484818672029e-08,-8.976701430796208e-10
1668680425.9036229,11517,1668680425,903458445,,0.020116229688130097,0.019118667121358762,0.00015899453171723857,1.3256995050887183e-07,-5.8238665129751576e-08,-8.924967709322829e-10
1668680425.9121504,11518,1668680425,911900455,,0.020301877199790357,0.019296249456566477,0.000149750233870431,1.3147649471188121e-07,-5.7520221198776884e-08,-8.872392993908296e-10
1668680425.9203947,11519,1668680425,920218152,,0.020500264667287757,0.019473676473405876,0.0001274020586637213,1.3025536128364636e-07,-5.675879508981827e-08,-8.818851655878479e-10
1668680425.9278364,11520,1668680425,927724285,,0.02070468034887522,0.019650941598956626,8.408798709152414e-05,1.2896073198169077e-07,-5.5973037597000994e-08,-8.764417212814291e-10
1668680425.9357657,11521,1668680425,935605957,,0.0209116039513812,0.019828038849921157,2.056687818444898e-05,1.2762153367488994e-07,-5.517292038813076e-08,-8.709135010387392e-10
1668680425.9433887,11522,1668680425,943221542,,0.021119202125294875,0.02000496167655806,-5.038087068486556e-05,1.2625324228771376e-07,-5.436379248819571e-08,-8.653035094008388e-10
1668680425.951769,11523,1668680425,951667991,,0.02132558833463377,0.020181703561048085,-0.00011562540554217098,1.248723919878333e-07,-5.355136894054325e-08,-8.596151707118693e-10
1668680425.9599905,11524,1668680425,959878982,,0.0215317585552936,0.02035826287987285,-0.00018910663274799604,1.234707010335553e-07,-5.273283163522444e-08,-8.538482837439076e-10
1668680425.9676614,11525,1668680425,967559349,,0.021737239656054147,0.020534634586818833,-0.0002636237575625933,1.2205266296298973e-07,-5.1909754503166265e-08,-8.480045242398315e-10
1668680425.9755602,11526,1668680425,975383303,,0.021941806350787536,0.02071081378657983,-0.0003318294159918704,1.2062068702818791e-07,-5.10829949516671e-08,-8.420853701840425e-10
1668680425.9840746,11527,1668680425,983947054,,0.022145223844493186,0.020886796677221237,-0.0003939935037968632,1.1917734218797591e-07,-5.025346527131507e-08,-8.360922752748134e-10
1668680425.9916818,11528,1668680425,991538632,,0.022347681460919623,0.021062577656791256,-0.0004356931341062419,1.177213548069682e-07,-4.9420756238890626e-08,-8.300261450377988e-10
1668680425.9996965,11529,1668680425,999599858,,0.02254915034047503,0.021238154346541426,-0.00046541349131868997,1.162534291286859e-07,-4.858513811439088e-08,-8.238881556155153e-10
1668680426.0078568,11530,1668680426,7648587,,0.02274963653849287,0.021413524413314615,-0.000491746387660071,1.1477394691727515e-07,-4.774676998502321e-08,-8.176794345782223e-10
1668680426.0157077,11531,1668680426,15594082,,0.022949164863519285,0.02158868921148548,-0.0005487880504399883,1.1328311831510494e-07,-4.690575151878283e-08,-8.114011199045201e-10
1668680426.0234585,11532,1668680426,23270972,,0.023147765876995036,0.021763642302595674,-0.0006181055401962668,1.1178106263922067e-07,-4.606215073168357e-08,-8.050542558979412e-10
1668680426.0317216,11533,1668680426,31577994,,0.023345467891602,0.0219383772563646,-0.0006807291867701563,1.102679081226856e-07,-4.521603824149921e-08,-7.986399562509572e-10
1668680426.0396764,11534,1668680426,39561032,,0.023542317124619128,0.022112893854050845,-0.0007579646422597799,1.0874361585497456e-07,-4.436742680029044e-08,-7.921592652671006e-10
1668680426.0482757,11535,1668680426,48056742,,0.02373834730423544,0.02228718682297313,-0.0008387081964932685,1.072082368979712e-07,-4.351635960278023e-08,-7.856132480665856e-10
1668680426.05598,11536,1668680426,55778247,,0.023933592256559787,0.022461251786524868,-0.0009172991091988598,1.0566181105192414e-07,-4.2662875507750234e-08,-7.79002942014051e-10
1668680426.0633981,11537,1668680426,63241236,,0.02412808432542299,0.022635082499520613,-0.0009763413323619664,1.0410437371055907e-07,-4.1807011433043356e-08,-7.7232940182137e-10
1668680426.0718498,11538,1668680426,71701789,,0.02432185589615567,0.02280867774950491,-0.0010287950484091123,1.0253596426402513e-07,-4.094880516288847e-08,-7.655936440364997e-10
1668680426.079938,11539,1668680426,79786597,,0.024514938153609202,0.02298203320661138,-0.001068985159694581,1.0095661168196043e-07,-4.008829044990867e-08,-7.587967233713133e-10
1668680426.087765,11540,1668680426,87619775,,0.02470735912038302,0.02315514162822144,-0.0010734802244910695,9.93663557831263e-08,-3.922550434541216e-08,-7.519396598432149e-10
1668680426.095425,11541,1668680426,95273720,,0.024899147611958803,0.023328002103528478,-0.0010551625010791434,9.776523909635587e-08,-3.836048429275464e-08,-7.450234457140326e-10
1668680426.1037345,11542,1668680426,103617770,,0.02509033154468953,0.02350061517682013,-0.0010362116744285106,9.615330802880892e-08,-3.749326865740577e-08,-7.380491148789581e-10
1668680426.1120245,11543,1668680426,111819893,,0.025280935798746806,0.0236729756115616,-0.0010059540727773357,9.453061075451533e-08,-3.662389590512391e-08,-7.310176491914788e-10
1668680426.1197505,11544,1668680426,119600461,,0.025470984275216574,0.023845079359769816,-0.0009599383501041212,9.289720049435765e-08,-3.5752405791325895e-08,-7.239300374439761e-10
1668680426.1277516,11545,1668680426,127641167,,0.025660500437672467,0.02401692467827761,-0.0009070944789089625,9.125313426297738e-08,-3.4878838873412914e-08,-7.167872996538538e-10
1668680426.1354523,11546,1668680426,135355641,,0.025849505647580002,0.02418850697925357,-0.0008400982025215754,8.959847292480108e-08,-3.400323657918366e-08,-7.095903968579176e-10
1668680426.1439493,11547,1668680426,143731163,,0.026038021556897203,0.024359825945610543,-0.0007767379954821538,8.793328128920623e-08,-3.3125641232638336e-08,-7.023403109096549e-10
1668680426.1517766,11548,1668680426,151659115,,0.02622606659982756,0.02453087473153326,-0.0006969759607769593,8.625762791447038e-08,-3.2246095941546905e-08,-6.950379889680836e-10
1668680426.159667,11549,1668680426,159514655,,0.026413659951971133,0.024701651878183455,-0.0006116323336985338,8.457158529002551e-08,-3.1364644708254535e-08,-6.876844059477971e-10
1668680426.1676185,11550,1668680426,167525521,,0.026600820068927708,0.02487215673803795,-0.0005378768946252401,8.28752297330794e-08,-3.048133235476324e-08,-6.802804985994726e-10
1668680426.1758413,11551,1668680426,175488848,,0.02678756367591105,0.025042386286102104,-0.00048002178463045237,8.116864123606832e-08,-2.9596204543223294e-08,-6.728272348988096e-10
1668680426.184476,11552,1668680426,184336981,,0.026973905701244312,0.025212334790253303,-0.00042579065023808977,7.945190347202389e-08,-2.8709307689197064e-08,-6.653255377186973e-10
1668680426.1921322,11553,1668680426,191902966,,0.027159861222369346,0.025381999596252442,-0.00038093222930711204,7.772510377402741e-08,-2.7820689006653396e-08,-6.57776326462578e-10
1668680426.1997945,11554,1668680426,199669675,,0.0273454433502559,0.025551374591896613,-0.0003300328397720305,7.598833293037698e-08,-2.6930396383934886e-08,-6.501805274727879e-10
1668680426.207906,11555,1668680426,207703996,,0.027530665529051385,0.025720457085666455,-0.00027782338208517753,7.424168519006274e-08,-2.6038478489901276e-08,-6.425390566833222e-10
1668680426.2153904,11556,1668680426,215287666,,0.02771553991911386,0.025889242783228423,-0.00021944337789610606,7.248525807205565e-08,-2.5144984600565523e-08,-6.348528196198355e-10
1668680426.2237718,11557,1668680426,223620620,,0.027900078761693044,0.026057729841992724,-0.00016524255720508048,7.071915235701341e-08,-2.4249964672277448e-08,-6.271227148690883e-10
1668680426.2317727,11558,1668680426,231631550,,0.028084292370925686,0.026225912649563716,-0.00010261855527060041,6.894347191478386e-08,-2.3353469226039363e-08,-6.193495993844778e-10
1668680426.2396839,11559,1668680426,239585451,,0.028268191442820997,0.02639378877078272,-3.818508410780263e-05,6.71583236713097e-08,-2.2455549366154348e-08,-6.115343925694461e-10
1668680426.2479248,11560,1668680426,247786104,,0.028451786407624927,0.026561356885383854,1.3400167175943447e-05,6.536381735069681e-08,-2.1556256706825767e-08,-6.036779617857313e-10
1668680426.2555993,11561,1668680426,255458965,,0.02863508680451031,0.026728614789142225,4.169087022022433e-05,6.356006552888228e-08,-2.06556433696636e-08,-5.957811535783897e-10
1668680426.263918,11562,1668680426,263782877,,0.028818099975494272,0.026895555304342563,6.766422718913122e-05,6.174718334735077e-08,-1.9753761862036957e-08,-5.878448144924775e-10
1668680426.2722087,11563,1668680426,271948215,,0.029000834368371125,0.027062176307179952,8.134142850766524e-05,5.992528854457642e-08,-1.8850665161750275e-08,-5.79869791073051e-10
1668680426.2796338,11564,1668680426,279530875,,0.029183296339820065,0.027228470855131314,0.00010300575847350863,5.809450135646596e-08,-1.794640659658845e-08,-5.718569576207422e-10
1668680426.2876947,11565,1668680426,287591094,,0.02936549310657608,0.02739443615839758,0.00012761859994246525,5.625494416933272e-08,-1.7041039816994945e-08,-5.63807105169456e-10
1668680426.295712,11566,1668680426,295604106,,0.029547430685485123,0.02756006718797204,0.000164047062868672,5.440674173237312e-08,-1.613461876658149e-08,-5.55721059447567e-10
1668680426.3037026,11567,1668680426,303596175,,0.029729115877938292,0.02772536270349848,0.00019727421140991095,5.25500207473504e-08,-1.5227197643530484e-08,-5.47599632305662e-10
1668680426.3118756,11568,1668680426,311652806,,0.029910552691446653,0.027890314177530597,0.00025805977004364245,5.0684909909875587e-08,-1.431883084118072e-08,-5.394436355943277e-10
1668680426.3197706,11569,1668680426,319647467,,0.030091747238400093,0.028054920806012757,0.0003297121855820937,4.881153975989602e-08,-1.3409572948569481e-08,-5.312538603474692e-10
1668680426.327896,11570,1668680426,327674353,,0.030272705682223167,0.028219183136143484,0.0003846451703102283,4.6930042519065024e-08,-1.2499478663045849e-08,-5.230310906600977e-10
1668680426.3358238,11571,1668680426,335593292,,0.030453431842868854,0.02838309561592847,0.0004325672003226261,4.5040551960149776e-08,-1.1588602742891065e-08,-5.147760620549668e-10
1668680426.3436325,11572,1668680426,343524052,,0.03063392960042925,0.028546653944973504,0.0004758507047822904,4.3143203407546276e-08,-1.067700006011918e-08,-5.064895586270879e-10
1668680426.3516889,11573,1668680426,351545438,,0.03081420266380112,0.028709854307839122,0.0005137712738839125,4.1238133454682066e-08,-9.764725443050896e-09,-4.98172357532578e-10
1668680426.3601227,11574,1668680426,359949891,,0.030994254903399906,0.028872694353367694,0.0005356634242884916,3.9325480048312943e-08,-8.851833729222637e-09,-4.898251665386155e-10
1668680426.3680105,11575,1668680426,367809720,,0.031174088996053607,0.029035168947985992,0.000548445587835087,3.7405382179742184e-08,-7.938379681469293e-09,-4.814487350457419e-10
1668680426.3757825,11576,1668680426,375612535,,0.03135370750790238,0.029197273477162437,0.0005560963519322988,3.547797993304043e-08,-7.024417958217087e-09,-4.73043805515605e-10
1668680426.3835082,11577,1668680426,383377281,,0.03153311101466548,0.029358997961089033,0.0005983753480373268,3.3543414285335665e-08,-6.1100031240003336e-09,-4.646110510209134e-10
1668680426.3920546,11578,1668680426,391901908,,0.03171230382030708,0.029520344771827293,0.0006361347124279928,3.160182710773476e-08,-5.195189561641063e-09,-4.561512209622087e-10
1668680426.399897,11579,1668680426,399695088,,0.031891286984311394,0.029681306934415987,0.0006888812974910379,2.965336093785787e-08,-4.280031456311249e-09,-4.476649745344119e-10
1668680426.4078698,11580,1668680426,407692826,,0.03207006161283885,0.029841878304235108,0.0007724185971020074,2.7698158910178464e-08,-3.364582736010112e-09,-4.391529917491255e-10
1668680426.4154222,11581,1668680426,415270530,,0.03224863037154673,0.030002058249405713,0.0008667875193277661,2.573636468598383e-08,-2.448897125774223e-09,-4.3061598037352766e-10
1668680426.4237597,11582,1668680426,423585328,,0.03242699559665138,0.030161845737766833,0.0009519934147559622,2.3768122405995462e-08,-1.5330279734462188e-09,-4.220545787858576e-10
1668680426.4317446,11583,1668680426,431597932,,0.032605157907124906,0.0303212349623885,0.0010386515791422142,2.179357633789493e-08,-6.170283266531545e-10,-4.134694392421423e-10
1668680426.439852,11584,1668680426,439691582,,0.032783119729067965,0.03048022631480143,0.0010947669001050008,1.981287113864659e-08,2.9904912812565854e-10,-4.048612209373026e-10
1668680426.44771,11585,1668680426,447575208,,0.03296088115625664,0.030638813413267525,0.0011328483407328364,1.7826151475026832e-08,1.2151521031804682e-09,-3.962305206162142e-10
1668680426.4556274,11586,1668680426,455375488,,0.03313844247178642,0.03079699094989912,0.0011593027957379387,1.58335620763163e-08,2.131228740362423e-09,-3.8757799747379806e-10
1668680426.4640636,11587,1668680426,463857478,,0.033315803802921505,0.03095475358189433,0.0011813816607373253,1.38352476490816e-08,3.0472275962300024e-09,-3.7890424131603595e-10
1668680426.4735723,11588,1668680426,471878519,,0.03349296562929451,0.031112097499631175,0.0011959365618331589,1.1831352807732155e-08,3.963097720870515e-09,-3.702098488878036e-10
1668680426.4802427,11589,1668680426,479885854,,0.033669928046845536,0.03126901809091567,0.0012051354138733871,9.822021955366387e-09,4.878788658659039e-09,-3.614953822395073e-10
1668680426.4877956,11590,1668680426,487633659,,0.033846690228336744,0.031425508213155595,0.001229142876443793,7.807399176435696e-09,5.794250476664521e-09,-3.527614728104922e-10
1668680426.4954925,11591,1668680426,495307327,,0.03402325398273513,0.03158156937754272,0.0012281100287727094,5.787628227257695e-09,6.709433760855067e-09,-3.4400864101780115e-10
