Time,header.seq,header.stamp.secs,header.stamp.nsecs,header.frame_id,pose.position.x,pose.position.y,pose.position.z,pose.orientation.x,pose.orientation.y,pose.orientation.z,pose.orientation.w
1668680423.8724003,11263,1668680423,871912096,,-0.09879789833133672,-0.6160097986186135,0.0708820667750767,0.9955612156663239,0.09352316573731667,-0.0043476178523053875,0.009611532160482621
1668680423.8798234,11264,1668680423,879639076,,-0.09879801914673819,-0.6160097986064266,0.07088206677466978,0.9955612156452895,0.09352316574358419,-0.0043476186459919935,0.009611533919232723
1668680423.887667,11265,1668680423,887578681,,-0.09879813073420975,-0.6160097985945454,0.0708820667742732,0.9955612156244272,0.09352316574974036,-0.004347619430402682,0.00961153566542084
1668680423.8956823,11266,1668680423,895554319,,-0.09879823360276535,-0.6160097985829696,0.07088206677388686,0.9955612156037386,0.09352316575578534,-0.004347620205510676,0.009611537398923205
1668680423.9039042,11267,1668680423,903726595,,-0.09879832823839901,-0.6160097985716969,0.07088206677351017,0.9955612155832247,0.09352316576171903,-0.004347620971290215,0.009611539119618057
1668680423.9116786,11268,1668680423,911561986,,-0.09879841510494514,-0.6160097985607259,0.070882066773144,0.9955612155628869,0.09352316576754165,-0.004347621727717777,0.00961154082738752
1668680423.9202135,11269,1668680423,919897490,,-0.09879849464491379,-0.6160097985500538,0.07088206677278772,0.9955612155427265,0.0935231657732534,-0.004347622474770641,0.009611542522115307
1668680423.9277534,11270,1668680423,927625816,,-0.09879856728030345,-0.6160097985396779,0.07088206677244115,0.9955612155227443,0.09352316577885457,-0.004347623212427478,0.009611544203688004
1668680423.9354665,11271,1668680423,935370412,,-0.09879863341338914,-0.6160097985295953,0.0708820667721044,0.9955612155029419,0.09352316578434501,-0.004347623940668518,0.009611545871994491
1668680423.9437666,11272,1668680423,943640334,,-0.09879869342748687,-0.6160097985198021,0.07088206677177711,0.99556121548332,0.093523165789725,-0.0043476246594752474,0.00961154752692684
1668680423.9517212,11273,1668680423,951528460,,-0.09879874768769581,-0.6160097985102952,0.07088206677145947,0.99556121546388,0.09352316579499476,-0.004347625368830548,0.009611549168379297
1668680423.9607491,11274,1668680423,960502839,,-0.09879879654161793,-0.6160097985010697,0.0708820667711511,0.9955612154446227,0.09352316580015431,-0.004347626068718578,0.009611550796248508
1668680423.9680548,11275,1668680423,967952288,,-0.09879884032005377,-0.6160097984921227,0.07088206677085206,0.9955612154255494,0.09352316580520419,-0.004347626759124931,0.00961155241043438
1668680423.975932,11276,1668680423,975684392,,-0.09880214121495086,-0.6160097984692485,0.07088420700685877,0.9955612154066592,0.09352316581014458,-0.004347627440101557,0.009611554010961008
1668680423.9834592,11277,1668680423,983294867,,-0.09881532849888261,-0.6160112144873434,0.0708961089567809,0.995561215387935,0.09352316581497373,-0.004347628112389497,0.009611555599336892
1668680423.992059,11278,1668680423,991881267,,-0.09884122622332832,-0.6160153472776548,0.07092263259128272,0.9955612153693284,0.09352316581968732,-0.004347628777902308,0.009611557179690549
1668680423.9995863,11279,1668680423,999500940,,-0.09888070062710293,-0.6160227225402038,0.07096556175728895,0.9955612153507802,0.09352316582427943,-0.004347629439003667,0.009611558757178972
1668680424.007884,11280,1668680424,7730077,,-0.09893734277824624,-0.6160345059695812,0.0710306709777484,0.9955612153321817,0.09352316582873925,-0.004347630100004657,0.009611560341236926
1668680424.0160482,11281,1668680424,15904305,,-0.0990139961722788,-0.6160513759563936,0.07112244706638737,0.995561215313374,0.09352316583305072,-0.004347630767158334,0.009611561945590921
1668680424.0242755,11282,1668680424,24034975,,-0.0991112920978449,-0.6160734989842706,0.07124192838551663,0.9955612152942085,0.09352316583719877,-0.00434763144634602,0.009611563583170208
1668680424.0320182,11283,1668680424,31864068,,-0.09922827941195264,-0.6161006541968593,0.0713878133561001,0.9955612152745751,0.09352316584117193,-0.004347632141898244,0.009611565263494107
1668680424.0397735,11284,1668680424,39657106,,-0.0993631957333614,-0.6161316715337136,0.0715596584953569,0.9955612152544157,0.09352316584496397,-0.004347632856128716,0.009611566991639344
1668680424.0476406,11285,1668680424,47451998,,-0.09951439440043731,-0.6161650866369158,0.07175802574352014,0.9955612152336837,0.09352316584856966,-0.0043476335908657635,0.00961156877161206
1668680424.0557997,11286,1668680424,55669764,,-0.09967492980600719,-0.6161991537179643,0.07197695525466775,0.9955612152125674,0.09352316585200778,-0.004347634338720504,0.00961157058709367
1668680424.063641,11287,1668680424,63526964,,-0.09983444314610646,-0.6162320611054857,0.0722066043044157,0.99556121519164,0.09352316585533683,-0.004347635077151061,0.00961157238834005
1668680424.0717123,11288,1668680424,71578372,,-0.09998876896080343,-0.6162632523897336,0.072442381614568,0.995561215171214,0.09352316585858972,-0.0043476357938766405,0.009611574148199764
1668680424.0795872,11289,1668680424,79477124,,-0.10013593283782865,-0.616292491758803,0.07268159675604036,0.9955612151513472,0.09352316586177287,-0.00434763648665948,0.009611575861648822
1668680424.0877705,11290,1668680424,87588636,,-0.10027288226281443,-0.6163194031085175,0.07292055295210081,0.9955612151321955,0.09352316586490343,-0.004347637149389383,0.009611577515123034
1668680424.0954638,11291,1668680424,95368994,,-0.10039824573835163,-0.6163438672495376,0.07315694594464062,0.9955612151137988,0.09352316586798638,-0.004347637780538505,0.009611579105157328
1668680424.1037822,11292,1668680424,103637546,,-0.10051203128825158,-0.6163659425368773,0.07338987061494218,0.9955612150961193,0.09352316587101862,-0.004347638381621359,0.009611580634995133
1668680424.1119487,11293,1668680424,111781450,,-0.10061458009592565,-0.6163857277745054,0.07361869770385027,0.995561215079089,0.09352316587399374,-0.004347638955350116,0.009611582110525095
1668680424.1198301,11294,1668680424,119682626,,-0.10070607683107327,-0.6164032944263379,0.07384268012296184,0.9955612150626582,0.09352316587690714,-0.00434763950370696,0.00961158353602997
1668680424.12788,11295,1668680424,127756492,,-0.10078698250808038,-0.6164187454896373,0.07406149038695581,0.9955612150467686,0.09352316587975336,-0.004347640029011615,0.00961158491654057
1668680424.1357884,11296,1668680424,135638092,,-0.1008578186691348,-0.6164321975262579,0.0742748401211578,0.9955612150313654,0.09352316588252714,-0.004347640533467216,0.009611586256832484
1668680424.1434247,11297,1668680424,143294746,,-0.10091912568882017,-0.6164437711620572,0.07448251959097771,0.9955612150163987,0.0935231658852238,-0.0043476410190480316,0.009611587561179505
1668680424.1518955,11298,1668680424,151757708,,-0.10097149562601367,-0.6164535879095767,0.07468451941504112,0.995561215001824,0.09352316588783895,-0.0043476414875481435,0.009611588833458817
1668680424.160227,11299,1668680424,160059412,,-0.1010155102080416,-0.616461764852732,0.0748808647007956,0.9955612149876016,0.09352316589036892,-0.0043476419405437654,0.009611590077068619
1668680424.167638,11300,1668680424,167508249,,-0.10105171047281161,-0.616468412137237,0.07507150016419223,0.9955612149736989,0.09352316589281075,-0.004347642379363753,0.009611591294862066
1668680424.1753469,11301,1668680424,175185119,,-0.10108062536763841,-0.6164736356623687,0.07525636416873316,0.9955612149600872,0.09352316589516195,-0.004347642805147751,0.009611592489275836
1668680424.1839437,11302,1668680424,183719230,,-0.10110276758686043,-0.6164775367522165,0.07543550089167239,0.9955612149467429,0.09352316589742035,-0.004347643218861793,0.009611593662363289
1668680424.191952,11303,1668680424,191802409,,-0.10111862547221992,-0.6164802116648025,0.07560877317348962,0.9955612149336459,0.09352316589958448,-0.004347643621314949,0.009611594815832252
1668680424.1996388,11304,1668680424,199502300,,-0.10112865955356659,-0.6164817514812226,0.07577589300091304,0.9955612149207801,0.09352316590165295,-0.004347644013177,0.009611595951083157
1668680424.207939,11305,1668680424,207754548,,-0.10113330767337361,-0.6164822424467054,0.07593675200212002,0.9955612149081321,0.09352316590362507,-0.004347644394998795,0.009611597069253894
1668680424.215406,11306,1668680424,215311797,,-0.10113298485565524,-0.6164817660902838,0.0760914315829501,0.9955612148956912,0.09352316590549992,-0.00434764476722863,0.009611598171256036
1668680424.2238805,11307,1668680424,223735159,,-0.10112808398987115,-0.6164803994493039,0.07624011061337227,0.995561214883449,0.0935231659072772,-0.00434764513022648,0.009611599257806438
1668680424.2317286,11308,1668680424,231610243,,-0.10111897616947858,-0.6164782152754186,0.07638296946145658,0.9955612148713989,0.09352316590895698,-0.004347645484277019,0.00961160032945584
1668680424.239777,11309,1668680424,239605412,,-0.10110601133510147,-0.6164752821986644,0.07652018539875423,0.9955612148595359,0.09352316591053902,-0.004347645829601666,0.009611601386614932
1668680424.2477753,11310,1668680424,247642874,,-0.10108951957731052,-0.6164716649833183,0.07665178150528774,0.9955612148478566,0.09352316591202356,-0.004347646166367826,0.009611602429575468
1668680424.2556946,11311,1668680424,255526505,,-0.10106981197507413,-0.6164674247073403,0.07677771003167841,0.9955612148363584,0.09352316591341114,-0.004347646494698719,0.00961160345853166
1668680424.2639344,11312,1668680424,263692621,,-0.10104718141490991,-0.6164626188011638,0.07689809006759074,0.9955612148250399,0.09352316591470199,-0.004347646814680394,0.009611604473595853
1668680424.271905,11313,1668680424,271705271,,-0.10102190341995819,-0.6164573012750283,0.07701300489551449,0.9955612148139001,0.09352316591589686,-0.004347647126369108,0.009611605474814657
1668680424.2799056,11314,1668680424,279784432,,-0.10099423696495859,-0.6164515229172801,0.07712255127417386,0.9955612148029394,0.09352316591699625,-0.0043476474297965,0.009611606462180334
1668680424.287978,11315,1668680424,287822149,,-0.100964425267776,-0.616445331365812,0.07722695158634799,0.9955612147921578,0.0935231659180006,-0.0043476477249751325,0.00961160743564317
1668680424.2958415,11316,1668680424,295550982,,-0.1009326965660935,-0.6164387713118409,0.07732650558958881,0.9955612147815559,0.09352316591891088,-0.00434764801190255,0.0096116083951208
1668680424.3039858,11317,1668680424,303847816,,-0.10089926484983296,-0.6164318846456159,0.07742149397212106,0.995561214771135,0.09352316591972774,-0.004347648290565149,0.009611609340505535
1668680424.3116558,11318,1668680424,311531015,,-0.1008643305844312,-0.6164247106608313,0.07751201724703508,0.9955612147608963,0.09352316592045212,-0.004347648560941045,0.009611610271672488
1668680424.3196392,11319,1668680424,319536704,,-0.10082808136766529,-0.6164172861405812,0.07759813827552052,0.9955612147508413,0.09352316592108455,-0.004347648823003038,0.009611611188484755
1668680424.3276873,11320,1668680424,327540938,,-0.10079069256966755,-0.6164096454581576,0.07767988993544847,0.9955612147409709,0.0935231659216262,-0.004347649076720634,0.009611612090798728
1668680424.3358262,11321,1668680424,335719932,,-0.1007523279578143,-0.6164018207136078,0.07775729322884002,0.9955612147312871,0.09352316592207784,-0.004347649322062215,0.009611612978467967
1668680424.343443,11322,1668680424,343301650,,-0.10071314027474466,-0.6163938418054236,0.07783051356271303,0.9955612147217913,0.09352316592244019,-0.004347649558996069,0.009611613851346498
1668680424.351953,11323,1668680424,351768427,,-0.10067327181339544,-0.6163857365601062,0.07789976792908833,0.9955612147124846,0.09352316592271402,-0.004347649787491936,0.009611614709291498
1668680424.359954,11324,1668680424,359731954,,-0.10063285497211859,-0.6163775308699057,0.07796526342528694,0.9955612147033688,0.09352316592290047,-0.0043476500075221094,0.009611615552166148
1668680424.3676069,11325,1668680424,367512684,,-0.10059201277101254,-0.6163692487822257,0.07802721425125385,0.9955612146944448,0.09352316592300026,-0.004347650219062126,0.009611616379841136
1668680424.375644,11326,1668680424,375437864,,-0.10055085935533513,-0.6163609126119413,0.0780857722648124,0.995561214685714,0.09352316592301407,-0.004347650422091081,0.00961161719219525
1668680424.3838844,11327,1668680424,383760201,,-0.10050950046999257,-0.616352543029612,0.07814106796040043,0.9955612146771774,0.09352316592294295,-0.004347650616592748,0.009611617989117688
1668680424.3916845,11328,1668680424,391579184,,-0.1004680339100913,-0.6163441591374571,0.07819325383868207,0.9955612146688361,0.09352316592278756,-0.004347650802555266,0.009611618770507566
1668680424.3996847,11329,1668680424,399499375,,-0.10042654995804981,-0.6163357785608937,0.07824247853305652,0.9955612146606906,0.0935231659225489,-0.004347650979971765,0.009611619536275188
1668680424.407606,11330,1668680424,407501594,,-0.10038513179752338,-0.6163274175258379,0.07828894084847951,0.9955612146527418,0.09352316592222769,-0.004347651148840048,0.009611620286341894
1668680424.4161634,11331,1668680424,415992953,,-0.1003438559095188,-0.6163190909352737,0.07833285893285816,0.9955612146449903,0.09352316592182477,-0.004347651309163199,0.00961162102064032
1668680424.423872,11332,1668680424,423690574,,-0.10030279245496582,-0.6163108124553388,0.0783744416958358,0.9955612146374364,0.0935231659213409,-0.004347651460949259,0.009611621739114716
1668680424.4320993,11333,1668680424,431957707,,-0.10026200563440314,-0.6163025945824515,0.07841385449215597,0.9955612146300804,0.09352316592077707,-0.004347651604210727,0.009611622441719578
1668680424.4399693,11334,1668680424,439847734,,-0.10022155403522942,-0.6162944487195199,0.07845119127405435,0.9955612146229227,0.09352316592013368,-0.004347651738965387,0.009611623128420666
1668680424.4479618,11335,1668680424,447773962,,-0.10018149095546695,-0.6162863852279807,0.07848654269208782,0.995561214615963,0.09352316591941201,-0.004347651865235225,0.00961162379919403
1668680424.4555159,11336,1668680424,455379069,,-0.10014186471775807,-0.6162784134931387,0.07851993827382076,0.9955612146092017,0.09352316591861266,-0.004347651983046873,0.009611624454025788
1668680424.463634,11337,1668680424,463484262,,-0.10010271896674498,-0.6162705419816478,0.07855140904367729,0.9955612146026382,0.09352316591773611,-0.004347652092431212,0.009611625092911698
1668680424.47175,11338,1668680424,471644964,,-0.100064092947867,-0.6162627782839589,0.07858108980421277,0.9955612145962723,0.0935231659167835,-0.0043476521934226985,0.009611625715856251
1668680424.4797063,11339,1668680424,479574905,,-0.10002602178025322,-0.6162551291763961,0.078609131879441,0.9955612145901039,0.09352316591575535,-0.004347652286059969,0.009611626322872994
1668680424.4882712,11340,1668680424,488079267,,-0.09998853671793374,-0.6162476006849255,0.07863552532866303,0.9955612145841324,0.09352316591465278,-0.0043476523703851805,0.009611626913983182
1668680424.4954624,11341,1668680424,495283330,,-0.09995166539315577,-0.6162401981314242,0.07866018358340475,0.9955612145783572,0.09352316591347608,-0.0043476524464435805,0.009611627489216089
1668680424.504019,11342,1668680424,503750137,,-0.09991543204121295,-0.6162329261593736,0.07868313808533384,0.9955612145727778,0.09352316591222619,-0.004347652514283749,0.009611628048607773
1668680424.5115387,11343,1668680424,511450954,,-0.09987985772322519,-0.6162257887846154,0.0787044331134879,0.9955612145673933,0.09352316591090401,-0.004347652573956796,0.009611628592200681
1668680424.519619,11344,1668680424,519526900,,-0.09984496053869213,-0.6162187894465243,0.07872399751313781,0.995561214562203,0.09352316590951025,-0.0043476526255168645,0.009611629120043803
1668680424.527555,11345,1668680424,527458482,,-0.09981075582209151,-0.616211931041973,0.07874175325295805,0.9955612145572061,0.09352316590804541,-0.004347652669020213,0.009611629632191573
1668680424.5354514,11346,1668680424,535289235,,-0.09977725632803602,-0.616205215953784,0.07875774606219894,0.9955612145524017,0.09352316590651068,-0.004347652704525397,0.009611630128703889
1668680424.543983,11347,1668680424,543808471,,-0.09974447241136358,-0.6161986460907338,0.07877208250826587,0.9955612145477888,0.09352316590490639,-0.004347652732092969,0.009611630609644883
1668680424.5516977,11348,1668680424,551545093,,-0.09971241219699585,-0.6161922229232276,0.0787849869447113,0.9955612145433663,0.09352316590323351,-0.004347652751785432,0.009611631075083416
1668680424.5607255,11349,1668680424,560547526,,-0.09968108173999819,-0.6161859475147957,0.07879673332859011,0.9955612145391334,0.09352316590149254,-0.004347652763667099,0.009611631525092385
1668680424.5713577,11350,1668680424,571110932,,-0.09965048517979752,-0.6161798205596881,0.07880748813891342,0.9955612145350888,0.09352316589968454,-0.004347652767803252,0.009611631959748254
1668680424.5761807,11351,1668680424,575935653,,-0.0996206248822323,-0.616173842407462,0.07881735995993759,0.9955612145312314,0.09352316589781004,-0.004347652764261168,0.009611632379130824
1668680424.5838306,11352,1668680424,583704794,,-0.09959150157452805,-0.6161680130881635,0.0788264168957367,0.9955612145275602,0.09352316589586976,-0.0043476527531086575,0.009611632783322579
1668680424.5925539,11353,1668680424,592438971,,-0.09956311447291129,-0.6161623323363508,0.07883474552455177,0.9955612145240738,0.09352316589386474,-0.004347652734415124,0.009611633172409036
1668680424.6004996,11354,1668680424,600303198,,-0.09953546140320321,-0.6161567996140285,0.0788424628331587,0.995561214520771,0.09352316589179534,-0.004347652708250625,0.009611633546477734
1668680424.608511,11355,1668680424,608317673,,-0.09950853891545079,-0.6161514141346655,0.07884965675367028,0.9955612145176505,0.09352316588966285,-0.004347652674686316,0.009611633905618934
1668680424.6158679,11356,1668680424,615684427,,-0.0994823423917884,-0.6161461748851448,0.07885629364520043,0.9955612145147111,0.0935231658874674,-0.004347652633793848,0.009611634249924606
1668680424.6242366,11357,1668680424,624141812,,-0.09945686614757195,-0.6161410806449688,0.07886232458363135,0.9955612145119518,0.09352316588521012,-0.004347652585645415,0.009611634579488085
1668680424.6324003,11358,1668680424,632258824,,-0.09943210352609644,-0.6161361300028285,0.07886771105069594,0.9955612145093709,0.09352316588289161,-0.0043476525303141,0.00961163489440462
1668680424.640938,11359,1668680424,640765087,,-0.09940804698916701,-0.6161313213763113,0.07887237950085582,0.9955612145069671,0.09352316588051263,-0.004347652467872999,0.00961163519477099
1668680424.6475785,11360,1668680424,647444489,,-0.09938468820100883,-0.616126653026818,0.07887633253491794,0.9955612145047392,0.09352316587807416,-0.004347652398395974,0.009611635480684727
1668680424.6555438,11361,1668680424,655355383,,-0.09936201810798083,-0.6161221230760727,0.07887961038010982,0.9955612145026859,0.09352316587557663,-0.0043476523219569616,0.009611635752244593
1668680424.663681,11362,1668680424,663544405,,-0.09934002701334367,-0.6161177295214246,0.07888225699722146,0.9955612145008056,0.09352316587302122,-0.004347652238630288,0.009611636009550494
1668680424.6719882,11363,1668680424,671800030,,-0.09931870464720399,-0.6161134702496475,0.07888431608918384,0.9955612144990973,0.0935231658704083,-0.0043476521484903516,0.009611636252703004
1668680424.6796458,11364,1668680424,679485980,,-0.09929804023205725,-0.6161093430498533,0.07888585857443951,0.9955612144975593,0.09352316586773868,-0.004347652051611956,0.009611636481803685
1668680424.6878748,11365,1668680424,687738832,,-0.09927802254416944,-0.6161053456256242,0.07888696731060174,0.9955612144961903,0.09352316586501326,-0.004347651948069636,0.009611636696954058
1668680424.6960506,11366,1668680424,695884554,,-0.09925863997092202,-0.6161014756061564,0.07888762432533114,0.9955612144949889,0.09352316586223268,-0.004347651837938408,0.009611636898256929
1668680424.704625,11367,1668680424,704413516,,-0.09923988056435444,-0.6160977305565619,0.0788877983852738,0.9955612144939538,0.0935231658593978,-0.004347651721293052,0.009611637085815411
1668680424.7123854,11368,1668680424,712279877,,-0.09922173209128005,-0.616094107987888,0.07888747754996128,0.9955612144930837,0.09352316585650969,-0.004347651598208456,0.00961163725973265
1668680424.7205667,11369,1668680424,720453087,,-0.0992041820798557,-0.6160906053660201,0.0788866254340823,0.9955612144923769,0.09352316585356846,-0.004347651468759522,0.009611637420112928
1668680424.7276392,11370,1668680424,727495448,,-0.09918721786323706,-0.6160872201208203,0.07888527507767672,0.9955612144918321,0.09352316585057528,-0.004347651333021081,0.009611637567060152
1668680424.7354984,11371,1668680424,735390246,,-0.09917082662004258,-0.6160839496542438,0.07888349258861396,0.995561214491448,0.09352316584753087,-0.004347651191068064,0.00961163770067908
1668680424.74421,11372,1668680424,743989083,,-0.09915499541169583,-0.6160807913472152,0.078881323957682,0.995561214491223,0.0935231658444361,-0.0043476510429749675,0.009611637821074374
1668680424.7517471,11373,1668680424,751620051,,-0.09913971121736495,-0.6160777425669052,0.07887886788971553,0.995561214491156,0.09352316584129154,-0.004347650888816629,0.009611637928350888
1668680424.7597892,11374,1668680424,759681759,,-0.09912496018757021,-0.6160747999394933,0.07887626451269188,0.9955612144912453,0.09352316583809818,-0.00434765072866773,0.009611638022614518
1668680424.7677252,11375,1668680424,767545081,,-0.09911072617906076,-0.6160719579460766,0.07887360501301362,0.9955612144914896,0.09352316583485673,-0.004347650562602924,0.009611638103971469
1668680424.7753987,11376,1668680424,775234022,,-0.09909699018896763,-0.6160692083684681,0.07887088044942121,0.9955612144918874,0.09352316583156803,-0.004347650390697208,0.009611638172528537
1668680424.783941,11377,1668680424,783818567,,-0.09908373061833031,-0.6160665405189611,0.07886805695919195,0.9955612144924372,0.09352316582823268,-0.004347650213025984,0.009611638228394254
1668680424.7919457,11378,1668680424,791821839,,-0.09907092352053701,-0.6160639414585201,0.07886519890425313,0.9955612144931377,0.09352316582485151,-0.004347650029664477,0.009611638271677124
1668680424.8000395,11379,1668680424,799893901,,-0.09905854283392114,-0.6160613961997036,0.07886239257894921,0.9955612144939875,0.09352316582142538,-0.004347649840687882,0.009611638302486035
1668680424.807936,11380,1668680424,807800329,,-0.09904656059979969,-0.6160588878965284,0.07885961878263954,0.9955612144949848,0.09352316581795506,-0.004347649646171433,0.00961163832093079
1668680424.815354,11381,1668680424,815213604,,-0.09903494716765943,-0.6160563980247707,0.07885680762777449,0.9955612144961284,0.09352316581444127,-0.004347649446190443,0.009611638327121025
1668680424.8236728,11382,1668680424,823573086,,-0.09902367138801614,-0.6160539065528591,0.07885394242104313,0.9955612144974169,0.09352316581088475,-0.004347649240819759,0.009611638321166415
1668680424.8318543,11383,1668680424,831665735,,-0.09901270079212651,-0.6160513920996995,0.07885094397368164,0.9955612144988487,0.09352316580728635,-0.004347649030134305,0.009611638303177173
1668680424.8397732,11384,1668680424,839666528,,-0.09900200176022297,-0.6160488320829981,0.07884770870806228,0.9955612145004223,0.0935231658036468,-0.004347648814208929,0.009611638273263709
1668680424.847697,11385,1668680424,847573991,,-0.09899153967967814,-0.6160462028609176,0.07884421445909676,0.9955612145021364,0.09352316579996706,-0.004347648593117929,0.009611638231535727
1668680424.8559144,11386,1668680424,855742200,,-0.0989812790918557,-0.6160434798623609,0.0788405118608293,0.9955612145039894,0.09352316579624777,-0.00434764836693571,0.009611638178103525
1668680424.8635051,11387,1668680424,863328833,,-0.09897118382934403,-0.6160406377096644,0.07883673004204672,0.9955612145059799,0.0935231657924898,-0.004347648135736481,0.009611638113077959
1668680424.8720994,11388,1668680424,871869133,,-0.09896121714304035,-0.6160376503311197,0.07883294845690546,0.9955612145081063,0.0935231657886938,-0.004347647899594113,0.009611638036569095
1668680424.8799317,11389,1668680424,879774508,,-0.09895134182058438,-0.6160344910666324,0.07882920937078206,0.9955612145103674,0.09352316578486046,-0.004347647658582622,0.009611637948687607
1668680424.8878205,11390,1668680424,887669314,,-0.09894152029723706,-0.616031132768706,0.07882558454191285,0.9955612145127615,0.09352316578099076,-0.004347647412775686,0.00961163784954448
1668680424.8955443,11391,1668680424,895385830,,-0.09893171475782485,-0.6160275478938714,0.07882212242767216,0.9955612145152872,0.09352316577708551,-0.004347647162246813,0.009611637739250731
1668680424.904022,11392,1668680424,903855088,,-0.0989218872313733,-0.616023708588355,0.0788188344192056,0.9955612145179432,0.09352316577314505,-0.004347646907069371,0.009611637617917347
1668680424.9116335,11393,1668680424,911535931,,-0.09891199967863823,-0.6160195867677436,0.07881567694451941,0.9955612145207279,0.0935231657691706,-0.0043476466473170395,0.009611637485656419
1668680424.9196467,11394,1668680424,919536344,,-0.09890201407280146,-0.6160151541906186,0.07881252861238125,0.9955612145236397,0.09352316576516276,-0.0043476463830628455,0.009611637342579402
1668680424.927798,11395,1668680424,927648627,,-0.09889189247412691,-0.6160103825276774,0.07880927099591523,0.9955612145266772,0.09352316576112253,-0.004347646114380234,0.00961163718879913
1668680424.9354281,11396,1668680424,935317349,,-0.09888159709901723,-0.6160052434268867,0.07880591672697458,0.995561214529839,0.0935231657570504,-0.004347645841342452,0.009611637024428108
1668680424.943728,11397,1668680424,943610771,,-0.09887109038253356,-0.6159997085712754,0.07880252053928781,0.9955612145331235,0.09352316575294732,-0.004347645564022674,0.009611636849579625
1668680424.9516284,11398,1668680424,951524029,,-0.09886033503487246,-0.6159937497301264,0.07879906796991244,0.9955612145365296,0.09352316574881363,-0.004347645282494307,0.00961163666436777
1668680424.960303,11399,1668680424,960124041,,-0.09884929409390268,-0.6159873388089808,0.07879553281809931,0.9955612145400551,0.09352316574465057,-0.004347644996830588,0.009611636468907064
1668680424.967755,11400,1668680424,967598085,,-0.09883793097304946,-0.6159804478957975,0.07879193733283847,0.9955612145436991,0.09352316574045878,-0.004347644707105009,0.009611636263312682
1668680424.9758942,11401,1668680424,975798085,,-0.09882620950431888,-0.6159730493021104,0.07878832657363251,0.9955612145474598,0.09352316573623887,-0.0043476444133909616,0.00961163604770031
1668680424.983455,11402,1668680424,983307270,,-0.09881409397676603,-0.6159651155995075,0.07878472623066685,0.9955612145513358,0.09352316573199168,-0.004347644115762046,0.009611635822186704
1668680424.9919384,11403,1668680424,991772827,,-0.09880154917141626,-0.6159566196538108,0.0787811484855215,0.9955612145553254,0.09352316572771792,-0.00434764381429195,0.009611635586889267
1668680424.9998112,11404,1668680424,999617309,,-0.09878854039255104,-0.6159475346562132,0.07877761851659637,0.9955612145594274,0.09352316572341846,-0.004347643509054493,0.009611635341925889
1668680425.0078819,11405,1668680425,7708640,,-0.09877503349549176,-0.6159378341512847,0.07877416996267733,0.9955612145636398,0.09352316571909412,-0.004347643200123454,0.009611635087415747
1668680425.0155165,11406,1668680425,15384604,,-0.09876099491078179,-0.615927492061118,0.0787708178670334,0.9955612145679614,0.09352316571474543,-0.004347642887573174,0.009611634823478567
1668680425.024257,11407,1668680425,24074002,,-0.09874639166562828,-0.6159164827076622,0.07876756534942979,0.9955612145723906,0.093523165710373,-0.0043476425714777224,0.009611634550235037
1668680425.031985,11408,1668680425,31793181,,-0.09873119140243944,-0.615904780832379,0.07876439893512738,0.9955612145769257,0.09352316570597767,-0.00434764225191155,0.009611634267806741
1668680425.0398707,11409,1668680425,39674709,,-0.09871536239472845,-0.6158923616136087,0.07876129966645974,0.9955612145815652,0.09352316570156055,-0.004347641928949166,0.00961163397631625
1668680425.0477226,11410,1668680425,47634009,,-0.09869887356109562,-0.6158792006833356,0.0787583469196261,0.9955612145863076,0.0935231656971218,-0.004347641602665255,0.009611633675886737
1668680425.055553,11411,1668680425,55359241,,-0.09868169447642233,-0.6158652741405255,0.07875566476242823,0.9955612145911511,0.09352316569266253,-0.004347641273134842,0.009611633366642522
1668680425.0638056,11412,1668680425,63627071,,-0.0986637953794651,-0.615850558558364,0.07875328197763158,0.9955612145960945,0.09352316568818334,-0.004347640940432831,0.009611633048708643
1668680425.0717413,11413,1668680425,71610227,,-0.09864514717998046,-0.6158350309941014,0.0787511586090493,0.9955612146011356,0.09352316568368492,-0.004347640604634489,0.009611632722211324
1668680425.079864,11414,1668680425,79702551,,-0.09862572146373698,-0.6158186689964743,0.07874912982632104,0.9955612146062732,0.093523165679168,-0.004347640265815136,0.009611632387277263
1668680425.0878408,11415,1668680425,87707170,,-0.09860549049593148,-0.6158014506119318,0.07874699708734545,0.9955612146115054,0.09352316567463324,-0.004347639924050323,0.009611632044034455
1668680425.0956197,11416,1668680425,95486800,,-0.09858442722484362,-0.6157833543946609,0.07874475859394407,0.9955612146168309,0.09352316567008137,-0.004347639579415704,0.009611631692611512
1668680425.1036844,11417,1668680425,103584662,,-0.0985625052818142,-0.6157643594089274,0.07874248044521674,0.9955612146222479,0.09352316566551315,-0.004347639231987227,0.009611631333137985
1668680425.1117742,11418,1668680425,111665165,,-0.09853969897882159,-0.6157444452271539,0.07874019727524521,0.9955612146277545,0.09352316566092908,-0.004347638881840549,0.009611630965744116
1668680425.1198204,11419,1668680425,119707495,,-0.09851598330685035,-0.6157235919327017,0.07873795531470118,0.9955612146333495,0.09352316565632998,-0.004347638529051985,0.009611630590560992
1668680425.1277895,11420,1668680425,127607824,,-0.09849133393206932,-0.6157017801185781,0.07873578086470003,0.9955612146390307,0.09352316565171653,-0.004347638173697518,0.009611630207720486
1668680425.1359205,11421,1668680425,135748309,,-0.0984657271914745,-0.6156789908866253,0.07873368942163436,0.995561214644797,0.09352316564708942,-0.00434763781585342,0.009611629817355388
1668680425.1435032,11422,1668680425,143348733,,-0.0984391400874804,-0.6156552058455359,0.07873168788807297,0.9955612146506462,0.09352316564244943,-0.004347637455596128,0.009611629419599147
1668680425.1516626,11423,1668680425,151537440,,-0.09841155028167509,-0.615630407108127,0.07872977671292569,0.9955612146565769,0.09352316563779695,-0.00434763709300203,0.00961162901458585
1668680425.160202,11424,1668680425,159930713,,-0.09838293608768675,-0.6156045772875766,0.07872794021513702,0.9955612146625873,0.09352316563313282,-0.004347636728147504,0.00961162860244993
1668680425.1677322,11425,1668680425,167590976,,-0.09835327646343041,-0.6155776994932263,0.0787261573412534,0.9955612146686758,0.09352316562845779,-0.004347636361109124,0.009611628183327257
1668680425.1754465,11426,1668680425,175353380,,-0.09832255100270672,-0.6155497573257402,0.07872438596204419,0.9955612146748406,0.09352316562377248,-0.0043476359919632605,0.009611627757353325
1668680425.1839862,11427,1668680425,183820930,,-0.0982907399262073,-0.615520734871637,0.07872259371957417,0.9955612146810798,0.09352316561907738,-0.004347635620786689,0.009611627324664727
1668680425.1925244,11428,1668680425,192276833,,-0.09825782407229419,-0.6154906166981259,0.07872073695966698,0.9955612146873921,0.09352316561437331,-0.004347635247655677,0.00961162688539871
1668680425.1998837,11429,1668680425,199685580,,-0.09822378488640122,-0.6154593878448149,0.07871874975361794,0.9955612146937756,0.0935231656096606,-0.004347634872646888,0.009611626439692409
1668680425.2076423,11430,1668680425,207530309,,-0.09818860441108358,-0.6154270338180169,0.07871653089163408,0.9955612147002284,0.09352316560494031,-0.004347634495836496,0.00961162598768393
1668680425.2155647,11431,1668680425,215400156,,-0.09815226527484693,-0.615393540582164,0.07871396603214063,0.9955612147067491,0.0935231656002127,-0.00434763411730126,0.009611625529511917
1668680425.2237453,11432,1668680425,223581029,,-0.09811475068292004,-0.6153588945573489,0.07871104012741396,0.9955612147133357,0.09352316559547867,-0.004347633737117144,0.009611625065314744
1668680425.2317293,11433,1668680425,231616393,,-0.09807604440594032,-0.6153230826113043,0.07870780776137368,0.9955612147199864,0.09352316559073896,-0.0043476333553605735,0.009611624595231523
1668680425.23985,11434,1668680425,239677567,,-0.09803613076835922,-0.615286092050925,0.07870439011907826,0.9955612147266999,0.09352316558599372,-0.004347632972107563,0.009611624119401637
1668680425.2478766,11435,1668680425,247717223,,-0.09799499463655618,-0.6152479106132407,0.07870091608106844,0.9955612147334739,0.09352316558124395,-0.004347632587433969,0.009611623637964556
1668680425.2558656,11436,1668680425,255708646,,-0.09795262140606696,-0.6152085264540381,0.07869750098980703,0.995561214740307,0.09352316557649008,-0.004347632201415636,0.009611623151060112
1668680425.2637753,11437,1668680425,263633595,,-0.0979089969904806,-0.6151679281414386,0.07869426214853846,0.9955612147471975,0.09352316557173265,-0.004347631814128344,0.009611622658828317
1668680425.2716675,11438,1668680425,271492199,,-0.09786410780821908,-0.6151261046434543,0.07869124040217451,0.9955612147541435,0.09352316556697249,-0.004347631425647352,0.00961162216140898
1668680425.2796693,11439,1668680425,279585719,,-0.09781794077087287,-0.6150830453200492,0.07868845008605417,0.9955612147611432,0.09352316556221019,-0.004347631036047878,0.00961162165894237
1668680425.2879364,11440,1668680425,287802613,,-0.09777048327245204,-0.6150387399178168,0.07868591684500495,0.9955612147681951,0.09352316555744603,-0.004347630645405122,0.00961162115156875
1668680425.2955563,11441,1668680425,295424399,,-0.09772172317669851,-0.6149931785589906,0.07868364505108348,0.9955612147752975,0.09352316555268095,-0.004347630253793831,0.009611620639428333
1668680425.3037515,11442,1668680425,303637263,,-0.09767164880536679,-0.6149463517331255,0.07868162531541681,0.9955612147824483,0.09352316554791539,-0.004347629861288511,0.009611620122661441
1668680425.3119168,11443,1668680425,311810274,,-0.09762024892650367,-0.6148982502886173,0.0786798450539334,0.995561214789646,0.09352316554314967,-0.004347629467963337,0.009611619601407708
1668680425.319966,11444,1668680425,319834109,,-0.09756751274321267,-0.6148488654254273,0.07867832833845638,0.9955612147968891,0.09352316553838472,-0.004347629073892462,0.009611619075807536
1668680425.329901,11445,1668680425,329709145,,-0.0975134298820001,-0.6147981886863563,0.07867711261047841,0.9955612148041753,0.09352316553362096,-0.004347628679149487,0.009611618546000723
1668680425.3359003,11446,1668680425,335711667,,-0.09745799038001574,-0.6147462119448831,0.07867618906689436,0.9955612148115034,0.09352316552885917,-0.00434762828380788,0.009611618012126837
1668680425.34448,11447,1668680425,344023412,,-0.0974011846736753,-0.6146929273966854,0.07867551128493079,0.9955612148188714,0.09352316552409964,-0.004347627887940403,0.00961161747432524
1668680425.3515816,11448,1668680425,351491395,,-0.09734300358805491,-0.614638327553084,0.07867504258513218,0.9955612148262778,0.09352316551934285,-0.004347627491620243,0.009611616932735746
1668680425.359771,11449,1668680425,359673391,,-0.0972834383260583,-0.6145824052334926,0.0786747574372225,0.9955612148337207,0.0935231655145896,-0.004347627094919257,0.009611616387496904
1668680425.3677328,11450,1668680425,367605511,,-0.09722248045574769,-0.6145251535522015,0.07867452040504412,0.9955612148411985,0.09352316550984024,-0.004347626697909685,0.009611615838747506
1668680425.375555,11451,1668680425,375376639,,-0.0971601218993463,-0.6144665659096235,0.0786741575686596,0.9955612148487094,0.09352316550509543,-0.0043476263006630295,0.009611615286625864
1668680425.3838062,11452,1668680425,383667032,,-0.09709635492615934,-0.6144066359944589,0.07867362055577298,0.9955612148562518,0.09352316550035547,-0.004347625903250596,0.009611614731270196
1668680425.3918023,11453,1668680425,391681134,,-0.09703117214065836,-0.614345357771497,0.0786728635565571,0.9955612148638241,0.09352316549562122,-0.0043476255057431305,0.009611614172817893
1668680425.3997798,11454,1668680425,399671271,,-0.09696456647118863,-0.6142827254707934,0.0786718750490449,0.9955612148714245,0.09352316549089308,-0.004347625108210887,0.00961161361140614
1668680425.4079473,11455,1668680425,407768092,,-0.09689653116226896,-0.6142187335868066,0.07867072152336371,0.9955612148790511,0.09352316548617144,-0.004347624710723915,0.009611613047171787
1668680425.4154546,11456,1668680425,415284510,,-0.09682705976280535,-0.6141533768652938,0.0786695029739642,0.9955612148867027,0.09352316548145698,-0.004347624313351726,0.009611612480251129
1668680425.4240448,11457,1668680425,423897681,,-0.09675614611644662,-0.6140866502959502,0.07866829558959544,0.9955612148943773,0.0935231654767502,-0.004347623916163281,0.00961161191077964
1668680425.4318514,11458,1668680425,431750399,,-0.09668378434986104,-0.6140185490985958,0.07866710798727014,0.9955612149020734,0.09352316547205153,-0.004347623519227128,0.009611611338892623
1668680425.43978,11459,1668680425,439662089,,-0.09660996886550606,-0.6139490687218971,0.07866595191603132,0.9955612149097893,0.09352316546736139,-0.004347623122611552,0.009611610764725078
1668680425.4476945,11460,1668680425,447597272,,-0.09653469433183369,-0.6138782048342308,0.07866480231987837,0.9955612149175234,0.0935231654626805,-0.004347622726383897,0.009611610188410925
1668680425.4557686,11461,1668680425,455536974,,-0.09645795567432368,-0.6138059533164759,0.07866361709585795,0.9955612149252739,0.0935231654580091,-0.0043476223306114165,0.009611609610083375
1668680425.463851,11462,1668680425,463664873,,-0.09637974806822053,-0.6137323102592906,0.07866238622571736,0.9955612149330395,0.09352316545334771,-0.004347621935360699,0.009611609029875637
1668680425.4722624,11463,1668680425,472030140,,-0.09630006692928657,-0.613657271954187,0.07866107844561598,0.9955612149408183,0.09352316544869704,-0.004347621540697963,0.009611608447919948
1668680425.4800172,11464,1668680425,479914430,,-0.09621890790418977,-0.6135808348830887,0.07865960164250874,0.9955612149486089,0.09352316544405719,-0.004347621146688796,0.009611607864347935
1668680425.4878817,11465,1668680425,487654077,,-0.0961362668638041,-0.6135029957158763,0.0786578750985319,0.9955612149564097,0.09352316543942873,-0.004347620753398145,0.009611607279290278
1668680425.4958923,11466,1668680425,495785512,,-0.09605213989738505,-0.6134237513100234,0.07865589944805983,0.995561214964219,0.09352316543481222,-0.004347620360890672,0.009611606692877616
1668680425.5036423,11467,1668680425,503490708,,-0.09596652330501076,-0.6133430987047592,0.07865374590006263,0.9955612149720352,0.0935231654302082,-0.004347619969230371,0.009611606105239241
1668680425.5118876,11468,1668680425,511738929,,-0.09587941358838063,-0.613261035110022,0.07865146937503024,0.9955612149798567,0.09352316542561719,-0.004347619578480636,0.0096116055165039
1668680425.5196416,11469,1668680425,519507885,,-0.09579080744249287,-0.6131775578975185,0.07864910345430909,0.9955612149876822,0.09352316542103933,-0.0043476191887043955,0.009611604926799687
1668680425.5277407,11470,1668680425,527619997,,-0.09570070174932883,-0.6130926645971765,0.07864664346688309,0.99556121499551,0.09352316541647528,-0.004347618799964012,0.00961160433625387
1668680425.5361238,11471,1668680425,535854169,,-0.09560909356871813,-0.6130063528849721,0.07864398631603786,0.9955612150033386,0.09352316541192532,-0.004347618412321211,0.009611603744993077
1668680425.5436077,11472,1668680425,543356298,,-0.09551598013386604,-0.6129186205838805,0.07864103108228844,0.9955612150111663,0.09352316540739009,-0.004347618025837312,0.009611603153142958
1668680425.5519829,11473,1668680425,551845562,,-0.09542135884804115,-0.6128294656677816,0.0786377650060984,0.9955612150189919,0.09352316540286995,-0.004347617640572932,0.009611602560828325
1668680425.5598607,11474,1668680425,559717613,,-0.09532522727808887,-0.6127388862557424,0.07863424557237912,0.9955612150268137,0.09352316539836514,-0.004347617256588036,0.009611601968173341
1668680425.5677671,11475,1668680425,567595534,,-0.09522758314690728,-0.6126468806028754,0.07863054025712861,0.9955612150346304,0.09352316539387631,-0.004347616873942294,0.009611601375301239
1668680425.5757682,11476,1668680425,575640168,,-0.09512842432675983,-0.6125534470932311,0.07862672207701699,0.9955612150424401,0.09352316538940376,-0.0043476164926946415,0.009611600782334594
1668680425.5835674,11477,1668680425,583406697,,-0.09502774883424296,-0.6124585842371116,0.07862286568675306,0.9955612150502418,0.09352316538494798,-0.004347616112903252,0.009611600189394961
1668680425.5918484,11478,1668680425,591694406,,-0.09492555482310942,-0.6123622906617621,0.07861900292357936,0.9955612150580337,0.09352316538050921,-0.004347615734626031,0.009611599596603074
1668680425.599849,11479,1668680425,599748447,,-0.09482184057957242,-0.6122645651089057,0.07861515306651508,0.9955612150658146,0.09352316537608815,-0.00434761535791989,0.009611599004078732
1668680425.6078062,11480,1668680425,607694964,,-0.0947166045163405,-0.6121654064282163,0.07861124861719476,0.9955612150735831,0.09352316537168498,-0.00434761498284151,0.009611598411940717
1668680425.6159396,11481,1668680425,615811683,,-0.09460984516855461,-0.6120648135759733,0.07860727583581473,0.9955612150813374,0.09352316536730015,-0.004347614609446732,0.00961159782030731
1668680425.62401,11482,1668680425,623766081,,-0.0945015611954984,-0.611962785630193,0.07860333878242229,0.9955612150890765,0.09352316536293395,-0.004347614237791064,0.009611597229295665
1668680425.6319857,11483,1668680425,631838554,,-0.09439175136792985,-0.6118593217635194,0.07859947375750802,0.9955612150967988,0.09352316535858683,-0.004347613867929137,0.009611596639022016
1668680425.6397064,11484,1668680425,639558204,,-0.0942804145645049,-0.6117544212422643,0.07859568589970133,0.995561215104503,0.09352316535425916,-0.004347613499915103,0.009611596049601918
1668680425.647792,11485,1668680425,647622408,,-0.09416754976905072,-0.6116480834276088,0.07859198153516518,0.9955612151121878,0.09352316534995131,-0.004347613133802332,0.009611595461149583
1668680425.6553926,11486,1668680425,655300589,,-0.09405315606724869,-0.6115403077747631,0.078588409998601,0.9955612151198515,0.09352316534566346,-0.004347612769643987,0.009611594873778563
1668680425.663854,11487,1668680425,663696891,,-0.09393723264248624,-0.6114310938293992,0.07858501471309251,0.9955612151274932,0.09352316534139644,-0.004347612407492253,0.009611594287601596
1668680425.671819,11488,1668680425,671647050,,-0.09381977876908067,-0.6113204412160904,0.07858179669102193,0.9955612151351112,0.09352316533715029,-0.0043476120473986786,0.00961159370273012
1668680425.6796947,11489,1668680425,679570544,,-0.0937007938110171,-0.6112083496425713,0.07857876079930198,0.9955612151427042,0.09352316533292532,-0.004347611689414634,0.009611593119274902
1668680425.6877582,11490,1668680425,687628969,,-0.09358027721820883,-0.6110948188964686,0.07857592163205841,0.9955612151502713,0.09352316532872193,-0.004347611333590393,0.0096115925373457
1668680425.6959214,11491,1668680425,695815478,,-0.09345822852403506,-0.6109798488454956,0.0785733290353624,0.9955612151578107,0.09352316532454069,-0.004347610979975781,0.009611591957051135
1668680425.7033756,11492,1668680425,703271605,,-0.09333464734125752,-0.6108634394326259,0.0785710314278739,0.9955612151653214,0.09352316532038135,-0.0043476106286201785,0.009611591378499491
1668680425.7116587,11493,1668680425,711572063,,-0.09320953335683814,-0.610745590667793,0.0785690317440538,0.995561215172802,0.09352316531624463,-0.00434761027957188,0.009611590801796929
1668680425.7198906,11494,1668680425,719772294,,-0.09308288632731,-0.6106263026209326,0.07856721461353433,0.9955612151802513,0.09352316531213095,-0.004347609932879262,0.009611590227049967
1668680425.7279732,11495,1668680425,727802765,,-0.09295470607619725,-0.6105055754207833,0.07856542252378168,0.995561215187668,0.09352316530804035,-0.004347609588589474,0.009611589654363234
1668680425.73615,11496,1668680425,735957736,,-0.09282499249745643,-0.6103834092710967,0.07856357937324393,0.9955612151950509,0.09352316530397342,-0.0043476092467494174,0.009611589083840764
1668680425.7436278,11497,1668680425,743518426,,-0.09269374555358824,-0.610259804451012,0.07856175721454717,0.9955612152023989,0.09352316529993039,-0.004347608907405186,0.009611588515585618
1668680425.7517767,11498,1668680425,751625650,,-0.09256096527186813,-0.6101347613096879,0.0785600490961489,0.9955612152097106,0.0935231652959114,-0.004347608570602332,0.009611587949699489
1668680425.7604299,11499,1668680425,760153619,,-0.09242665173498033,-0.6100082802442806,0.07855849754213402,0.9955612152169848,0.093523165291917,-0.004347608236385873,0.009611587386283782
1668680425.768292,11500,1668680425,767978833,,-0.09229092889566737,-0.6098803617453561,0.07855719593916309,0.9955612152242235,0.09352316528794773,-0.0043476079046769886,0.009611586825166314
1668680425.7758076,11501,1668680425,775495534,,-0.09215392606993178,-0.6097510063824311,0.07855618054427115,0.9955612152314322,0.09352316528400424,-0.0043476075752661705,0.00961158626588723
1668680425.7836738,11502,1668680425,783494153,,-0.09201563813645124,-0.6096202147069645,0.07855542965149541,0.9955612152386092,0.09352316528008688,-0.004347607248191245,0.009611585708533049
1668680425.791858,11503,1668680425,791660925,,-0.09187605303691333,-0.6094879873177342,0.07855492316601666,0.9955612152457537,0.09352316527619613,-0.004347606923513016,0.009611585153241365
1668680425.7997577,11504,1668680425,799665626,,-0.09173508975816726,-0.6093543248444641,0.0785545667397651,0.9955612152528621,0.09352316527233194,-0.0043476066013539314,0.009611584600286889
1668680425.8077714,11505,1668680425,807645445,,-0.09159262825923599,-0.6092192279320304,0.07855423383039857,0.995561215259928,0.09352316526849407,-0.004347606281958453,0.009611584050213675
1668680425.8157783,11506,1668680425,815636225,,-0.0914486080391341,-0.6090826973074772,0.07855384868113596,0.9955612152669479,0.09352316526468231,-0.004347605965472716,0.009611583503349038
1668680425.8236718,11507,1668680425,823518043,,-0.09130302558608416,-0.6089447337747708,0.07855345499930264,0.9955612152739197,0.09352316526089736,-0.004347605651962958,0.009611582959843575
1668680425.831678,11508,1668680425,831541164,,-0.09115589725918755,-0.6088053382071377,0.07855312755994283,0.9955612152808435,0.09352316525713916,-0.0043476053414354815,0.009611582419716267
1668680425.8397362,11509,1668680425,839627275,,-0.09100723105863451,-0.6086645115055838,0.07855290054705304,0.9955612152877181,0.09352316525340827,-0.00434760503392207,0.009611581883042402
1668680425.8477497,11510,1668680425,847606493,,-0.09085701312297194,-0.6085222546159551,0.07855285441460985,0.9955612152945426,0.09352316524970479,-0.0043476047294685695,0.009611581349929316
1668680425.8555343,11511,1668680425,855367771,,-0.09070522957464777,-0.6083785685165525,0.07855304910831591,0.9955612153013144,0.09352316524602905,-0.004347604428154154,0.009611580820557446
1668680425.8638933,11512,1668680425,863692228,,-0.09055188910837109,-0.6082334542338992,0.07855349019412419,0.9955612153080333,0.09352316524238097,-0.004347604129999109,0.009611580294978122
1668680425.8715584,11513,1668680425,871432638,,-0.0903969969091644,-0.6080869128280422,0.07855417044466405,0.9955612153146983,0.09352316523876099,-0.004347603835035491,0.009611579773268542
1668680425.8798146,11514,1668680425,879701994,,-0.09024067687736473,-0.6079389454322844,0.07855507933622324,0.9955612153213121,0.0935231652351698,-0.0043476035431528615,0.009611579255191106
1668680425.8880033,11515,1668680425,887835184,,-0.09008310178979778,-0.6077895532574761,0.07855619189953938,0.9955612153278822,0.0935231652316082,-0.004347603254048239,0.00961157874008449
1668680425.8959897,11516,1668680425,895833485,,-0.08992428849013435,-0.6076387374854083,0.07855747112481859,0.99556121533441,0.09352316522807626,-0.004347602967671256,0.009611578227844765
1668680425.9037647,11517,1668680425,903458445,,-0.08976409815685676,-0.6074864992569716,0.07855878199235017,0.9955612153408891,0.09352316522457449,-0.004347602684258764,0.009611577719003863
1668680425.9121356,11518,1668680425,911900455,,-0.08960242561672757,-0.6073328397403195,0.07856001710073209,0.9955612153473127,0.09352316522110185,-0.004347602404088072,0.009611577214182855
1668680425.9203837,11519,1668680425,920218152,,-0.08943921692939605,-0.607177760196919,0.07856112583646523,0.9955612153536777,0.093523165217659,-0.004347602127261746,0.009611576713616636
1668680425.9278264,11520,1668680425,927724285,,-0.08927439702600913,-0.6070212618932227,0.0785619719166441,0.9955612153599793,0.09352316521424539,-0.004347601853966949,0.009611576217727577
1668680425.9357607,11521,1668680425,935605957,,-0.08910793176383823,-0.6068633461463624,0.07856239064923783,0.9955612153662148,0.0935231652108613,-0.004347601584310858,0.009611575726761665
1668680425.9433825,11522,1668680425,943221542,,-0.08893980841321833,-0.606704014322556,0.07856227150412563,0.9955612153723824,0.09352316520750686,-0.004347601318358202,0.009611575240870602
1668680425.9517605,11523,1668680425,951667991,,-0.08877002912401712,-0.6065432678399894,0.07856160759253111,0.995561215378481,0.09352316520418212,-0.004347601056146093,0.009611574760145656
1668680425.959981,11524,1668680425,959878982,,-0.08859859960830009,-0.6063811081556277,0.07856038877510818,0.9955612153845098,0.09352316520088726,-0.004347600797696806,0.009611574284646101
1668680425.9676538,11525,1668680425,967559349,,-0.08842552348636451,-0.6062175367486958,0.07855857796425708,0.995561215390468,0.09352316519762262,-0.004347600543039816,0.009611573814446486
1668680425.9755416,11526,1668680425,975383303,,-0.08825080717200307,-0.6060525551381941,0.07855619626521694,0.995561215396355,0.09352316519438832,-0.004347600292197922,0.009611573349606963
1668680425.9840646,11527,1668680425,983947054,,-0.08807445891977966,-0.6058861648792018,0.07855329309006981,0.9955612154021701,0.0935231651911845,-0.00434760004518895,0.009611572890178234
1668680425.9916732,11528,1668680425,991538632,,-0.08789648716498702,-0.6057183675619363,0.07854997446903449,0.9955612154079129,0.09352316518801157,-0.004347599802029172,0.009611572436206186
1668680425.9996886,11529,1668680425,999599858,,-0.08771689970259082,-0.6055491648126009,0.07854637017368747,0.9955612154135828,0.09352316518486965,-0.004347599562735224,0.009611571987738508
1668680426.0078526,11530,1668680426,7648587,,-0.08753570441879367,-0.6053785582763896,0.07854254166744172,0.9955612154191792,0.0935231651817587,-0.004347599327322965,0.009611571544821167
1668680426.015693,11531,1668680426,15594082,,-0.08735290907800883,-0.6052065496074428,0.07853837965048437,0.9955612154247017,0.09352316517867901,-0.004347599095807211,0.00961157110749878
1668680426.0234482,11532,1668680426,23270972,,-0.08716852121983856,-0.6050331404702984,0.07853371219204679,0.9955612154301495,0.09352316517563086,-0.00434759886820272,0.009611570675815298
1668680426.0317123,11533,1668680426,31577994,,-0.08698254814828185,-0.6048583325806416,0.07852851697232738,0.9955612154355226,0.0935231651726146,-0.004347598644523541,0.009611570249813881
1668680426.0396676,11534,1668680426,39561032,,-0.08679499687187277,-0.6046821276887445,0.07852276231014094,0.99556121544082,0.0935231651696298,-0.004347598424783931,0.00961156982953771
1668680426.0482688,11535,1668680426,48056742,,-0.08660587407721723,-0.6045045275603961,0.0785163757306122,0.9955612154460416,0.09352316516667727,-0.004347598208997617,0.00961156941502997
1668680426.055971,11536,1668680426,55778247,,-0.08641518618103576,-0.6043255340009726,0.07850935181440737,0.9955612154511867,0.0935231651637569,-0.004347597997178565,0.009611569006333665
1668680426.0633843,11537,1668680426,63241236,,-0.0862229393344974,-0.6041451488557179,0.07850177737476395,0.9955612154562549,0.09352316516086877,-0.004347597789340261,0.009611568603491848
1668680426.071841,11538,1668680426,71701789,,-0.0860291394319958,-0.603963374006136,0.07849375695477091,0.9955612154612455,0.09352316515801305,-0.004347597585496245,0.009611568206547056
1668680426.0799265,11539,1668680426,79786597,,-0.08583379211232578,-0.6037802113519415,0.07848536596556682,0.9955612154661583,0.09352316515519019,-0.004347597385659728,0.00961156781554178
1668680426.0877547,11540,1668680426,87619775,,-0.08563690277612607,-0.6035956628351385,0.0784767962527879,0.9955612154709927,0.09352316515239986,-0.004347597189843837,0.009611567430518976
1668680426.095411,11541,1668680426,95273720,,-0.08543847659935667,-0.6034097304383909,0.0784682818421179,0.9955612154757483,0.09352316514964237,-0.0043475969980615115,0.009611567051520477
1668680426.1037242,11542,1668680426,103617770,,-0.08523851853177228,-0.6032224161480092,0.07845991650689173,0.9955612154804245,0.09352316514691796,-0.004347596810325686,0.009611566678588769
1668680426.1120148,11543,1668680426,111819893,,-0.08503703330951945,-0.6030337219617717,0.07845174801168749,0.9955612154850209,0.09352316514422661,-0.004347596626648829,0.009611566311765598
1668680426.1197407,11544,1668680426,119600461,,-0.08483402547408177,-0.6028436499159883,0.07844388461831882,0.995561215489537,0.0935231651415687,-0.004347596447043363,0.009611565951093009
1668680426.1277406,11545,1668680426,127641167,,-0.08462949937848005,-0.6026522020731335,0.07843641666771049,0.9955612154939724,0.09352316513894397,-0.004347596271521738,0.00961156559661236
1668680426.135443,11546,1668680426,135355641,,-0.0844234591952383,-0.6024593805173953,0.07842942808567309,0.9955612154983264,0.09352316513635284,-0.004347596100095803,0.009611565248365185
1668680426.1439428,11547,1668680426,143731163,,-0.08421590892666805,-0.6022651873581458,0.07842296092901517,0.995561215502599,0.0935231651337952,-0.004347595932777737,0.00961156490639274
1668680426.1517642,11548,1668680426,151659115,,-0.0840068524119755,-0.6020696247250555,0.07841706627053036,0.9955612155067894,0.09352316513127137,-0.004347595769579012,0.009611564570735899
1668680426.1596565,11549,1668680426,159514655,,-0.08379629334218,-0.6018726947878295,0.07841183203870668,0.9955612155108972,0.09352316512878135,-0.0043475956105111895,0.009611564241435206
1668680426.1676097,11550,1668680426,167525521,,-0.08358423525820076,-0.6016743997258922,0.0784072341987101,0.9955612155149218,0.09352316512632508,-0.004347595455585534,0.009611563918531013
1668680426.1758208,11551,1668680426,175488848,,-0.08337068155929457,-0.6014747417305126,0.07840316279422,0.995561215518863,0.09352316512390291,-0.004347595304813327,0.009611563602063531
1668680426.1844652,11552,1668680426,184336981,,-0.08315563551693989,-0.6012737230244508,0.07839953973400937,0.9955612155227206,0.09352316512151469,-0.004347595158205355,0.00961156329207259
1668680426.1921127,11553,1668680426,191902966,,-0.08293910028386858,-0.601071345867889,0.07839631302838752,0.9955612155264935,0.09352316511916081,-0.004347595015772249,0.009611562988597703
1668680426.1997843,11554,1668680426,199669675,,-0.08272107889858168,-0.6008676125515781,0.07839346935808154,0.9955612155301817,0.093523165116841,-0.004347594877524323,0.009611562691677593
1668680426.207888,11555,1668680426,207703996,,-0.08250157429477258,-0.6006625254057797,0.07839103812487526,0.9955612155337847,0.09352316511455544,-0.004347594743472087,0.009611562401351404
1668680426.2153816,11556,1668680426,215287666,,-0.08228058930305031,-0.6004560867866691,0.0783890492537166,0.9955612155373023,0.09352316511230441,-0.004347594613625358,0.009611562117657306
1668680426.2237623,11557,1668680426,223620620,,-0.08205812665746746,-0.6002482990781696,0.07838751070477548,0.9955612155407336,0.09352316511008772,-0.004347594487993922,0.009611561840633515
1668680426.2317636,11558,1668680426,231631550,,-0.08183418900027628,-0.6000391646892056,0.07838643946051749,0.9955612155440784,0.09352316510790558,-0.00434759436658723,0.009611561570317511
1668680426.2396743,11559,1668680426,239585451,,-0.08160877889100987,-0.5998286860649253,0.07838587644816558,0.9955612155473366,0.09352316510575803,-0.004347594249414478,0.009611561306746728
1668680426.247915,11560,1668680426,247786104,,-0.08138189880522696,-0.5996168656671221,0.07838577750505615,0.9955612155505073,0.09352316510364493,-0.0043475941364849256,0.009611561049957832
1668680426.2555907,11561,1668680426,255458965,,-0.08115355113831006,-0.5994037059707832,0.07838599805449725,0.9955612155535905,0.09352316510156655,-0.004347594027807158,0.009611560799987547
1668680426.2639031,11562,1668680426,263782877,,-0.08092373821601252,-0.599189209481974,0.07838643565978466,0.9955612155565857,0.09352316509952284,-0.004347593923389781,0.00961156055687144
1668680426.2722018,11563,1668680426,271948215,,-0.08069246230301409,-0.5989733787503544,0.07838703186156758,0.9955612155594923,0.09352316509751417,-0.00434759382324116,0.00961156032064521
1668680426.279624,11564,1668680426,279530875,,-0.0804597256027438,-0.5987562163556115,0.0783877694344694,0.9955612155623101,0.09352316509554012,-0.004347593727369103,0.009611560091344016
1668680426.287683,11565,1668680426,287591094,,-0.0802255302660382,-0.5985377249215778,0.07838869211840337,0.9955612155650388,0.09352316509360101,-0.004347593635781518,0.00961155986900246
1668680426.2957015,11566,1668680426,295604106,,-0.07998987838986704,-0.5983179071004947,0.07838985897471921,0.995561215567678,0.0935231650916968,-0.004347593548485923,0.009611559653654686
1668680426.303694,11567,1668680426,303596175,,-0.07975277202153085,-0.5980967655746128,0.07839130445256709,0.9955612155702273,0.09352316508982751,-0.004347593465489546,0.009611559445334355
1668680426.311871,11568,1668680426,311652806,,-0.0795142131620362,-0.5978743030558359,0.0783931259971221,0.9955612155726863,0.09352316508799303,-0.004347593386799295,0.00961155924407462
1668680426.3197594,11569,1668680426,319647467,,-0.07927420377509412,-0.5976505223031976,0.07839547730049701,0.9955612155750547,0.09352316508619368,-0.0043475933124220035,0.00961155904990832
1668680426.3278725,11570,1668680426,327674353,,-0.07903274577599836,-0.597425426078885,0.07839833493723442,0.9955612155773321,0.09352316508442919,-0.004347593242363909,0.009611558862867495
1668680426.3357956,11571,1668680426,335593292,,-0.07878984103763824,-0.5971990171574834,0.07840160399102905,0.9955612155795183,0.09352316508269957,-0.004347593176631409,0.00961155868298381
1668680426.343633,11572,1668680426,343524052,,-0.07854549140259408,-0.5969712983545007,0.0784052378652108,0.9955612155816129,0.0935231650810052,-0.004347593115230324,0.009611558510288656
1668680426.3516803,11573,1668680426,351545438,,-0.0782996986832949,-0.5967422725185372,0.0784091965534763,0.9955612155836157,0.09352316507934573,-0.004347593058166357,0.009611558344812489
1668680426.3601117,11574,1668680426,359949891,,-0.07805246466249284,-0.5965119425248477,0.07841339448433575,0.995561215585526,0.09352316507772154,-0.0043475930054446615,0.009611558186585559
1668680426.3679988,11575,1668680426,367809720,,-0.07780379109561911,-0.5962803112751166,0.07841773110792866,0.9955612155873438,0.09352316507613222,-0.004347592957070675,0.009611558035637457
1668680426.3757753,11576,1668680426,375612535,,-0.07755367971732528,-0.5960473817106132,0.07842214946087939,0.9955612155890688,0.09352316507457814,-0.004347592913048928,0.009611557891997037
1668680426.3834984,11577,1668680426,383377281,,-0.07730213224738273,-0.595813156823792,0.07842676755324225,0.9955612155907008,0.09352316507305887,-0.0043475928733842,0.009611557755693145
