Time,header.seq,header.stamp.secs,header.stamp.nsecs,header.frame_id,wrench.force.x,wrench.force.y,wrench.force.z,wrench.torque.x,wrench.torque.y,wrench.torque.z
1668680423.8798745,11264,1668680423,879639076,,-6.404908626486543e-243,-7.214844657250838e-256,5e-324,5e-324,-5e-324,0.0
1668680423.8877635,11265,1668680423,887578681,,-3.388695018256611e-243,-3.817214198250453e-256,5e-324,5e-324,-5e-324,0.0
1668680423.8958032,11266,1668680423,895554319,,-1.792883333147001e-243,-2.0196033216988302e-256,5e-324,5e-324,-5e-324,0.0
1668680423.9039817,11267,1668680423,903726595,,-1.792883333147001e-243,-2.0196033216988302e-256,5e-324,5e-324,-5e-324,0.0
1668680423.911783,11268,1668680423,911561986,,-9.485747843811673e-244,-1.0685272990146551e-256,5e-324,5e-324,-5e-324,0.0
1668680423.920289,11269,1668680423,919897490,,-5.018698678984276e-244,-5.653340814369168e-257,5e-324,5e-324,-5e-324,0.0
1668680423.9278615,11270,1668680423,927625816,,-2.6552820974331793e-244,-2.9910571674569734e-257,5e-324,5e-324,-5e-324,0.0
1668680423.935564,11271,1668680423,935370412,,-2.6552820974331793e-244,-2.9910571674569734e-257,5e-324,5e-324,-5e-324,0.0
1668680423.943844,11272,1668680423,943640334,,-1.4048508324425018e-244,-1.5825019705616361e-257,5e-324,5e-324,-5e-324,0.0
1668680423.9517746,11273,1668680423,951528460,,-7.432753993717823e-245,-8.372666741641226e-258,5e-324,5e-324,-5e-324,0.0
1668680423.9608626,11274,1668680423,960502839,,-3.932505192389482e-245,-4.4297921690237e-258,5e-324,5e-324,-5e-324,0.0
1668680423.9681594,11275,1668680423,967952288,,-1.019336827203609,-2.3437047318686367e-258,0.6688231571777042,5e-324,-5e-324,0.0
1668680423.976055,11276,1668680423,975684392,,-2.1541100411634377,-0.4426050422489484,2.4358561781681956,5e-324,-5e-324,0.0
1668680423.9835134,11277,1668680423,983294867,,-2.1541100411634377,-0.4426050422489484,2.4358561781681956,5e-324,-5e-324,0.0
1668680423.9921212,11278,1668680423,991881267,,-2.7546479763023015,-0.6769510652537684,3.3705657118274557,5e-324,-5e-324,0.0
1668680423.9996977,11279,1668680423,999500940,,-3.635957254773244,-0.8923542346278992,4.671678412801981,5e-324,-5e-324,0.0
1668680424.008058,11280,1668680424,7730077,,-4.102186869309546,-1.0063510366919939,5.360099434322212,5e-324,-5e-324,0.0
1668680424.016115,11281,1668680424,15904305,,-4.37473276274984,-1.0816543330372148,5.710797806495776,5e-324,-5e-324,0.0
1668680424.0243652,11282,1668680424,24034975,,-4.37473276274984,-1.0816543330372148,5.710797806495776,5e-324,-5e-324,0.0
1668680424.0320802,11283,1668680424,31864068,,-4.382483405325691,-0.8577161636451989,6.313863740138716,5e-324,-5e-324,0.0
1668680424.0398781,11284,1668680424,39657106,,-4.3863481660906425,-0.7393712711918484,6.633064397911001,5e-324,-5e-324,0.0
1668680424.0477285,11285,1668680424,47451998,,-2.707372948598259,-0.39118493165831253,5.228775409841381,5e-324,-5e-324,0.0
1668680424.0558977,11286,1668680424,55669764,,-1.4785852712496463,-0.20696726626914383,4.200833718938879,5e-324,-5e-324,0.0
1668680424.0637305,11287,1668680424,63526964,,-1.4785852712496463,-0.20696726626914383,4.200833718938879,5e-324,-5e-324,0.0
1668680424.0718393,11288,1668680424,71578372,,-0.828493617681741,-0.10950178762084341,3.6569555397487976,5e-324,-5e-324,0.0
1668680424.0796547,11289,1668680424,79477124,,-0.43833758740686257,-0.05793496579583486,3.2783589280986436,5e-324,-5e-324,0.0
1668680424.087849,11290,1668680424,87588636,,-0.2319146900265897,-0.03065210472532652,3.0780343096938907,5e-324,-5e-324,0.0
1668680424.095555,11291,1668680424,95368994,,-0.2319146900265897,-0.03065210472532652,3.0780343096938907,5e-324,-5e-324,0.0
1668680424.1039011,11292,1668680424,103637546,,-0.1227009159043593,-0.01621734838686885,2.9393530154407475,5e-324,-5e-324,0.0
1668680424.1120965,11293,1668680424,111781450,,-0.07527654078041006,-0.008580239140438864,2.8844984490264425,5e-324,-5e-324,0.0
1668680424.1198752,11294,1668680424,119682626,,-0.05020463751322295,-0.004539614118836431,2.855460325648313,5e-324,-5e-324,0.0
1668680424.1280181,11295,1668680424,127756492,,-0.026562159580372124,-0.0024018090883752455,2.8015408199551484,5e-324,-5e-324,0.0
1668680424.1359103,11296,1668680424,135638092,,-0.014053449173641111,-0.0012707438883551023,2.7865875736082444,5e-324,-5e-324,0.0
1668680424.1435168,11297,1668680424,143294746,,-0.014053449173641111,-0.0012707438883551023,2.7865875736082444,5e-324,-5e-324,0.0
1668680424.1519494,11298,1668680424,151757708,,-0.007435368087392055,-0.0006723223913205373,2.7786758791880626,5e-324,-5e-324,0.0
1668680424.1602871,11299,1668680424,160059412,,-0.003933888251341252,-0.00035571085724919255,2.7506934133499357,5e-324,-5e-324,0.0
1668680424.1677017,11300,1668680424,167508249,,-0.0020813329739898232,-0.00018819872073044005,2.735914600695679,5e-324,-5e-324,0.0
1668680424.1754131,11301,1668680424,175185119,,-0.0020813329739898232,-0.00018819872073044005,2.735914600695679,5e-324,-5e-324,0.0
1668680424.1839783,11302,1668680424,183719230,,-0.001101187088153903,-9.957176668285282e-05,2.6620335410426827,5e-324,-5e-324,0.0
1668680424.1920002,11303,1668680424,191802409,,-0.0005826136510931964,-5.2681212081910084e-05,2.6079021805482148,5e-324,-5e-324,0.0
1668680424.1997197,11304,1668680424,199502300,,-0.0003082479535872514,-2.7872460225184724e-05,2.5792467256202496,5e-324,-5e-324,0.0
1668680424.2080414,11305,1668680424,207754548,,-0.00016308715168695758,-1.4746700166970362e-05,2.577878642102045,5e-324,-5e-324,0.0
1668680424.2155073,11306,1668680424,215311797,,-0.00016308715168695758,-1.4746700166970362e-05,2.577878642102045,5e-324,-5e-324,0.0
1668680424.223967,11307,1668680424,223735159,,-8.628579277116321e-05,-7.802151803522126e-06,2.5776987675879024,5e-324,-5e-324,0.0
1668680424.2317908,11308,1668680424,231610243,,-4.5651898124011035e-05,-4.127945375979644e-06,2.5775994544872,5e-324,-5e-324,0.0
1668680424.2398822,11309,1668680424,239605412,,-2.4153406202713695e-05,-2.184004292172243e-06,2.5301386380467585,5e-324,-5e-324,0.0
1668680424.2478426,11310,1668680424,247642874,,-1.2779031215932085e-05,-1.155508204149817e-06,2.505016514770997,5e-324,-5e-324,0.0
1668680424.2557824,11311,1668680424,255526505,,-1.2779031215932085e-05,-1.155508204149817e-06,2.505016514770997,5e-324,-5e-324,0.0
1668680424.2639935,11312,1668680424,263692621,,-6.761101827510321e-06,-6.11353748086972e-07,2.468225541358955,5e-324,-5e-324,0.0
1668680424.271979,11313,1668680424,271705271,,-3.5771489363741405e-06,-3.234537011141203e-07,2.4711275891386535,5e-324,-5e-324,0.0
1668680424.2799685,11314,1668680424,279784432,,-1.8925901191040908e-06,-1.711321752615459e-07,2.4726715083794355,5e-324,-5e-324,0.0
1668680424.28806,11315,1668680424,287822149,,-1.0013274321647645e-06,-9.054223621146866e-08,2.502073049058154,5e-324,-5e-324,0.0
1668680424.2959116,11316,1668680424,295550982,,-1.0013274321647645e-06,-9.054223621146866e-08,2.502073049058154,5e-324,-5e-324,0.0
1668680424.3040748,11317,1668680424,303847816,,-5.29780123168093e-07,-4.790388789042342e-08,2.4792912439655055,5e-324,-5e-324,0.0
1668680424.311713,11318,1668680424,311531015,,-2.8029490642958556e-07,-2.534488401256853e-08,2.4672567006004673,5e-324,-5e-324,0.0
1668680424.319682,11319,1668680424,319536704,,-1.4829781476237508e-07,-1.3409415684169722e-08,2.433944226514675,5e-324,-5e-324,0.0
1668680424.3277423,11320,1668680424,327540938,,-7.846108280537201e-08,-7.094624260331511e-09,2.416318296581679,5e-324,-5e-324,0.0
1668680424.3359315,11321,1668680424,335719932,,-4.151201772497952e-08,-3.753608254139299e-09,2.425969489198139,5e-324,-5e-324,0.0
1668680424.3435142,11322,1668680424,343301650,,-4.151201772497952e-08,-3.753608254139299e-09,2.425969489198139,5e-324,-5e-324,0.0
1668680424.3520212,11323,1668680424,351768427,,-2.1963087354703544e-08,-1.9859508281957006e-09,2.4354432041443057,5e-324,-5e-324,0.0
1668680424.3600166,11324,1668680424,359731954,,-1.1620182120419363e-08,-1.050722511509275e-09,2.4404600491898476,5e-324,-5e-324,0.0
1668680424.3677502,11325,1668680424,367512684,,-6.147980487943402e-09,-5.559139634868975e-10,2.433557116423548,5e-324,-5e-324,0.0
1668680424.3757162,11326,1668680424,375437864,,-6.147980487943402e-09,-5.559139634868975e-10,2.433557116423548,5e-324,-5e-324,0.0
1668680424.3840115,11327,1668680424,383760201,,-3.252760041833897e-09,-2.9412174138707757e-10,2.434742670694506,5e-324,-5e-324,0.0
1668680424.391789,11328,1668680424,391579184,,-1.7209631537543453e-09,-1.5561328629696465e-10,2.4353832657036367,5e-324,-5e-324,0.0
1668680424.399754,11329,1668680424,399499375,,-9.105234134978786e-10,-8.233153645133767e-11,2.4540925016808313,5e-324,-5e-324,0.0
1668680424.4076903,11330,1668680424,407501594,,-4.817377319899144e-10,-4.355978885698889e-11,2.4639841460156378,5e-324,-5e-324,0.0
1668680424.416228,11331,1668680424,415992953,,-2.548767434010936e-10,-2.3046517617061e-11,2.4836252139715542,5e-324,-5e-324,0.0
1668680424.4239838,11332,1668680424,423690574,,-2.548767434010936e-10,-2.3046517617061e-11,2.4836252139715542,5e-324,-5e-324,0.0
1668680424.4322002,11333,1668680424,431957707,,-1.3484962877706859e-10,-1.2193401029038385e-11,2.4836988678596397,5e-324,-5e-324,0.0
1668680424.4400878,11334,1668680424,439847734,,-7.134594603908917e-11,-6.451257891773177e-12,2.483707459278459,5e-324,-5e-324,0.0
1668680424.4480476,11335,1668680424,447773962,,-3.774755675914941e-11,-3.413217385949283e-12,2.4656949157661474,5e-324,-5e-324,0.0
1668680424.45556,11336,1668680424,455379069,,-3.774755675914941e-11,-3.413217385949283e-12,2.4656949157661474,5e-324,-5e-324,0.0
1668680424.463685,11337,1668680424,463484262,,-1.9971394597592708e-11,-1.8058575736993756e-12,2.479692596362362,5e-324,-5e-324,0.0
1668680424.4718587,11338,1668680424,471644964,,-1.056642168174444e-11,-9.554391671365559e-13,2.4870808215169484,5e-324,-5e-324,0.0
1668680424.479849,11339,1668680424,479574905,,-5.590459224610026e-12,-5.055016604817594e-13,2.45340978706938,5e-324,-5e-324,0.0
1668680424.4883232,11340,1668680424,488079267,,-2.9577879137668155e-12,-2.6744971060339014e-13,2.4355901602892636,5e-324,-5e-324,0.0
1668680424.495516,11341,1668680424,495283330,,-2.9577879137668155e-12,-2.6744971060339014e-13,2.4355901602892636,5e-324,-5e-324,0.0
1668680424.504068,11342,1668680424,503750137,,-1.564899946736544e-12,-1.4150170670788176e-13,2.4215083947953953,5e-324,-5e-324,0.0
1668680424.5115864,11343,1668680424,511450954,,-8.279538339776665e-13,-7.486541285114999e-14,2.3855056622480633,5e-324,-5e-324,0.0
1668680424.5197296,11344,1668680424,519526900,,-4.380519998277722e-13,-3.960962854634558e-14,2.366451126148106,5e-324,-5e-324,0.0
1668680424.5276723,11345,1668680424,527458482,,-2.3176359197617607e-13,-2.0956575457599642e-14,2.3660820816143353,5e-324,-5e-324,0.0
1668680424.5355086,11346,1668680424,535289235,,-2.3176359197617607e-13,-2.0956575457599642e-14,2.3660820816143353,5e-324,-5e-324,0.0
1668680424.5440557,11347,1668680424,543808471,,-1.2262097327901291e-13,-1.1087659011904232e-14,2.40413180640296,5e-324,-5e-324,0.0
1668680424.553355,11348,1668680424,551545093,,-6.48760357901167e-14,-5.866234328838295e-15,2.4242902573370015,5e-324,-5e-324,0.0
1668680424.560815,11349,1668680424,560547526,,-3.4324470824934097e-14,-3.1036944014867142e-15,2.4348035612674863,5e-324,-5e-324,0.0
1668680424.571464,11350,1668680424,571110932,,-1.8160315794005956e-14,-1.6420958314714312e-15,2.440369217692063,5e-324,-5e-324,0.0
1668680424.5762205,11351,1668680424,575935653,,-1.8160315794005956e-14,-1.6420958314714312e-15,2.440369217692063,5e-324,-5e-324,0.0
1668680424.5839124,11352,1668680424,583704794,,-9.608220077742608e-15,-8.687964634804893e-16,2.4528873546560748,5e-324,-5e-324,0.0
1668680424.5926769,11353,1668680424,592438971,,-5.083496020086109e-15,-4.596609287290168e-16,2.46407898519917,5e-324,-5e-324,0.0
1668680424.600588,11354,1668680424,600303198,,-2.689564932644914e-15,-2.431963967182599e-16,2.470029247404524,5e-324,-5e-324,0.0
1668680424.6085975,11355,1668680424,608317673,,-1.4229891197575302e-15,-1.286698165543076e-16,2.445077600686645,5e-324,-5e-324,0.0
1668680424.615966,11356,1668680424,615684427,,-1.4229891197575302e-15,-1.286698165543076e-16,2.445077600686645,5e-324,-5e-324,0.0
1668680424.6243546,11357,1668680424,624141812,,-7.528719646701481e-16,-6.807634453276463e-17,2.421796407454043,5e-324,-5e-324,0.0
1668680424.6324656,11358,1668680424,632258824,,-3.983278489739058e-16,-3.6017683160274337e-17,2.4095018008793554,5e-324,-5e-324,0.0
1668680424.6410196,11359,1668680424,640765087,,-2.1074642530711556e-16,-1.9056156865319663e-17,2.4077579816374852,5e-324,-5e-324,0.0
1668680424.647668,11360,1668680424,647444489,,-1.1150125680174868e-16,-1.0082189708309486e-17,2.406844985131678,5e-324,-5e-324,0.0
1668680424.6556087,11361,1668680424,655355383,,-1.1150125680174868e-16,-1.0082189708309486e-17,2.406844985131678,5e-324,-5e-324,0.0
1668680424.663759,11362,1668680424,663544405,,-5.899284056776711e-17,-5.3342628334119006e-18,2.40654776658189,5e-324,-5e-324,0.0
1668680424.6720808,11363,1668680424,671800030,,-3.121180279108216e-17,-2.822240088625608e-18,2.415769596129579,5e-324,-5e-324,0.0
1668680424.679735,11364,1668680424,679485980,,-1.6513472212790535e-17,-1.4931846004953757e-18,2.420636098666821,5e-324,-5e-324,0.0
1668680424.6879566,11365,1668680424,687738832,,-8.736911685233366e-18,-7.900108357692274e-19,2.4001268293719087,5e-324,-5e-324,0.0
1668680424.6961536,11366,1668680424,695884554,,-8.736911685233366e-18,-7.900108357692274e-19,2.4001268293719087,5e-324,-5e-324,0.0
1668680424.7046945,11367,1668680424,704413516,,-4.622506085452035e-18,-4.179772014965446e-19,2.384577848722051,5e-324,-5e-324,0.0
1668680424.7124906,11368,1668680424,712279877,,-2.4456653883952316e-18,-2.211424616736734e-19,2.3763387649973824,5e-324,-5e-324,0.0
1668680424.7206743,11369,1668680424,720453087,,-1.2939472834484088e-18,-1.1700156893723878e-19,2.381259485920042,5e-324,-5e-324,0.0
1668680424.7277322,11370,1668680424,727495448,,-6.845987927408742e-19,-6.190293365720063e-20,2.3838629400224836,5e-324,-5e-324,0.0
1668680424.7355988,11371,1668680424,735390246,,-6.845987927408742e-19,-6.190293365720063e-20,2.3838629400224836,5e-324,-5e-324,0.0
1668680424.7443368,11372,1668680424,743989083,,-3.622060288060793e-19,-3.2751468464694733e-20,2.40383718331525,5e-324,-5e-324,0.0
1668680424.7518852,11373,1668680424,751620051,,-1.9163517186208062e-19,-1.732807515285054e-20,2.419042139581114,5e-324,-5e-324,0.0
1668680424.7598872,11374,1668680424,759681759,,-1.0138991671580039e-19,-9.167900023368767e-21,2.4270911769099905,5e-324,-5e-324,0.0
1668680424.7677858,11375,1668680424,767545081,,-5.364315491644389e-20,-4.850532450781667e-21,2.4132229198245407,5e-324,-5e-324,0.0
1668680424.7754612,11376,1668680424,775234022,,-5.364315491644389e-20,-4.850532450781667e-21,2.4132229198245407,5e-324,-5e-324,0.0
1668680424.7840335,11377,1668680424,783818567,,-2.8381402831758724e-20,-2.566309077991091e-21,2.429153049353445,5e-324,-5e-324,0.0
1668680424.7920797,11378,1668680424,791821839,,-1.5015970405790602e-20,-1.357777182321119e-21,2.4375749630653893,5e-324,-5e-324,0.0
1668680424.8001378,11379,1668680424,799893901,,-7.944616711308868e-21,-7.183697757383988e-22,2.4227002866042113,5e-324,-5e-324,0.0
1668680424.8080046,11380,1668680424,807800329,,-4.203320397146519e-21,-3.800735064734566e-22,2.4148282584434413,5e-324,-5e-324,0.0
1668680424.8154485,11381,1668680424,815213604,,-4.203320397146519e-21,-3.800735064734566e-22,2.4148282584434413,5e-324,-5e-324,0.0
1668680424.8238213,11382,1668680424,823573086,,-2.223883543169347e-21,-2.010884577856093e-22,2.38698082442669,5e-324,-5e-324,0.0
1668680424.8319085,11383,1668680424,831665735,,-1.1766074308627236e-21,-1.063914405131492e-22,2.377321644363538,5e-324,-5e-324,0.0
1668680424.839819,11384,1668680424,839666528,,-6.225168807123807e-22,-5.628935016514412e-23,2.3722123848450973,5e-324,-5e-324,0.0
1668680424.8477654,11385,1668680424,847573991,,-3.2935986685697364e-22,-2.9781446014189536e-23,2.3845961554577517,5e-324,-5e-324,0.0
1668680424.8560202,11386,1668680424,855742200,,-1.7425699648804073e-22,-1.575670218423128e-23,2.405138587549765,5e-324,-5e-324,0.0
1668680424.8635497,11387,1668680424,863328833,,-1.7425699648804073e-22,-1.575670218423128e-23,2.405138587549765,5e-324,-5e-324,0.0
1668680424.87219,11388,1668680424,871869133,,-9.219550977721104e-23,-8.336521457160524e-24,2.416021339510505,5e-324,-5e-324,0.0
1668680424.8800564,11389,1668680424,879774508,,-4.8778598245053376e-23,-4.4106685011314375e-24,2.4263078198420294,5e-324,-5e-324,0.0
1668680424.8879564,11390,1668680424,887669314,,-2.580767384986524e-23,-2.3335868235741582e-24,2.431751296405347,5e-324,-5e-324,0.0
1668680424.8956594,11391,1668680424,895385830,,-2.580767384986524e-23,-2.3335868235741582e-24,2.431751296405347,5e-324,-5e-324,0.0
1668680424.9041235,11392,1668680424,903855088,,-1.365426751697525e-23,-1.234649002019082e-24,2.4204072488263058,5e-324,-5e-324,0.0
1668680424.9117208,11393,1668680424,911535931,,-7.224169931382598e-24,-6.532253879682026e-25,2.3950930815314386,5e-324,-5e-324,0.0
1668680424.9197733,11394,1668680424,919536344,,-3.82214799384958e-24,-3.4560705657105773e-25,2.381683559392883,5e-324,-5e-324,0.0
1668680424.927887,11395,1668680424,927648627,,-2.0222136834608574e-24,-1.8285302401247844e-25,2.3943341316194466,5e-324,-5e-324,0.0
1668680424.935509,11396,1668680424,935317349,,-2.0222136834608574e-24,-1.8285302401247844e-25,2.3943341316194466,5e-324,-5e-324,0.0
1668680424.9438195,11397,1668680424,943610771,,-1.0699083834944944e-24,-9.674347717964967e-26,2.3866861221425566,5e-324,-5e-324,0.0
1668680424.951731,11398,1668680424,951524029,,-5.660647825865427e-25,-5.118482687040871e-26,2.382626107807347,5e-324,-5e-324,0.0
1668680424.960372,11399,1668680424,960124041,,-2.9949231450844013e-25,-2.7080756017159326e-26,2.3894210110551555,5e-324,-5e-324,0.0
1668680424.9678152,11400,1668680424,967598085,,-1.5845473735315678e-25,-1.432782703979194e-26,2.3930017007176243,5e-324,-5e-324,0.0
1668680424.9760242,11401,1668680424,975798085,,-8.383488514844784e-26,-7.580535327452314e-27,2.394846844224354,5e-324,-5e-324,0.0
1668680424.9835567,11402,1668680424,983307270,,-8.383488514844784e-26,-7.580535327452314e-27,2.394846844224354,5e-324,-5e-324,0.0
1668680424.9919908,11403,1668680424,991772827,,-4.43551772907181e-26,-4.0106930165446096e-27,2.401068300845805,5e-324,-5e-324,0.0
1668680424.9998827,11404,1668680424,999617309,,-2.3467339986299958e-26,-2.121968670828134e-27,2.4043635065820563,5e-324,-5e-324,0.0
1668680425.007942,11405,1668680425,7708640,,-1.2416048805825367e-26,-1.1226865335745486e-27,2.40565460979607,5e-324,-5e-324,0.0
1668680425.0156093,11406,1668680425,15384604,,-1.2416048805825367e-26,-1.1226865335745486e-27,2.40565460979607,5e-324,-5e-324,0.0
1668680425.0243587,11407,1668680425,24074002,,-6.569055889531317e-27,-5.939885305553234e-28,2.401898303397151,5e-324,-5e-324,0.0
1668680425.032012,11408,1668680425,31793181,,-3.475541692421488e-27,-3.1426614988238323e-28,2.3999052114844233,5e-324,-5e-324,0.0
1668680425.0401351,11409,1668680425,39674709,,-1.838831981169496e-27,-1.6627124579251092e-28,2.4264521537488104,5e-324,-5e-324,0.0
1668680425.0478382,11410,1668680425,47634009,,-9.728851943697745e-28,-8.797042630184758e-29,2.4404763132745004,5e-324,-5e-324,0.0
1668680425.0556328,11411,1668680425,55359241,,-9.728851943697745e-28,-8.797042630184758e-29,2.4404763132745004,5e-324,-5e-324,0.0
1668680425.0638697,11412,1668680425,63627071,,-5.147319663332899e-28,-4.6543200340159855e-29,2.4339141925139116,5e-324,-5e-324,0.0
1668680425.0718172,11413,1668680425,71610227,,-2.7233326059295876e-28,-2.462497442573789e-29,2.3940634098715883,5e-324,-5e-324,0.0
1668680425.0799325,11414,1668680425,79702551,,-1.4408548463292863e-28,-1.3028527497818436e-29,2.372953722389658,5e-324,-5e-324,0.0
1668680425.0879502,11415,1668680425,87707170,,-7.623243241278433e-29,-6.8931047735017e-30,2.3896206257413652,5e-324,-5e-324,0.0
1668680425.0957344,11416,1668680425,95486800,,-7.623243241278433e-29,-6.8931047735017e-30,2.3896206257413652,5e-324,-5e-324,0.0
1668680425.1037989,11417,1668680425,103584662,,-4.03328882598742e-29,-3.646988765724144e-30,2.39806187811337,5e-324,-5e-324,0.0
1668680425.1118736,11418,1668680425,111665165,,-2.1339236121641717e-29,-1.9295408229463832e-30,2.4025382868754726,5e-324,-5e-324,0.0
1668680425.119913,11419,1668680425,119707495,,-1.1290116277345888e-29,-1.0208772295675948e-30,2.405918311843818,5e-324,-5e-324,0.0
1668680425.1306722,11420,1668680425,127607824,,-5.973349975106045e-30,-5.401234871300607e-31,2.407709241278292,5e-324,-5e-324,0.0
1668680425.136031,11421,1668680425,135748309,,-3.160366912845238e-30,-2.8576735076469887e-31,2.408837446456632,5e-324,-5e-324,0.0
1668680425.1436024,11422,1668680425,143348733,,-3.160366912845238e-30,-2.8576735076469887e-31,2.408837446456632,5e-324,-5e-324,0.0
1668680425.15181,11423,1668680425,151537440,,-1.6720799995700274e-30,-1.51193163617064e-31,2.4049916755201384,5e-324,-5e-324,0.0
1668680425.1602707,11424,1668680425,159930713,,-8.84660421420826e-31,-7.999294763158133e-32,2.4029714972757166,5e-324,-5e-324,0.0
1668680425.1678114,11425,1668680425,167590976,,-4.680541968265417e-31,-4.2322493409792774e-32,2.39205259937002,5e-324,-5e-324,0.0
1668680425.1755586,11426,1668680425,175353380,,-4.680541968265417e-31,-4.2322493409792774e-32,2.39205259937002,5e-324,-5e-324,0.0
1668680425.1840985,11427,1668680425,183820930,,-2.476370886075019e-31,-2.2391892053678833e-32,2.376792024482536,5e-324,-5e-324,0.0
1668680425.1926253,11428,1668680425,192276833,,-1.3101928808626008e-31,-1.1847053170728116e-32,2.3687127305419393,5e-324,-5e-324,0.0
1668680425.1999447,11429,1668680425,199685580,,-6.931939778147749e-32,-6.268012926000156e-33,2.3407182579489145,5e-324,-5e-324,0.0
1668680425.207833,11430,1668680425,207530309,,-3.667535504866342e-32,-3.316266541081997e-33,2.3258923785726027,5e-324,-5e-324,0.0
1668680425.2156198,11431,1668680425,215400156,,-3.667535504866342e-32,-3.316266541081997e-33,2.3258923785726027,5e-324,-5e-324,0.0
1668680425.223815,11432,1668680425,223581029,,-1.9404116466587863e-32,-1.7545630331872868e-33,2.332233873955585,5e-324,-5e-324,0.0
1668680425.2318387,11433,1668680425,231616393,,-1.0266287411514179e-32,-9.283003640663195e-34,2.354206962265624,5e-324,-5e-324,0.0
1668680425.239912,11434,1668680425,239677567,,-5.4316648427305636e-33,-4.911431220343491e-34,2.365832389246611,5e-324,-5e-324,0.0
1668680425.247952,11435,1668680425,247717223,,-2.8737733302367998e-33,-2.5985292655170626e-34,2.3867218976482745,5e-324,-5e-324,0.0
1668680425.2559774,11436,1668680425,255708646,,-1.5204496950199567e-33,-1.3748241685193357e-34,2.4018450804264075,5e-324,-5e-324,0.0
1668680425.263876,11437,1668680425,263633595,,-1.5204496950199567e-33,-1.3748241685193357e-34,2.4018450804264075,5e-324,-5e-324,0.0
1668680425.2717118,11438,1668680425,271492199,,-8.044361922225053e-34,-7.273889578337217e-35,2.409825258276646,5e-324,-5e-324,0.0
1668680425.279774,11439,1668680425,279585719,,-4.256093374723257e-34,-3.848453555688176e-35,2.4138567537072326,5e-324,-5e-324,0.0
1668680425.2880216,11440,1668680425,287802613,,-2.25180455448141e-34,-2.0361313724636732e-35,2.4159803498110985,5e-324,-5e-324,0.0
1668680425.2956614,11441,1668680425,295424399,,-2.25180455448141e-34,-2.0361313724636732e-35,2.4159803498110985,5e-324,-5e-324,0.0
1668680425.3038404,11442,1668680425,303637263,,-1.1913798183323286e-34,-1.077271923888256e-35,2.417028829922663,5e-324,-5e-324,0.0
1668680425.3120258,11443,1668680425,311810274,,-6.30332623097681e-35,-5.699606683991651e-36,2.428321461483658,5e-324,-5e-324,0.0
1668680425.3200936,11444,1668680425,319834109,,-3.3349500270817354e-35,-3.0155354123544376e-36,2.434305708844972,5e-324,-5e-324,0.0
1668680425.329999,11445,1668680425,329709145,,-1.764448051010829e-35,-1.5954528667222272e-36,2.432255761341908,5e-324,-5e-324,0.0
1668680425.3360267,11446,1668680425,335711667,,-9.335303076310867e-36,-8.441187059198712e-37,2.4264453539726283,5e-324,-5e-324,0.0
1668680425.3445399,11447,1668680425,344023412,,-9.335303076310867e-36,-8.441187059198712e-37,2.4264453539726283,5e-324,-5e-324,0.0
1668680425.351682,11448,1668680425,351491395,,-4.9391016911296e-36,-4.466044748458825e-37,2.4233428480727195,5e-324,-5e-324,0.0
1668680425.3598835,11449,1668680425,359673391,,-2.6131690975543137e-36,-2.3628851671402246e-37,2.3884773847671745,5e-324,-5e-324,0.0
1668680425.367839,11450,1668680425,367605511,,-1.3825697787670121e-36,-1.2501501054188914e-37,2.370031030690403,5e-324,-5e-324,0.0
1668680425.3756146,11451,1668680425,375376639,,-1.3825697787670121e-36,-1.2501501054188914e-37,2.370031030690403,5e-324,-5e-324,0.0
1668680425.3838844,11452,1668680425,383667032,,-7.3148698832725846e-37,-6.614266777807054e-38,2.3510849714224116,5e-324,-5e-324,0.0
1668680425.3919048,11453,1668680425,391681134,,-3.870135325605524e-37,-3.499461770100252e-38,2.3605325983775254,5e-324,-5e-324,0.0
1668680425.3998811,11454,1668680425,399671271,,-2.0476027157709087e-37,-1.8514875634413706e-38,2.3655421154153395,5e-324,-5e-324,0.0
1668680425.4096758,11455,1668680425,407768092,,-1.083341157063135e-37,-9.795809821005299e-39,2.3870004990482188,5e-324,-5e-324,0.0
1668680425.4155393,11456,1668680425,415284510,,-1.083341157063135e-37,-9.795809821005299e-39,2.3870004990482188,5e-324,-5e-324,0.0
1668680425.4241393,11457,1668680425,423897681,,-5.731717649851958e-38,-5.18274559030504e-39,2.3892274765685086,5e-324,-5e-324,0.0
1668680425.4319947,11458,1668680425,431750399,,-3.032524611793169e-38,-2.7420756777278606e-39,2.390431477918263,5e-324,-5e-324,0.0
1668680425.4398866,11459,1668680425,439662089,,-1.6044414751254947e-38,-1.4507713896765215e-39,2.381465350334311,5e-324,-5e-324,0.0
1668680425.4477952,11460,1668680425,447597272,,-8.488743791532489e-39,-7.675709471475906e-40,2.3767261340948336,5e-324,-5e-324,0.0
1668680425.455825,11461,1668680425,455536974,,-8.488743791532489e-39,-7.675709471475906e-40,2.3767261340948336,5e-324,-5e-324,0.0
1668680425.4639087,11462,1668680425,463664873,,-4.491205960170355e-39,-4.06104754406837e-40,2.3650719522132038,5e-324,-5e-324,0.0
1668680425.4723685,11463,1668680425,472030140,,-2.3761974058859213e-39,-2.1486101338867624e-40,2.3452343334930736,5e-324,-5e-324,0.0
1668680425.4801266,11464,1668680425,479914430,,-1.2571933155176015e-39,-1.1367819404586536e-40,2.3347619938058086,5e-324,-5e-324,0.0
1668680425.4879735,11465,1668680425,487654077,,-6.651530839429e-40,-6.014460975362077e-41,2.3382031794565075,5e-324,-5e-324,0.0
1668680425.4959965,11466,1668680425,495785512,,-3.5191773581503448e-40,-3.182117830756393e-41,2.3496510247054623,5e-324,-5e-324,0.0
1668680425.5037465,11467,1668680425,503490708,,-3.5191773581503448e-40,-3.182117830756393e-41,2.3496510247054623,5e-324,-5e-324,0.0
1668680425.5119348,11468,1668680425,511738929,,-1.8619186435556236e-40,-1.6835879275462728e-41,2.355708923976013,5e-324,-5e-324,0.0
1668680425.5197153,11469,1668680425,519507885,,-9.85099835105244e-41,-8.907490107322007e-42,2.3445285242400056,5e-324,-5e-324,0.0
1668680425.5278695,11470,1668680425,527619997,,-5.2119446168239e-41,-4.712755343148462e-42,2.319650017741904,5e-324,-5e-324,0.0
1668680425.5362275,11471,1668680425,535854169,,-2.7575242346820105e-41,-2.493414267855047e-42,2.3064813473398105,5e-324,-5e-324,0.0
1668680425.543629,11472,1668680425,543356298,,-2.7575242346820105e-41,-2.493414267855047e-42,2.3064813473398105,5e-324,-5e-324,0.0
1668680425.552081,11473,1668680425,551845562,,-1.4589448783307222e-41,-1.3192101559402482e-42,2.314761266520633,5e-324,-5e-324,0.0
1668680425.5599585,11474,1668680425,559717613,,-7.718953586106563e-42,-6.979648179494038e-43,2.319148041758886,5e-324,-5e-324,0.0
1668680425.5678425,11475,1668680425,567595534,,-4.083927045457636e-42,-3.692776961286594e-43,2.3307107913093605,5e-324,-5e-324,0.0
1668680425.575878,11476,1668680425,575640168,,-2.160715170336054e-42,-1.953766341099099e-43,2.3373437415601312,5e-324,-5e-324,0.0
1668680425.583678,11477,1668680425,583406697,,-2.160715170336054e-42,-1.953766341099099e-43,2.3373437415601312,5e-324,-5e-324,0.0
1668680425.5919805,11478,1668680425,591694406,,-1.1431864466122458e-42,-1.033694413615984e-43,2.340833212708733,5e-324,-5e-324,0.0
1668680425.5999758,11479,1668680425,599748447,,-6.048345796149874e-43,-5.469047747745466e-44,2.3141963423322833,5e-324,-5e-324,0.0
1668680425.6079004,11480,1668680425,607694964,,-3.200045537472346e-43,-2.893551795688765e-44,2.3327834750865604,5e-324,-5e-324,0.0
1668680425.616129,11481,1668680425,615811683,,-1.693073079322816e-43,-1.5309140421721818e-44,2.3425878372637117,5e-324,-5e-324,0.0
1668680425.6240606,11482,1668680425,623766081,,-1.693073079322816e-43,-1.5309140421721818e-44,2.3425878372637117,5e-324,-5e-324,0.0
1668680425.6320317,11483,1668680425,631838554,,-8.957673940452211e-44,-8.099726460787573e-45,2.343592364229051,5e-324,-5e-324,0.0
1668680425.6398094,11484,1668680425,639558204,,-4.739306495591463e-44,-4.28538552344167e-45,2.3441380882086413,5e-324,-5e-324,0.0
1668680425.6479013,11485,1668680425,647622408,,-2.507461893396573e-44,-2.2673023803248006e-45,2.35879219090343,5e-324,-5e-324,0.0
1668680425.6554694,11486,1668680425,655300589,,-2.507461893396573e-44,-2.2673023803248006e-45,2.35879219090343,5e-324,-5e-324,0.0
1668680425.6639163,11487,1668680425,663696891,,-1.3266424428731246e-44,-1.1995793740624647e-45,2.3613700490289897,5e-324,-5e-324,0.0
1668680425.6719537,11488,1668680425,671647050,,-7.01897076030267e-45,-6.346708260721506e-46,2.3627093557603813,5e-324,-5e-324,0.0
1668680425.6797462,11489,1668680425,679570544,,-3.713581666156256e-45,-3.357902496297265e-46,2.3685596588747675,5e-324,-5e-324,0.0
1668680425.687879,11490,1668680425,687628969,,-1.964773648753197e-45,-1.776591693117714e-46,2.381399000689975,5e-324,-5e-324,0.0
1668680425.6960394,11491,1668680425,695815478,,-1.0395181358245427e-45,-9.399552391813852e-47,2.388186938447973,5e-324,-5e-324,0.0
1668680425.7034812,11492,1668680425,703271605,,-1.0395181358245427e-45,-9.399552391813852e-47,2.388186938447973,5e-324,-5e-324,0.0
1668680425.7117667,11493,1668680425,711572063,,-5.49985976956611e-46,-4.973094578158622e-47,2.358254296326579,5e-324,-5e-324,0.0
1668680425.7199893,11494,1668680425,719772294,,-2.9098537526619294e-46,-2.631153979720322e-47,2.3423423513754633,5e-324,-5e-324,0.0
1668680425.728034,11495,1668680425,727802765,,-1.5395390458380183e-46,-1.3920851808053572e-47,2.3339825729694024,5e-324,-5e-324,0.0
1668680425.7361891,11496,1668680425,735957736,,-8.145359441145793e-47,-7.365213763824924e-48,2.362466362975067,5e-324,-5e-324,0.0
1668680425.7437189,11497,1668680425,743518426,,-8.145359441145793e-47,-7.365213763824924e-48,2.362466362975067,5e-324,-5e-324,0.0
1668680425.7518632,11498,1668680425,751625650,,-4.309528920674321e-47,-3.8967711555878484e-48,2.377522399059785,5e-324,-5e-324,0.0
1668680425.7605262,11499,1668680425,760153619,,-0.03869930259980598,-2.061695142319349e-48,2.3945666965767383,5e-324,-5e-324,0.0
1668680425.7683759,11500,1668680425,767978833,,-0.04350084880909852,-1.0907971472145579e-48,2.3942255521608917,5e-324,-5e-324,0.0
1668680425.7759197,11501,1668680425,775495534,,-0.04350084880909852,-1.0907971472145579e-48,2.3942255521608917,5e-324,-5e-324,0.0
1668680425.783726,11502,1668680425,783494153,,-0.04613748846313977,-5.771165639129765e-49,2.3940153757174527,5e-324,-5e-324,0.0
1668680425.7919738,11503,1668680425,791660925,,-0.02441032127505591,-3.05339566750084e-49,2.3704626602468872,5e-324,-5e-324,0.0
1668680425.799877,11504,1668680425,799665626,,-0.012914959279317852,-1.6154838875355432e-49,2.357950723179546,5e-324,-5e-324,0.0
1668680425.8078928,11505,1668680425,807645445,,-0.00683301834936854,-8.547166745091458e-50,2.3471615921839337,5e-324,-5e-324,0.0
1668680425.815895,11506,1668680425,815636225,,-0.011616363490356489,-4.522116248391861e-50,2.3700849703774276,5e-324,-5e-324,0.0
1668680425.8237667,11507,1668680425,823518043,,-0.011616363490356489,-4.522116248391861e-50,2.3700849703774276,5e-324,-5e-324,0.0
1668680425.831791,11508,1668680425,831541164,,-0.014156066803812532,-2.3925513534310796e-50,2.3822051152130914,5e-324,-5e-324,0.0
1668680425.8398378,11509,1668680425,839627275,,-0.007489660798252779,-1.2658458262413193e-50,2.3975752170665103,5e-324,-5e-324,0.0
1668680425.8478463,11510,1668680425,847606493,,-0.009640150480602051,-6.697309353526176e-51,2.4053844111346017,5e-324,-5e-324,0.0
1668680425.8556125,11511,1668680425,855367771,,-0.009640150480602051,-6.697309353526176e-51,2.4053844111346017,5e-324,-5e-324,0.0
1668680425.8639529,11512,1668680425,863692228,,-0.01086337894918531,-3.5433977540546327e-51,2.409483053264081,5e-324,-5e-324,0.0
1668680425.8716397,11513,1668680425,871432638,,-0.04805712492595028,-1.8747331175360408e-51,2.4084206522086555,5e-324,-5e-324,0.0
1668680425.8799248,11514,1668680425,879701994,,-0.0676597610597374,-9.918796889129071e-52,2.407882035918079,5e-324,-5e-324,0.0
1668680425.8880668,11515,1668680425,887835184,,-0.06051275287450268,-5.2478153187532406e-52,2.402568478023883,5e-324,-5e-324,0.0
1668680425.8960943,11516,1668680425,895833485,,-0.03201595466308898,-2.7765026270398114e-52,2.370587641444021,5e-324,-5e-324,0.0
1668680425.9037628,11517,1668680425,903458445,,-0.03201595466308898,-2.7765026270398114e-52,2.370587641444021,5e-324,-5e-324,0.0
1668680425.9122097,11518,1668680425,911900455,,-0.016938931122746297,-1.4689859245638328e-52,2.3536614780958027,5e-324,-5e-324,0.0
1668680425.9204433,11519,1668680425,920218152,,-0.008962012552820739,-7.772078533443854e-53,2.325554891664169,5e-324,-5e-324,0.0
1668680425.9279246,11520,1668680425,927724285,,-0.004741601959114328,-4.112034276159189e-53,2.296219057285754,5e-324,-5e-324,0.0
1668680425.9358346,11521,1668680425,935605957,,-0.0025086763722062086,-2.1755860823521073e-53,2.280710585556161,5e-324,-5e-324,0.0
1668680425.9434412,11522,1668680425,943221542,,-0.0025086763722062086,-2.1755860823521073e-53,2.280710585556161,5e-324,-5e-324,0.0
1668680425.951865,11523,1668680425,951667991,,-0.0013272849966599143,-1.1510543161486417e-53,2.263683039877658,5e-324,-5e-324,0.0
1668680425.9600892,11524,1668680425,959878982,,-0.0007022370369794759,-6.089972947850402e-54,2.2546643633611714,5e-324,-5e-324,0.0
1668680425.967766,11525,1668680425,967559349,,-0.0003715380324095297,-3.22206953965849e-54,2.254546607469639,5e-324,-5e-324,0.0
1668680425.9756048,11526,1668680425,975383303,,-0.0003715380324095297,-3.22206953965849e-54,2.254546607469639,5e-324,-5e-324,0.0
1668680425.984163,11527,1668680425,983947054,,-0.00019657252787534077,-1.7047254901287448e-54,2.2730243510020127,5e-324,-5e-324,0.0
1668680425.9917257,11528,1668680425,991538632,,-0.0001040021622139336,-9.019324260154572e-55,2.2828108849041895,5e-324,-5e-324,0.0
1668680425.9997969,11529,1668680425,999599858,,-5.5025236039253467e-05,-4.7719243116185944e-55,2.2829642372059293,5e-324,-5e-324,0.0
1668680426.0079017,11530,1668680426,7648587,,-2.9112631283063027e-05,-2.5247192560106875e-55,2.2407533056829254,5e-324,-5e-324,0.0
1668680426.015825,11531,1668680426,15594082,,-1.5402847152149692e-05,-1.335772930461482e-55,2.218416985786661,5e-324,-5e-324,0.0
1668680426.0235186,11532,1668680426,23270972,,-1.5402847152149692e-05,-1.335772930461482e-55,2.218416985786661,5e-324,-5e-324,0.0
1668680426.031818,11533,1668680426,31577994,,-8.149304612342287e-06,-7.067278143919309e-56,2.1922829243959274,5e-324,-5e-324,0.0
1668680426.0398073,11534,1668680426,39561032,,-4.311616223204204e-06,-3.7391400308032967e-56,2.178399333080554,5e-324,-5e-324,0.0
1668680426.0483255,11535,1668680426,48056742,,-2.281180461464491e-06,-1.9782960123035605e-56,2.17104841878022,5e-324,-5e-324,0.0
1668680426.0560246,11536,1668680426,55778247,,-1.2069219588148138e-06,-1.0466725182943685e-56,2.185468786060105,5e-324,-5e-324,0.0
1668680426.0635552,11537,1668680426,63241236,,-1.2069219588148138e-06,-1.0466725182943685e-56,2.185468786060105,5e-324,-5e-324,0.0
1668680426.0719185,11538,1668680426,71701789,,-6.385556247199436e-07,-5.537712019532556e-57,2.193086564949533,5e-324,-5e-324,0.0
1668680426.0799856,11539,1668680426,79786597,,-3.3784561038386224e-07,-2.929880538112179e-57,2.2311161064627836,5e-324,-5e-324,0.0
1668680426.0878599,11540,1668680426,87619775,,-1.7874661507476907e-07,-1.5501347735906846e-57,2.2565519579925013,5e-324,-5e-324,0.0
1668680426.0955184,11541,1668680426,95273720,,-1.7874661507476907e-07,-1.5501347735906846e-57,2.2565519579925013,5e-324,-5e-324,0.0
1668680426.103835,11542,1668680426,103617770,,-9.457086733903535e-08,-8.201419085309615e-58,2.2700080449824345,5e-324,-5e-324,0.0
1668680426.1120777,11543,1668680426,111819893,,-5.003534721771558e-08,-4.339188834340786e-58,2.2902217482637974,5e-324,-5e-324,0.0
1668680426.1199007,11544,1668680426,119600461,,-2.6472591841864084e-08,-2.295768518132852e-58,2.300938951918904,5e-324,-5e-324,0.0
1668680426.1278563,11545,1668680426,127641167,,-1.400606087085978e-08,-1.214640175863796e-58,2.3216195395696886,5e-324,-5e-324,0.0
1668680426.1355643,11546,1668680426,135355641,,-1.400606087085978e-08,-1.214640175863796e-58,2.3216195395696886,5e-324,-5e-324,0.0
1668680426.1439958,11547,1668680426,143731163,,-7.41029598801898e-09,-6.426391620799538e-59,2.346473152013442,5e-324,-5e-324,0.0
1668680426.151879,11548,1668680426,151659115,,-3.920623159956274e-09,-3.400061193802759e-59,2.3596132503971834,5e-324,-5e-324,0.0
1668680426.1597457,11549,1668680426,159514655,,-2.0743147085133883e-09,-1.7988969243933433e-59,2.3520449294371515,5e-324,-5e-324,0.0
1668680426.1677117,11550,1668680426,167525521,,-1.0974738796377897e-09,-9.517564420576e-60,2.338121655249167,5e-324,-5e-324,0.0
1668680426.175976,11551,1668680426,175488848,,-1.0974738796377897e-09,-9.517564420576e-60,2.338121655249167,5e-324,-5e-324,0.0
1668680426.1845899,11552,1668680426,184336981,,-5.806490748698501e-10,-5.035532123685329e-60,2.3307087784386904,5e-324,-5e-324,0.0
1668680426.1921704,11553,1668680426,191902966,,-3.0720853990482845e-10,-2.6641882994612083e-60,2.341755109408904,5e-324,-5e-324,0.0
1668680426.1998444,11554,1668680426,199669675,,-1.6253722097397773e-10,-1.409562906291481e-60,2.347607759540649,5e-324,-5e-324,0.0
1668680426.20796,11555,1668680426,207703996,,-8.599483663484072e-11,-7.457684530761959e-61,2.359796466121944,5e-324,-5e-324,0.0
1668680426.2154853,11556,1668680426,215287666,,-8.599483663484072e-11,-7.457684530761959e-61,2.359796466121944,5e-324,-5e-324,0.0
1668680426.2238145,11557,1668680426,223620620,,-4.549795968910348e-11,-3.945695386287731e-61,2.3752763622044206,5e-324,-5e-324,0.0
1668680426.2318695,11558,1668680426,231631550,,-2.407196079296464e-11,-2.087579867069228e-61,2.38347230727964,5e-324,-5e-324,0.0
1668680426.2397692,11559,1668680426,239585451,,-1.2735940257048587e-11,-1.1044921806528373e-61,2.3736765647791276,5e-324,-5e-324,0.0
1668680426.2480092,11560,1668680426,247786104,,-6.738303357428084e-12,-5.843623021886547e-62,2.349675866877207,5e-324,-5e-324,0.0
1668680426.2556827,11561,1668680426,255458965,,-6.738303357428084e-12,-5.843623021886547e-62,2.349675866877207,5e-324,-5e-324,0.0
1668680426.2639987,11562,1668680426,263782877,,-3.565086771791173e-12,-3.091731260762615e-62,2.3370325202406286,5e-324,-5e-324,0.0
1668680426.2722652,11563,1668680426,271948215,,-1.8862082955035695e-12,-1.6357663991971262e-62,2.3485725890290814,5e-324,-5e-324,0.0
1668680426.2797294,11564,1668680426,279530875,,-9.979509509214495e-13,-8.654477013252209e-63,2.3546541950036914,5e-324,-5e-324,0.0
1668680426.2877882,11565,1668680426,287591094,,-5.279937018722228e-13,-4.5788917298749746e-63,2.3721761041364964,5e-324,-5e-324,0.0
1668680426.296274,11566,1668680426,295604106,,-5.279937018722228e-13,-4.5788917298749746e-63,2.3721761041364964,5e-324,-5e-324,0.0
1668680426.3038132,11567,1668680426,303596175,,-2.793497505657237e-13,-2.4225900007375107e-63,2.410407223261765,5e-324,-5e-324,0.0
1668680426.311923,11568,1668680426,311652806,,-1.4779775376945165e-13,-1.2817386079215334e-63,2.430637271932834,5e-324,-5e-324,0.0
1668680426.3198638,11569,1668680426,319647467,,-7.81965116312359e-14,-6.78139453451263e-64,2.417620235955138,5e-324,-5e-324,0.0
1668680426.328008,11570,1668680426,327674353,,-4.137203898803676e-14,-3.587885357318742e-64,2.4152278167219365,5e-324,-5e-324,0.0
1668680426.3358738,11571,1668680426,335593292,,-4.137203898803676e-14,-3.587885357318742e-64,2.4152278167219365,5e-324,-5e-324,0.0
1668680426.343726,11572,1668680426,343524052,,-2.1889027711357783e-14,-1.8982705211661005e-64,2.413970467082546,5e-324,-5e-324,0.0
1668680426.351726,11573,1668680426,351545438,,-1.1580998806636898e-14,-1.004332806837812e-64,2.398939398638656,5e-324,-5e-324,0.0
1668680426.3601816,11574,1668680426,359949891,,-6.127249466166708e-15,-5.313702002131324e-65,2.3910307891703453,5e-324,-5e-324,0.0
1668680426.368085,11575,1668680426,367809720,,-3.2417917182691333e-15,-2.811361809075518e-65,2.3872291938823587,5e-324,-5e-324,0.0
1668680426.375858,11576,1668680426,375612535,,-1.7151600571623287e-15,-1.4874291441932903e-65,2.432660458960254,5e-324,-5e-324,0.0
1668680426.3836105,11577,1668680426,383377281,,-1.7151600571623287e-15,-1.4874291441932903e-65,2.432660458960254,5e-324,-5e-324,0.0
1668680426.392143,11578,1668680426,391901908,,-9.074531238718084e-16,-7.869657515633393e-66,2.4567012532239945,5e-324,-5e-324,0.0
1668680426.3999543,11579,1668680426,399695088,,-4.801133098838061e-16,-4.1636611501890264e-66,2.5021154226653985,5e-324,-5e-324,0.0
1668680426.4079127,11580,1668680426,407692826,,-2.5401729771349217e-16,-2.202900715711528e-66,2.525817133775271,5e-324,-5e-324,0.0
1668680426.4154837,11581,1668680426,415270530,,-2.5401729771349217e-16,-2.202900715711528e-66,2.525817133775271,5e-324,-5e-324,0.0
1668680426.4237986,11582,1668680426,423585328,,-1.3439491513634724e-16,-1.1655058825000808e-66,2.5383971095229683,5e-324,-5e-324,0.0
1668680426.4318588,11583,1668680426,431597932,,-7.110536714266688e-17,-6.166432978362953e-67,2.511322624688728,5e-324,-5e-324,0.0
1668680426.4399323,11584,1668680426,439691582,,-3.7620271803914834e-17,-3.262522845022155e-67,2.497012780981536,5e-324,-5e-324,0.0
1668680426.4477842,11585,1668680426,447575208,,-1.990405095245174e-17,-1.7261284362677382e-67,2.4890277158832554,5e-324,-5e-324,0.0
1668680426.4556806,11586,1668680426,455375488,,-1.990405095245174e-17,-1.7261284362677382e-67,2.4890277158832554,5e-324,-5e-324,0.0
1668680426.4641209,11587,1668680426,463857478,,-1.0530791653572496e-17,-9.132562498491482e-68,2.4847127016806727,5e-324,-5e-324,0.0
1668680426.4736328,11588,1668680426,471878519,,-5.571608167396297e-18,-4.831836150569987e-68,2.482401498480088,5e-324,-5e-324,0.0
1668680426.4803183,11589,1668680426,479885854,,-2.947814237732646e-18,-2.5564172804523796e-68,2.5048012086937064,5e-324,-5e-324,0.0
1668680426.4878898,11590,1668680426,487633659,,-1.5596230960800134e-18,-1.3525436517595094e-68,2.478888912001797,5e-324,-5e-324,0.0
1668680426.4955444,11591,1668680426,495307327,,-1.5596230960800134e-18,-1.3525436517595094e-68,2.478888912001797,5e-324,-5e-324,0.0
1668680426.5037582,11592,1668680426,503552226,,-8.25161969397753e-19,-7.156008308593603e-69,2.4651771313069815,5e-324,-5e-324,0.0
1668680426.5124524,11593,1668680426,512178111,,-4.365748862348513e-19,-3.7860851918564075e-69,2.4161369403295074,5e-324,-5e-324,0.0
1668680426.5204847,11594,1668680426,520194777,,-2.30982083953871e-19,-2.0031336552223162e-69,2.3902038150057203,5e-324,-5e-324,0.0
1668680426.5277545,11595,1668680426,527541475,,-1.2220749472742811e-19,-1.0598135639723604e-69,2.3663689661521827,5e-324,-5e-324,0.0
1668680426.535451,11596,1668680426,535254601,,-1.2220749472742811e-19,-1.0598135639723604e-69,2.3663689661521827,5e-324,-5e-324,0.0
1668680426.5439284,11597,1668680426,543696903,,-6.465727346427848e-20,-5.6072383759891374e-70,2.348181517642279,5e-324,-5e-324,0.0
1668680426.5516982,11598,1668680426,551493536,,-3.4208728533048064e-20,-2.966665390403068e-70,2.3385677755348686,5e-324,-5e-324,0.0
1668680426.5597992,11599,1668680426,559608384,,-1.809907911589101e-20,-1.5695968226182008e-70,2.3623000784669257,5e-324,-5e-324,0.0
1668680426.5679886,11600,1668680426,567706208,,-9.575821110299957e-21,-8.30438846774839e-71,2.3942515911286186,5e-324,-5e-324,0.0
1668680426.5755618,11601,1668680426,575316490,,-9.575821110299957e-21,-8.30438846774839e-71,2.3942515911286186,5e-324,-5e-324,0.0
1668680426.5839424,11602,1668680426,583727644,,-5.066354445401413e-21,-4.393667649520175e-71,2.411139896605087,5e-324,-5e-324,0.0
1668680426.5920308,11603,1668680426,591777632,,-2.680495705880477e-21,-2.3245920502649863e-71,2.37771527223069,5e-324,-5e-324,0.0
1668680426.5999594,11604,1668680426,599682859,,-1.418190793138319e-21,-1.2298900670708002e-71,2.360034763566655,5e-324,-5e-324,0.0
1668680426.6081045,11605,1668680426,607814148,,-7.503332765391031e-22,-6.50707541096077e-72,2.3315571906818278,5e-324,-5e-324,0.0
1668680426.6159816,11606,1668680426,615710068,,-3.969846854216572e-22,-3.442749196663997e-72,2.321482698797434,5e-324,-5e-324,0.0
1668680426.6240284,11607,1668680426,623585749,,-3.969846854216572e-22,-3.442749196663997e-72,2.321482698797434,5e-324,-5e-324,0.0
1668680426.631945,11608,1668680426,631741872,,-2.1003578727874675e-22,-1.821482199386494e-72,2.316161360985491,5e-324,-5e-324,0.0
1668680426.639936,11609,1668680426,639678587,,-1.1112527399122762e-22,-9.637058098501003e-73,2.351330646279283,5e-324,-5e-324,0.0
1668680426.6477737,11610,1668680426,647572708,,-5.879391640643028e-23,-5.0987535769037396e-73,2.3744767977415777,5e-324,-5e-324,0.0
1668680426.6559458,11611,1668680426,655682213,,-5.879391640643028e-23,-5.0987535769037396e-73,2.3744767977415777,5e-324,-5e-324,0.0
1668680426.6638093,11612,1668680426,663565774,,-3.110655643179058e-23,-2.6976373673655063e-73,2.3867251499413604,5e-324,-5e-324,0.0
1668680426.6717722,11613,1668680426,671541565,,-1.6457788699688386e-23,-1.4272600658268856e-73,2.3475346801532386,5e-324,-5e-324,0.0
1668680426.680037,11614,1668680426,679776648,,-8.707450774164632e-24,-7.551316274557522e-74,2.326792365758584,5e-324,-5e-324,0.0
1668680426.68809,11615,1668680426,687886485,,-4.606918971194219e-24,-3.995233864079374e-74,2.297265057645044,5e-324,-5e-324,0.0
1668680426.696011,11616,1668680426,695665499,,-0.05956560542216082,-2.1137895763241505e-74,2.3054949587758973,5e-324,-5e-324,0.0
1668680426.7035635,11617,1668680426,703326323,,-0.05956560542216082,-2.1137895763241505e-74,2.3054949587758973,5e-324,-5e-324,0.0
1668680426.7118084,11618,1668680426,711611531,,-0.09115706105456682,-1.1183591561807665e-74,2.3098140188535834,5e-324,-5e-324,0.0
1668680426.7197766,11619,1668680426,719577452,,-0.07135618678004803,-5.916990112082738e-75,2.355484827808623,5e-324,-5e-324,0.0
1668680426.7278361,11620,1668680426,727615280,,-0.03775297490793096,-3.130548160042596e-75,2.3656571519140606,5e-324,-5e-324,0.0
1668680426.7355237,11621,1668680426,735271021,,-0.03775297490793096,-3.130548160042596e-75,2.3656571519140606,5e-324,-5e-324,0.0
1668680426.7438304,11622,1668680426,743594153,,-0.01997426121987492,-1.6563035591919283e-75,2.3710283536824104,5e-324,-5e-324,0.0
1668680426.752017,11623,1668680426,751772735,,-0.010567938347978645,-8.763134569233147e-76,2.3310993214522,5e-324,-5e-324,0.0
1668680426.759886,11624,1668680426,759667282,,-0.005591261659057093,-4.6363800314450984e-76,2.3099228697852983,5e-324,-5e-324,0.0
1668680426.7680287,11625,1668680426,767700766,,-0.002958212464025348,-2.4530057853332664e-76,2.299198208988704,5e-324,-5e-324,0.0
1668680426.7761378,11626,1668680426,775915322,,-0.08567916009647111,-1.2978309245721994e-76,2.341045520493867,5e-324,-5e-324,0.0
1668680426.783553,11627,1668680426,783321913,,-0.08567916009647111,-1.2978309245721994e-76,2.341045520493867,5e-324,-5e-324,0.0
1668680426.7919943,11628,1668680426,791765406,,-0.12945515639751795,-6.8665354107474775e-77,2.3631906479931035,5e-324,-5e-324,0.0
1668680426.800044,11629,1668680426,799831659,,-0.06849185041575569,-3.632931505511069e-77,2.346694788179721,5e-324,-5e-324,0.0
1668680426.8078141,11630,1668680426,807554144,,-0.036237518102169596,-1.9221034385226002e-77,2.332615926316959,5e-324,-5e-324,0.0
1668680426.8158622,11631,1668680426,815596049,,-0.019172466654558275,-1.0169422745174151e-77,2.3251698427182452,5e-324,-5e-324,0.0
1668680426.8237107,11632,1668680426,823503531,,-0.019172466654558275,-1.0169422745174151e-77,2.3251698427182452,5e-324,-5e-324,0.0
1668680426.8318002,11633,1668680426,831573545,,-0.010143726636679931,-5.380415897364796e-78,2.334965210704266,5e-324,-5e-324,0.0
1668680426.8397243,11634,1668680426,839527726,,-0.005366820656601664,-2.8466586505466466e-78,2.3401657021970523,5e-324,-5e-324,0.0
1668680426.8479857,11635,1668680426,847786795,,-0.012315648889190862,-1.5061039197176088e-78,2.348418655352433,5e-324,-5e-324,0.0
1668680426.8561687,11636,1668680426,855453256,,-0.012315648889190862,-1.5061039197176088e-78,2.348418655352433,5e-324,-5e-324,0.0
1668680426.8638778,11637,1668680426,863580717,,-0.00651593652168807,-7.968461608676377e-79,2.3817873593849597,5e-324,-5e-324,0.0
1668680426.8718283,11638,1668680426,871597740,,-0.003447437413706415,-4.2159362031840895e-79,2.3994811233460367,5e-324,-5e-324,0.0
1668680426.8798034,11639,1668680426,879580431,,-0.0018239626309839798,-2.2305582861772357e-79,2.408772021064333,5e-324,-5e-324,0.0
1668680426.888127,11640,1668680426,887760911,,-0.0009650181511632562,-1.1801388892640877e-79,2.428031626683828,5e-324,-5e-324,0.0
1668680426.8961809,11641,1668680426,895651567,,-0.0005105696883560376,-6.2438529698336316e-80,2.4382285188772927,5e-324,-5e-324,0.0
1668680426.903613,11642,1668680426,903298450,,-0.0005105696883560376,-6.2438529698336316e-80,2.4382285188772927,5e-324,-5e-324,0.0
1668680426.9124458,11643,1668680426,912159981,,-0.0002701310916833531,-3.303484044425568e-80,2.443241511290935,5e-324,-5e-324,0.0
1668680426.920655,11644,1668680426,920322934,,-0.0001429203659327991,-1.7478000978721134e-80,2.4458810328538685,5e-324,-5e-324,0.0
1668680426.9278634,11645,1668680426,927625667,,-7.561599396454805e-05,-9.247222450723111e-81,2.423303546353666,5e-324,-5e-324,0.0
1668680426.9359317,11646,1668680426,935616971,,-4.0006744356749384e-05,-4.8925001867927795e-81,2.344341228276508,5e-324,-5e-324,0.0
1668680426.943617,11647,1668680426,943423847,,-4.0006744356749384e-05,-4.8925001867927795e-81,2.344341228276508,5e-324,-5e-324,0.0
1668680426.9519212,11648,1668680426,951644691,,-2.1166680620196552e-05,-2.588513275777809e-81,2.302581218982304,5e-324,-5e-324,0.0
1668680426.9602888,11649,1668680426,960065107,,-1.1198820990836741e-05,-1.3695249306204591e-81,2.242150791228812,5e-324,-5e-324,0.0
1668680426.9679725,11650,1668680426,967739041,,-5.925047665014611e-06,-7.245852486606948e-82,2.195824800663379,5e-324,-5e-324,0.0
1668680426.9760165,11651,1668680426,975734424,,-3.1348112324877933e-06,-3.833619752645324e-82,2.1712882314158537,5e-324,-5e-324,0.0
1668680426.9834902,11652,1668680426,983299655,,-3.1348112324877933e-06,-3.833619752645324e-82,2.1712882314158537,5e-324,-5e-324,0.0
1668680426.9919567,11653,1668680426,991715589,,-1.6585590562177197e-06,-2.0282831364614854e-82,2.16166440958902,5e-324,-5e-324,0.0
1668680426.9998415,11654,1668680426,999610964,,-8.775067903462747e-07,-1.0731195963854505e-82,2.156563806848624,5e-324,-5e-324,0.0
1668680427.007965,11655,1668680427,7720119,,-4.6426936937646215e-07,-5.677637640647709e-83,2.1395059109678685,5e-324,-5e-324,0.0
1668680427.0161211,11656,1668680427,15860827,,-2.4563462039554224e-07,-3.0039120790522857e-83,2.063689594221843,5e-324,-5e-324,0.0
1668680427.0234616,11657,1668680427,23246236,,-2.4563462039554224e-07,-3.0039120790522857e-83,2.063689594221843,5e-324,-5e-324,0.0
1668680427.0320208,11658,1668680427,31748854,,-1.2995982659355065e-07,-1.5893032190139593e-83,2.0235894637728533,5e-324,-5e-324,0.0
1668680427.0400593,11659,1668680427,39824431,,-6.875886021697071e-08,-8.408650637887622e-84,2.0115319785683186,5e-324,-5e-324,0.0
1668680427.0478094,11660,1668680427,47616238,,-3.6378787062582446e-08,-4.448830449982677e-84,2.0197486157220617,5e-324,-5e-324,0.0
1668680427.0561461,11661,1668680427,55457436,,-3.6378787062582446e-08,-4.448830449982677e-84,2.0197486157220617,5e-324,-5e-324,0.0
1668680427.0639431,11662,1668680427,63696325,,-1.9247208926509765e-08,-2.3537774638315974e-84,2.0240970923271315,5e-324,-5e-324,0.0
1668680427.0719647,11663,1668680427,71688552,,-1.0183271114108976e-08,-1.2453314217140102e-84,1.974277901750666,5e-324,-5e-324,0.0
1668680427.0797763,11664,1668680427,79551924,,-5.387742762048916e-09,-6.588772191673913e-85,1.9479191962632387,5e-324,-5e-324,0.0
1668680427.087916,11665,1668680427,87622716,,-2.850535132055195e-09,-3.485973150346237e-85,1.9006917308985853,5e-324,-5e-324,0.0
1668680427.09557,11666,1668680427,95343468,,-2.850535132055195e-09,-3.485973150346237e-85,1.9006917308985853,5e-324,-5e-324,0.0
1668680427.1040423,11667,1668680427,103800892,,-1.5081548800579422e-09,-1.8443510340653597e-85,1.8799203536772373,5e-324,-5e-324,0.0
1668680427.111989,11668,1668680427,111627976,,-7.979312784693453e-10,-9.758052027796317e-86,1.8689290596480617,5e-324,-5e-324,0.0
1668680427.119632,11669,1668680427,119441246,,-4.2216773196083316e-10,-5.1627687798290055e-86,1.886798515755924,5e-324,-5e-324,0.0
1668680427.127979,11670,1668680427,127739014,,-2.2335957834719835e-10,-2.7315063906250204e-86,1.899727241057947,5e-324,-5e-324,0.0
1668680427.135659,11671,1668680427,135423684,,-2.2335957834719835e-10,-2.7315063906250204e-86,1.899727241057947,5e-324,-5e-324,0.0
1668680427.1437366,11672,1668680427,143554813,,-1.1817459616754123e-10,-1.4451794144211983e-86,1.9065648390143357,5e-324,-5e-324,0.0
1668680427.151597,11673,1668680427,151423218,,-6.252355633324742e-11,-7.646123571356167e-87,1.8728249566020008,5e-324,-5e-324,0.0
1668680427.160018,11674,1668680427,159806450,,-3.307982614989883e-11,-4.04539430087739e-87,1.8549748682375835,5e-324,-5e-324,0.0
1668680427.167833,11675,1668680427,167559422,,-1.7501801917266188e-11,-2.140328350286997e-87,1.8548894187875873,5e-324,-5e-324,0.0
1668680427.1754742,11676,1668680427,175255152,,-1.7501801917266188e-11,-2.140328350286997e-87,1.8548894187875873,5e-324,-5e-324,0.0
1668680427.1839166,11677,1668680427,183684441,,-9.259814999123242e-12,-1.132400232543142e-87,1.8929234420927892,5e-324,-5e-324,0.0
1668680427.191909,11678,1668680427,191679466,,-4.8991626247008266e-12,-5.991278331157993e-88,1.9130501882436848,5e-324,-5e-324,0.0
1668680427.2006874,11679,1668680427,200068385,,-2.592038223823919e-12,-3.169852408171046e-88,1.9149436270640003,5e-324,-5e-324,0.0
1668680427.2081358,11680,1668680427,207810438,,-1.3713899024069526e-12,-1.6770985646473396e-88,1.8637033032269659,5e-324,-5e-324,0.0
1668680427.2155416,11681,1668680427,215335038,,-1.3713899024069526e-12,-1.6770985646473396e-88,1.8637033032269659,5e-324,-5e-324,0.0
1668680427.2238634,11682,1668680427,223671821,,-7.255719638459739e-13,-8.873156328325792e-89,1.8365804476654768,5e-324,-5e-324,0.0
1668680427.2319098,11683,1668680427,231710590,,-3.838840243721444e-13,-4.6945901026075955e-89,1.792906541395829,5e-324,-5e-324,0.0
1668680427.2399023,11684,1668680427,239687418,,-2.0310451824381204e-13,-2.4838034422030293e-89,1.7698009220836508,5e-324,-5e-324,0.0
1668680427.247925,11685,1668680427,247684351,,-1.0745809336171033e-13,-1.3141252813686353e-89,1.743933546008123,5e-324,-5e-324,0.0
1668680427.255575,11686,1668680427,255320379,,-1.0745809336171033e-13,-1.3141252813686353e-89,1.743933546008123,5e-324,-5e-324,0.0
1668680427.2638063,11687,1668680427,263621083,,-5.685369251644338e-14,-6.9527452365573855e-90,1.736469571438891,5e-324,-5e-324,0.0
1668680427.271772,11688,1668680427,271563469,,-3.0080027028527606e-14,-3.6785432112017186e-90,1.7325256084695155,5e-324,-5e-324,0.0
1668680427.2800748,11689,1668680427,279798067,,-1.5914674772887626e-14,-1.9462355798007622e-90,1.7403609386841064,5e-324,-5e-324,0.0
1668680427.2877846,11690,1668680427,287592812,,-8.420101248133204e-15,-1.0297100549336723e-90,1.7978884104626545,5e-324,-5e-324,0.0
1668680427.295972,11691,1668680427,295614604,,-8.420101248133204e-15,-1.0297100549336723e-90,1.7978884104626545,5e-324,-5e-324,0.0
1668680427.3039217,11692,1668680427,303699689,,-4.4548887137547384e-15,-5.447967390155567e-91,1.8283072661181472,5e-324,-5e-324,0.0
1668680427.3118842,11693,1668680427,311644503,,-2.3569827567500274e-15,-2.8823986462976016e-91,1.9394636173107032,5e-324,-5e-324,0.0
1668680427.3197684,11694,1668680427,319552382,,-1.2470272710661492e-15,-1.5250131583370222e-91,1.9982864161400897,5e-324,-5e-324,0.0
1668680427.3278725,11695,1668680427,327682236,,-6.597744554257733e-16,-8.068506193924085e-92,2.0487352539034966,5e-324,-5e-324,0.0
1668680427.3356643,11696,1668680427,335470072,,-6.597744554257733e-16,-8.068506193924085e-92,2.0487352539034966,5e-324,-5e-324,0.0
1668680427.3440893,11697,1668680427,343828809,,-3.4907202282770677e-16,-4.268867573076002e-92,2.1423006312838133,5e-324,-5e-324,0.0
1668680427.3520331,11698,1668680427,351734772,,-1.8468626076526798e-16,-2.2585630993482575e-92,2.1918774741297398,5e-324,-5e-324,0.0
1668680427.3603213,11699,1668680427,360071594,,-0.032082531186381026,-1.1949556144375595e-92,2.2519723282975166,5e-324,-5e-324,0.0
1668680427.367901,11700,1668680427,367649750,,-0.08666843958662149,-6.3222449746384895e-93,2.3311393807070195,5e-324,-5e-324,0.0
1668680427.3756058,11701,1668680427,375301396,,-0.08666843958662149,-6.3222449746384895e-93,2.3311393807070195,5e-324,-5e-324,0.0
1668680427.383787,11702,1668680427,383534172,,-0.11541501668210521,-3.344959514513436e-93,2.3730887055180587,5e-324,-5e-324,0.0
1668680427.3934107,11703,1668680427,391651748,,-0.12238511148228001,-1.7697438486830766e-93,2.385668291251995,5e-324,-5e-324,0.0
1668680427.3997004,11704,1668680427,399538115,,-0.12609464242002008,-9.363321966565488e-94,2.3923021772432285,5e-324,-5e-324,0.0
1668680427.4081516,11705,1668680427,407891668,,-0.11295539994951598,-4.95392586417561e-94,2.3953284909488914,5e-324,-5e-324,0.0
1668680427.4160216,11706,1668680427,415783762,,-0.11295539994951598,-4.95392586417561e-94,2.3953284909488914,5e-324,-5e-324,0.0
1668680427.4247901,11707,1668680427,424520219,,-0.05976219543729537,-2.6210122385388784e-94,2.4103243766074613,5e-324,-5e-324,0.0
1668680427.4328086,11708,1668680427,432553011,,-0.03161885137923229,-1.3867194106090605e-94,2.4182170514031474,5e-324,-5e-324,0.0
1668680427.440552,11709,1668680427,440246478,,-0.01672883258766748,-7.336824664473674e-95,2.4037190761743306,5e-324,-5e-324,0.0
1668680427.4478805,11710,1668680427,447654643,,-0.026434723675524848,-3.8817511131243943e-95,2.391208046972311,5e-324,-5e-324,0.0
1668680427.4556713,11711,1668680427,455438484,,-0.026434723675524848,-3.8817511131243943e-95,2.391208046972311,5e-324,-5e-324,0.0
1668680427.4638789,11712,1668680427,463629787,,-0.03146234570860795,-2.0537483711726963e-95,2.384624093684712,5e-324,-5e-324,0.0
1668680427.4721956,11713,1668680427,471943025,,-0.04208483122952704,-1.0865926869534815e-95,2.394991991752545,5e-324,-5e-324,0.0
1668680427.4798117,11714,1668680427,479590866,,-0.0477012371943592,-5.748920772930974e-96,2.4004757440352247,5e-324,-5e-324,0.0
1668680427.4880319,11715,1668680427,487807029,,-0.025237666026450944,-3.0416264024471746e-96,2.4173772483112366,5e-324,-5e-324,0.0
1668680427.4988515,11716,1668680427,496080771,,-0.025198837561903997,-1.6092570305760277e-96,2.439322950495885,5e-324,-5e-324,0.0
1668680427.5036213,11717,1668680427,503403291,,-0.025198837561903997,-1.6092570305760277e-96,2.439322950495885,5e-324,-5e-324,0.0
1668680427.511781,11718,1668680427,511573640,,-0.025216831133771975,-8.514221826766086e-97,2.4509114161946752,5e-324,-5e-324,0.0
1668680427.5201879,11719,1668680427,519950045,,-0.013341665747713668,-4.5046858232107145e-97,2.4282080256650116,5e-324,-5e-324,0.0
