Time,header.seq,header.stamp.secs,header.stamp.nsecs,header.frame_id,pose.position.x,pose.position.y,pose.position.z,pose.orientation.x,pose.orientation.y,pose.orientation.z,pose.orientation.w
1668680644.1996567,38804,1668680644,199466473,,-0.09879819691870663,-0.616009845660042,0.08536472374280156,0.9955612156868469,0.09352316526210468,-0.004347595386304717,0.009611544820769008
1668680644.2075171,38805,1668680644,207427089,,-0.0987981963839657,-0.6160098441235826,0.08536721328911112,0.9955612156868469,0.09352316526210476,-0.0043475953863046715,0.009611544820768876
1668680644.215731,38806,1668680644,215632612,,-0.09879819586003048,-0.6160098426181709,0.0853697094052886,0.9955612156868469,0.09352316526210472,-0.004347595386304724,0.009611544820768963
1668680644.224233,38807,1668680644,224083938,,-0.0987981953468978,-0.6160098411437979,0.08537227219258864,0.9955612156868469,0.0935231652621047,-0.004347595386304761,0.009611544820769
1668680644.2317083,38808,1668680644,231522736,,-0.09879819484466645,-0.6160098397007476,0.08537491398043429,0.9955612156868469,0.0935231652621047,-0.004347595386304694,0.009611544820768855
1668680644.2397742,38809,1668680644,239581409,,-0.09879819435355866,-0.616009838289658,0.08537758937359055,0.9955612156868469,0.09352316526210468,-0.0043475953863047374,0.009611544820768933
1668680644.2479837,38810,1668680644,247557054,,-0.09879819387385122,-0.6160098369113253,0.08538023849416407,0.9955612156868469,0.09352316526210462,-0.004347595386304685,0.009611544820768786
1668680644.2561493,38811,1668680644,256024168,,-0.09879819340576908,-0.6160098355663954,0.08538278563856491,0.9955612156868469,0.0935231652621047,-0.0043475953863046715,0.009611544820768732
1668680644.2634532,38812,1668680644,263331633,,-0.09879819294960081,-0.616009834255697,0.08538512085213731,0.9955612156868469,0.0935231652621047,-0.0043475953863047105,0.009611544820768807
1668680644.271877,38813,1668680644,271760413,,-0.09879819250542825,-0.6160098329794655,0.08538719783684319,0.9955612156868469,0.09352316526210483,-0.004347595386304691,0.00961154482076874
1668680644.2803144,38814,1668680644,280030816,,-0.09879819207311313,-0.6160098317373036,0.0853890019627231,0.9955612156868467,0.09352316526210473,-0.004347595386304679,0.009611544820768685
1668680644.2885287,38815,1668680644,288357277,,-0.09879819165250928,-0.6160098305287923,0.08539054892216646,0.9955612156868469,0.09352316526210475,-0.004347595386304653,0.009611544820768607
1668680644.2954519,38816,1668680644,295332503,,-0.09879819124335422,-0.616009829353176,0.08539188475242565,0.9955612156868467,0.09352316526210479,-0.004347595386304667,0.009611544820768647
1668680644.304294,38817,1668680644,304162756,,-0.09879819084548229,-0.6160098282099794,0.08539302364144469,0.9955612156868469,0.09352316526210476,-0.004347595386304651,0.009611544820768632
1668680644.3121097,38818,1668680644,311985435,,-0.09879819045872922,-0.6160098270987301,0.08539397889919395,0.9955612156868469,0.09352316526210488,-0.004347595386304694,0.009611544820768668
1668680644.3208208,38819,1668680644,320590338,,-0.09879819008286585,-0.6160098260187707,0.0853948691203896,0.9955612156868469,0.09352316526210501,-0.004347595386304658,0.009611544820768616
1668680644.3283203,38820,1668680644,328124849,,-0.09879818971758282,-0.6160098249692111,0.08539585971798344,0.9955612156868467,0.09352316526210512,-0.004347595386304702,0.009611544820768678
1668680644.3364775,38821,1668680644,336310963,,-0.09879818936264839,-0.6160098239493856,0.08539704100737386,0.9955612156868469,0.09352316526210504,-0.0043475953863047175,0.009611544820768718
1668680644.3434062,38822,1668680644,343271783,,-0.09879818901783109,-0.6160098229586295,0.08539846417234653,0.9955612156868467,0.09352316526210509,-0.004347595386304683,0.009611544820768612
1668680644.3520591,38823,1668680644,351791892,,-0.09879818868293568,-0.6160098219963817,0.08540013173077887,0.9955612156868469,0.09352316526210487,-0.004347595386304677,0.009611544820768597
1668680644.359795,38824,1668680644,359679699,,-0.09879818835779818,-0.6160098210621716,0.08540203404811858,0.9955612156868467,0.09352316526210494,-0.0043475953863046585,0.009611544820768533
1668680644.3677495,38825,1668680644,367649698,,-0.09879818804234648,-0.6160098201557906,0.08540409334354501,0.9955612156868469,0.09352316526210491,-0.004347595386304706,0.009611544820768645
1668680644.375857,38826,1668680644,375730929,,-0.0987981877367028,-0.6160098192775916,0.08540618721776008,0.9955612156868467,0.0935231652621051,-0.004347595386304646,0.009611544820768463
1668680644.3843858,38827,1668680644,384256453,,-0.09879818744085235,-0.6160098184275309,0.08540825146289996,0.9955612156868467,0.09352316526210523,-0.0043475953863046255,0.009611544820768397
1668680644.3920674,38828,1668680644,391962632,,-0.09879818715466722,-0.6160098176052416,0.08541026449204021,0.9955612156868467,0.09352316526210533,-0.0043475953863045536,0.009611544820768222
1668680644.3998697,38829,1668680644,399643652,,-0.0987981868780214,-0.6160098168103612,0.08541217231222561,0.9955612156868469,0.09352316526210515,-0.004347595386304576,0.009611544820768286
1668680644.4076884,38830,1668680644,407580130,,-0.09879818661087265,-0.6160098160427682,0.08541389681224298,0.9955612156868467,0.09352316526210509,-0.00434759538630461,0.009611544820768326
1668680644.4158282,38831,1668680644,415562270,,-0.09879818635300175,-0.6160098153018335,0.08541543185293812,0.9955612156868469,0.09352316526210498,-0.004347595386304618,0.009611544820768335
1668680644.4238715,38832,1668680644,423730944,,-0.09879818610410028,-0.6160098145866704,0.08541680074593849,0.9955612156868467,0.09352316526210502,-0.0043475953863045995,0.009611544820768281
1668680644.4317758,38833,1668680644,431632147,,-0.09879818586388607,-0.6160098138964684,0.08541803580777413,0.9955612156868469,0.09352316526210505,-0.0043475953863046524,0.009611544820768373
1668680644.4396448,38834,1668680644,439555457,,-0.09879818563206653,-0.6160098132303862,0.08541917867828408,0.9955612156868467,0.09352316526210512,-0.004347595386304607,0.009611544820768281
1668680644.4479725,38835,1668680644,447747134,,-0.09879818540830809,-0.6160098125874659,0.08542035952378674,0.9955612156868467,0.09352316526210508,-0.004347595386304662,0.0096115448207684
1668680644.4561372,38836,1668680644,455978163,,-0.09879818519217815,-0.6160098119664643,0.08542173275084641,0.9955612156868467,0.09352316526210507,-0.004347595386304584,0.009611544820768174
1668680644.4638832,38837,1668680644,463735951,,-0.09879818498339894,-0.6160098113665838,0.08542332666266325,0.9955612156868469,0.09352316526210501,-0.004347595386304585,0.0096115448207682
1668680644.4721506,38838,1668680644,471868548,,-0.09879818478175352,-0.6160098107872003,0.08542514512845728,0.9955612156868467,0.09352316526210495,-0.004347595386304591,0.009611544820768186
1668680644.4802268,38839,1668680644,479941908,,-0.09879818458698263,-0.6160098102275697,0.08542720437938285,0.9955612156868467,0.09352316526210513,-0.004347595386304558,0.00961154482076809
1668680644.4883106,38840,1668680644,488139527,,-0.09879818439886826,-0.6160098096870649,0.08542950136718208,0.9955612156868467,0.09352316526210523,-0.00434759538630453,0.009611544820768014
1668680644.4955971,38841,1668680644,495506963,,-0.09879818421739052,-0.6160098091656288,0.08543193107781452,0.9955612156868467,0.09352316526210525,-0.004347595386304568,0.009611544820768089
1668680644.5034847,38842,1668680644,503378163,,-0.09879818404281746,-0.6160098086640315,0.08543432761467212,0.9955612156868467,0.09352316526210516,-0.004347595386304531,0.009611544820767953
1668680644.512616,38843,1668680644,512395273,,-0.09879818387516709,-0.6160098081823255,0.0854366268817981,0.9955612156868467,0.09352316526210527,-0.0043475953863045666,0.009611544820768017
1668680644.5195806,38844,1668680644,519451053,,-0.0987981837142571,-0.6160098077199867,0.08543879928319502,0.9955612156868467,0.09352316526210544,-0.00434759538630456,0.00961154482076799
1668680644.528022,38845,1668680644,527793391,,-0.0987981835598825,-0.6160098072764253,0.08544086116842342,0.9955612156868467,0.09352316526210545,-0.004347595386304603,0.009611544820768052
1668680644.535296,38846,1668680644,535133515,,-0.09879818341168352,-0.6160098068506089,0.08544285473025154,0.9955612156868466,0.09352316526210569,-0.004347595386304558,0.009611544820767972
1668680644.5442734,38847,1668680644,544123540,,-0.09879818326947398,-0.6160098064420011,0.08544477560551314,0.9955612156868467,0.0935231652621055,-0.004347595386304577,0.009611544820767983
1668680644.5521638,38848,1668680644,552042377,,-0.09879818313305543,-0.6160098060500324,0.0854466226110861,0.9955612156868467,0.09352316526210543,-0.004347595386304559,0.009611544820767929
1668680644.5597918,38849,1668680644,559668279,,-0.09879818300218317,-0.6160098056740002,0.08544843667379676,0.9955612156868467,0.09352316526210525,-0.0043475953863046195,0.009611544820768047
1668680644.5674653,38850,1668680644,567376731,,-0.09879818287653726,-0.6160098053129844,0.08545028083625728,0.9955612156868467,0.09352316526210518,-0.0043475953863046255,0.009611544820768059
1668680644.5757256,38851,1668680644,575540184,,-0.09879818275586512,-0.6160098049662597,0.0854521997178698,0.9955612156868469,0.09352316526210505,-0.0043475953863046195,0.009611544820768
1668680644.5836945,38852,1668680644,583544078,,-0.09879818263994762,-0.6160098046331967,0.08545421211777898,0.9955612156868467,0.09352316526210519,-0.004347595386304624,0.009611544820768031
1668680644.5918024,38853,1668680644,591660190,,-0.09879818252869797,-0.6160098043135455,0.08545627708978557,0.9955612156868467,0.09352316526210529,-0.004347595386304663,0.009611544820768078
1668680644.6001153,38854,1668680644,600003778,,-0.09879818242209329,-0.6160098040072405,0.08545834110711976,0.9955612156868467,0.09352316526210536,-0.004347595386304664,0.00961154482076805
1668680644.6084404,38855,1668680644,608222145,,-0.09879818232006811,-0.6160098037140938,0.08546036056109035,0.9955612156868467,0.09352316526210547,-0.004347595386304592,0.009611544820767893
1668680644.615488,38856,1668680644,615350534,,-0.09879818222257236,-0.6160098034339616,0.08546228149539492,0.9955612156868467,0.0935231652621055,-0.004347595386304642,0.009611544820767997
1668680644.6238232,38857,1668680644,623687420,,-0.09879818212950565,-0.6160098031665545,0.08546407831181346,0.9955612156868469,0.09352316526210519,-0.004347595386304619,0.0096115448207679
1668680644.6318617,38858,1668680644,631653719,,-0.09879818204069146,-0.6160098029113668,0.08546574164187525,0.9955612156868467,0.09352316526210526,-0.00434759538630465,0.009611544820767964
1668680644.6401083,38859,1668680644,639870248,,-0.09879818195593468,-0.6160098026678369,0.08546729983143483,0.9955612156868469,0.09352316526210516,-0.004347595386304644,0.009611544820767938
1668680644.648477,38860,1668680644,648352120,,-0.09879818187495498,-0.61600980243516,0.085468814201376,0.9955612156868467,0.09352316526210525,-0.004347595386304616,0.009611544820767886
1668680644.6565306,38861,1668680644,656414575,,-0.09879818179757179,-0.6160098022128168,0.08547030095267621,0.9955612156868467,0.0935231652621052,-0.004347595386304611,0.009611544820767858
1668680644.663454,38862,1668680644,663289874,,-0.09879818172366239,-0.6160098020004544,0.08547175530922868,0.9955612156868467,0.09352316526210519,-0.004347595386304623,0.009611544820767873
1668680644.6726058,38863,1668680644,672146307,,-0.09879818165309807,-0.6160098017977037,0.08547317658655498,0.9955612156868469,0.09352316526210512,-0.004347595386304611,0.009611544820767816
1668680644.6796126,38864,1668680644,679488106,,-0.09879818158575325,-0.6160098016042032,0.08547456442871473,0.9955612156868467,0.09352316526210518,-0.004347595386304693,0.009611544820768
1668680644.6881952,38865,1668680644,687931548,,-0.09879818152153559,-0.6160098014196875,0.08547588768666603,0.9955612156868467,0.09352316526210507,-0.004347595386304695,0.009611544820767972
1668680644.6956265,38866,1668680644,695523688,,-0.09879818146036502,-0.6160098012439279,0.08547713046860467,0.9955612156868467,0.0935231652621052,-0.004347595386304655,0.00961154482076789
1668680644.7042403,38867,1668680644,703925791,,-0.09879818140208094,-0.6160098010764616,0.08547831581160752,0.9955612156868469,0.0935231652621052,-0.004347595386304636,0.009611544820767851
1668680644.7121904,38868,1668680644,711967733,,-0.09879818134655217,-0.6160098009169118,0.08547945254317363,0.9955612156868467,0.0935231652621052,-0.004347595386304656,0.009611544820767863
1668680644.719561,38869,1668680644,719466375,,-0.098798181293699,-0.6160098007650499,0.08548049984189954,0.9955612156868467,0.09352316526210518,-0.004347595386304645,0.009611544820767853
1668680644.7282703,38870,1668680644,728161853,,-0.09879818124348018,-0.6160098006207573,0.08548139784022218,0.9955612156868467,0.0935231652621053,-0.004347595386304657,0.00961154482076786
1668680644.73613,38871,1668680644,735970910,,-0.09879818119578174,-0.6160098004837063,0.08548213806541886,0.9955612156868469,0.09352316526210537,-0.004347595386304588,0.009611544820767705
1668680644.7437582,38872,1668680644,743630707,,-0.0987981811504589,-0.6160098003534812,0.0854827354734782,0.9955612156868469,0.09352316526210523,-0.004347595386304637,0.009611544820767808
1668680644.7523153,38873,1668680644,752203829,,-0.09879818110739333,-0.6160098002297417,0.08548317438858971,0.9955612156868469,0.09352316526210513,-0.004347595386304599,0.009611544820767716
1668680644.760512,38874,1668680644,760217259,,-0.09879818106648013,-0.616009800112187,0.08548342706456423,0.9955612156868469,0.09352316526210516,-0.004347595386304689,0.00961154482076791
1668680644.7685041,38875,1668680644,768279681,,-0.09879818102759289,-0.6160098000004531,0.0854835318811531,0.9955612156868467,0.09352316526210518,-0.004347595386304743,0.009611544820768031
1668680644.7765977,38876,1668680644,776494990,,-0.09879818099061492,-0.6160097998942051,0.08548354060751023,0.9955612156868469,0.09352316526210515,-0.004347595386304696,0.009611544820767924
1668680644.783336,38877,1668680644,783216670,,-0.09879818095545835,-0.6160097997931906,0.08548346472457083,0.9955612156868469,0.09352316526210515,-0.0043475953863046195,0.009611544820767783
1668680644.7918117,38878,1668680644,791625752,,-0.09879818092204166,-0.616009799697175,0.08548331246437797,0.9955612156868467,0.09352316526210518,-0.004347595386304645,0.009611544820767821
1668680644.800169,38879,1668680644,799991947,,-0.0987981808902928,-0.6160097996059516,0.08548312057422539,0.9955612156868469,0.09352316526210515,-0.004347595386304661,0.009611544820767873
1668680644.8075528,38880,1668680644,807455812,,-0.09879818086015135,-0.6160097995193466,0.08548293903012699,0.9955612156868467,0.09352316526210518,-0.004347595386304645,0.009611544820767821
1668680644.815877,38881,1668680644,815716991,,-0.09879818083155886,-0.6160097994371925,0.0854828369612523,0.9955612156868469,0.09352316526210515,-0.004347595386304658,0.009611544820767834
1668680644.8235393,38882,1668680644,823368716,,-0.09879818080445087,-0.6160097993593036,0.08548283044885138,0.9955612156868469,0.09352316526210513,-0.004347595386304633,0.009611544820767782
1668680644.8323221,38883,1668680644,832076177,,-0.09879818077875178,-0.616009799285463,0.08548288058060008,0.9955612156868469,0.09352316526210516,-0.004347595386304599,0.00961154482076773
1668680644.8396473,38884,1668680644,839550484,,-0.09879818075439911,-0.6160097992154911,0.08548296614432747,0.9955612156868469,0.09352316526210515,-0.004347595386304637,0.009611544820767794
1668680644.8484454,38885,1668680644,848330310,,-0.09879818073133559,-0.6160097991492233,0.08548305922307006,0.9955612156868469,0.09352316526210515,-0.004347595386304713,0.009611544820767976
1668680644.856549,38886,1668680644,856367572,,-0.0987981807095051,-0.6160097990864982,0.08548316266674101,0.9955612156868467,0.09352316526210518,-0.004347595386304655,0.00961154482076785
1668680644.863746,38887,1668680644,863586506,,-0.09879818068885096,-0.6160097990271532,0.08548329374906466,0.9955612156868467,0.09352316526210518,-0.004347595386304627,0.009611544820767797
1668680644.871625,38888,1668680644,871522530,,-0.09879818066931936,-0.6160097989710335,0.08548345638612326,0.9955612156868469,0.09352316526210512,-0.004347595386304651,0.00961154482076782
1668680644.8796828,38889,1668680644,879570839,,-0.09879818065085677,-0.6160097989179857,0.0854836665212963,0.9955612156868467,0.09352316526210519,-0.004347595386304672,0.009611544820767887
1668680644.8883865,38890,1668680644,888276564,,-0.0987981806334064,-0.6160097988678458,0.08548394865925332,0.9955612156868469,0.09352316526210512,-0.004347595386304703,0.009611544820767896
1668680644.8964894,38891,1668680644,896315066,,-0.0987981806169137,-0.6160097988204575,0.08548431246971147,0.9955612156868469,0.09352316526210502,-0.00434759538630463,0.009611544820767768
1668680644.9045541,38892,1668680644,904410952,,-0.09879818060132832,-0.6160097987756764,0.08548475678251244,0.9955612156868467,0.09352316526210494,-0.004347595386304627,0.009611544820767783
1668680644.912161,38893,1668680644,912034955,,-0.09879818058660989,-0.616009798733386,0.08548526382791541,0.9955612156868469,0.0935231652621048,-0.00434759538630472,0.009611544820767976
1668680644.9197283,38894,1668680644,919546985,,-0.0987981805727274,-0.616009798693498,0.08548581151425852,0.9955612156868469,0.09352316526210477,-0.004347595386304745,0.009611544820768028
1668680644.928177,38895,1668680644,928033193,,-0.09879818055963704,-0.6160097986558852,0.08548641514163643,0.9955612156868469,0.09352316526210455,-0.004347595386304682,0.009611544820767872
1668680644.9354498,38896,1668680644,935254424,,-0.09879818054727343,-0.6160097986203616,0.08548710777305395,0.9955612156868469,0.0935231652621048,-0.004347595386304698,0.00961154482076791
1668680644.9437053,38897,1668680644,943590034,,-0.09879818053558896,-0.6160097985867886,0.08548789448963096,0.9955612156868469,0.09352316526210476,-0.004347595386304743,0.009611544820767986
1668680644.95187,38898,1668680644,951635836,,-0.09879818052454623,-0.6160097985550601,0.08548877345326863,0.9955612156868467,0.09352316526210501,-0.004347595386304738,0.009611544820767988
1668680644.9608428,38899,1668680644,960566582,,-0.09879818051417569,-0.616009798525263,0.0854896402456171,0.9955612156868469,0.0935231652621051,-0.004347595386304684,0.009611544820767867
1668680644.968275,38900,1668680644,968186591,,-0.09879818050459935,-0.6160097984977474,0.08549033735902534,0.9955612156868467,0.09352316526210525,-0.004347595386304725,0.009611544820767919
1668680644.9763153,38901,1668680644,976206550,,-0.09879818049580599,-0.6160097984724815,0.08549077905350044,0.9955612156868467,0.0935231652621051,-0.004347595386304729,0.009611544820767915
1668680644.9839723,38902,1668680644,983870300,,-0.09879818048769998,-0.6160097984491908,0.08549097779727444,0.9955612156868467,0.09352316526210513,-0.0043475953863047635,0.009611544820767997
1668680644.992654,38903,1668680644,992017477,,-0.09879818048016115,-0.6160097984275296,0.0854909891085591,0.9955612156868467,0.0935231652621051,-0.00434759538630475,0.009611544820767972
1668680644.9999034,38904,1668680644,999713265,,-0.0987981804731242,-0.6160097984073105,0.08549084722827871,0.9955612156868467,0.09352316526210509,-0.00434759538630477,0.009611544820768024
1668680645.0078988,38905,1668680645,7697951,,-0.09879818046653893,-0.616009798388389,0.0854905636591593,0.9955612156868467,0.0935231652621051,-0.004347595386304784,0.009611544820768049
1668680645.015431,38906,1668680645,15321213,,-0.09879818046034954,-0.6160097983706054,0.08549010528820408,0.9955612156868467,0.09352316526210526,-0.004347595386304788,0.00961154482076806
1668680645.024059,38907,1668680645,23766528,,-0.09879818045449745,-0.6160097983537907,0.08548946229849384,0.9955612156868467,0.09352316526210537,-0.004347595386304777,0.009611544820768049
1668680645.031936,38908,1668680645,31815300,,-0.09879818044893474,-0.6160097983378073,0.08548863763681969,0.9955612156868467,0.0935231652621052,-0.004347595386304765,0.009611544820768038
1668680645.0396318,38909,1668680645,39490382,,-0.09879818044366115,-0.6160097983226543,0.08548770073589423,0.9955612156868467,0.09352316526210507,-0.0043475953863047175,0.009611544820767906
1668680645.0477808,38910,1668680645,47650608,,-0.09879818043877091,-0.6160097983086036,0.0854867637620966,0.9955612156868469,0.09352316526210501,-0.004347595386304739,0.00961154482076797
1668680645.056039,38911,1668680645,55644113,,-0.09879818043428486,-0.6160097982957131,0.08548585154132252,0.9955612156868469,0.0935231652621048,-0.004347595386304643,0.009611544820767764
1668680645.064015,38912,1668680645,63698607,,-0.0987981804301625,-0.6160097982838689,0.0854849517996418,0.9955612156868469,0.09352316526210479,-0.004347595386304675,0.009611544820767846
1668680645.072515,38913,1668680645,72370207,,-0.09879818042641757,-0.6160097982731082,0.0854841187243505,0.9955612156868469,0.09352316526210461,-0.004347595386304659,0.00961154482076782
1668680645.0799878,38914,1668680645,79875402,,-0.09879818042309876,-0.6160097982635725,0.08548343036805853,0.9955612156868469,0.09352316526210445,-0.004347595386304651,0.009611544820767851
1668680645.088206,38915,1668680645,88077085,,-0.0987981804201856,-0.6160097982552022,0.08548292248728576,0.9955612156868469,0.09352316526210458,-0.004347595386304678,0.009611544820767886
1668680645.0954304,38916,1668680645,95303571,,-0.09879818041761525,-0.6160097982478172,0.08548256355122529,0.9955612156868469,0.0935231652621047,-0.00434759538630464,0.00961154482076781
1668680645.1038537,38917,1668680645,103723675,,-0.09879818041531643,-0.6160097982412119,0.08548230667157317,0.9955612156868469,0.09352316526210469,-0.00434759538630464,0.00961154482076781
1668680645.1119967,38918,1668680645,111796384,,-0.09879818041325661,-0.6160097982352934,0.0854821252799153,0.9955612156868469,0.0935231652621047,-0.004347595386304633,0.009611544820767795
1668680645.1207967,38919,1668680645,120491580,,-0.09879818041140521,-0.6160097982299736,0.08548196842127924,0.9955612156868469,0.09352316526210469,-0.004347595386304588,0.009611544820767705
1668680645.1278706,38920,1668680645,127741533,,-0.09879818040974037,-0.6160097982251898,0.08548179416594776,0.9955612156868469,0.09352316526210469,-0.004347595386304602,0.009611544820767733
1668680645.1352506,38921,1668680645,135150366,,-0.09879818040823245,-0.6160097982208569,0.08548150770568722,0.9955612156868469,0.0935231652621047,-0.004347595386304581,0.009611544820767667
1668680645.1435442,38922,1668680645,143460056,,-0.09879817914524602,-0.6160097997030919,0.08548103590854872,0.9955612156868467,0.0935231652621049,-0.004347595386304594,0.00961154482076768
1668680645.1525414,38923,1668680645,152323073,,-0.09879817167663475,-0.6160098084965322,0.0854804423996515,0.9955612156868469,0.09352316526210487,-0.004347595386304587,0.0096115448207678
1668680645.1597,38924,1668680645,159592067,,-0.0987981484149935,-0.6160098358962236,0.08547981140960087,0.9955612156868467,0.09352316526210494,-0.004347595386304609,0.009611544820767873
1668680645.1678257,38925,1668680645,167632453,,-0.0987980955155829,-0.6160098982126475,0.08547915479109286,0.9955612156868467,0.093523165262105,-0.004347595386304513,0.009611544820767943
1668680645.1755245,38926,1668680645,175349013,,-0.09879799524033776,-0.6160100163429079,0.08547848150627851,0.9955612156868469,0.09352316526210487,-0.004347595386304577,0.009611544820768255
1668680645.1841307,38927,1668680645,183970134,,-0.09879782630093069,-0.6160102153667432,0.08547781758821575,0.9955612156868467,0.09352316526210498,-0.004347595386304933,0.0096115448207691
1668680645.1926167,38928,1668680645,192503161,,-0.09879756418174324,-0.6160105241658225,0.08547717597956056,0.9955612156868467,0.0935231652621049,-0.004347595386305781,0.009611544820770992
1668680645.200415,38929,1668680645,200019611,,-0.09879718144384297,-0.616010975065678,0.08547655879333133,0.9955612156868467,0.09352316526210487,-0.004347595386307707,0.009611544820775269
1668680645.2079852,38930,1668680645,207836873,,-0.09879664801077506,-0.6160116034989158,0.08547595035417498,0.9955612156868466,0.09352316526210476,-0.004347595386311351,0.009611544820783538
1668680645.2159882,38931,1668680645,215766979,,-0.09879593143710799,-0.6160124476888831,0.08547532772804278,0.9955612156868465,0.09352316526210473,-0.004347595386318312,0.009611544820798843
1668680645.2240267,38932,1668680645,223844144,,-0.09879499716051238,-0.6160135483526427,0.0854746750209611,0.9955612156868462,0.09352316526210477,-0.004347595386330035,0.009611544820824902
1668680645.2316754,38933,1668680645,231493822,,-0.09879380873822309,-0.6160149484224432,0.08547403000633243,0.9955612156868456,0.09352316526210476,-0.004347595386349495,0.0096115448208678
1668680645.2397985,38934,1668680645,239625723,,-0.09879232806858622,-0.6160166927845885,0.08547344550158677,0.995561215686845,0.09352316526210452,-0.004347595386379818,0.009611544820934884
1668680645.2483644,38935,1668680645,248152919,,-0.0987905155984516,-0.616018828034898,0.08547290110242649,0.9955612156868437,0.09352316526210437,-0.004347595386425456,0.009611544821035961
1668680645.2559865,38936,1668680645,255824587,,-0.09878833051720565,-0.6160214022501681,0.08547238490473268,0.9955612156868421,0.09352316526210416,-0.0043475953864922515,0.009611544821183586
1668680645.2640617,38937,1668680645,263924975,,-0.09878573093804671,-0.6160244647746276,0.08547192070895727,0.9955612156868396,0.09352316526210401,-0.004347595386587201,0.009611544821393519
1668680645.2721727,38938,1668680645,272078155,,-0.09878267406712493,-0.6160280660205262,0.08547151852094081,0.9955612156868363,0.09352316526210361,-0.004347595386719059,0.009611544821684935
1668680645.2800412,38939,1668680645,279876487,,-0.09877911636124585,-0.6160322572823599,0.0854711514144249,0.9955612156868318,0.09352316526210322,-0.0043475953868981395,0.009611544822081066
1668680645.287774,38940,1668680645,287585491,,-0.09877501367470394,-0.6160370905639277,0.08547076227058414,0.9955612156868258,0.09352316526210253,-0.004347595387137109,0.00961154482260935
1668680645.2954886,38941,1668680645,295339151,,-0.0987703213957521,-0.6160426184173813,0.08547032434145559,0.9955612156868177,0.09352316526210172,-0.004347595387450357,0.009611544823301814
1668680645.303707,38942,1668680645,303572746,,-0.09876499457333135,-0.6160488937938321,0.08546983213925886,0.9955612156868073,0.09352316526210078,-0.004347595387854967,0.00961154482419634
1668680645.3122394,38943,1668680645,311994294,,-0.09875898803459825,-0.6160559699049639,0.08546923913590336,0.9955612156867942,0.0935231652620996,-0.0043475953883703,0.009611544825335697
1668680645.3199766,38944,1668680645,319848257,,-0.09875225649370602,-0.6160639000949285,0.0854684752598158,0.9955612156867778,0.09352316526209788,-0.00434759538901844,0.00961154482676858
1668680645.3276305,38945,1668680645,327514879,,-0.09874475465215124,-0.6160727377214963,0.08546760340954113,0.9955612156867572,0.09352316526209592,-0.004347595389824374,0.009611544828550377
1668680645.3356109,38946,1668680645,335472197,,-0.09873643729138393,-0.6160825360466193,0.08546680892655245,0.995561215686732,0.0935231652620932,-0.004347595390815987,0.009611544830742643
1668680645.3444822,38947,1668680645,344188577,,-0.09872725935825183,-0.6160933481362899,0.08546618704410143,0.9955612156867012,0.09352316526209004,-0.004347595392024224,0.009611544833413734
1668680645.3524551,38948,1668680645,352290682,,-0.09871717604341308,-0.6161052267683952,0.08546577815554386,0.995561215686664,0.09352316526208639,-0.004347595393483414,0.009611544836639558
1668680645.360398,38949,1668680645,360299565,,-0.09870614285300655,-0.6161182243477985,0.08546560438630334,0.9955612156866195,0.0935231652620818,-0.004347595395231062,0.009611544840503023
1668680645.367677,38950,1668680645,367482436,,-0.09869411567448165,-0.6161323928297125,0.08546562512580404,0.9955612156865666,0.09352316526207632,-0.004347595397308067,0.009611544845094437
1668680645.3760164,38951,1668680645,375850663,,-0.09868105083618393,-0.6161477836487402,0.08546581299485036,0.9955612156865042,0.0935231652620701,-0.004347595399759007,0.009611544850512603
1668680645.3835108,38952,1668680645,383302037,,-0.09866690516150409,-0.616164447654516,0.08546619292889959,0.995561215686431,0.0935231652620628,-0.0043475954026318655,0.009611544856863288
1668680645.3916633,38953,1668680645,391546327,,-0.09865163601797582,-0.6161824350537419,0.08546679176439684,0.9955612156863458,0.09352316526205418,-0.004347595405978389,0.0096115448642608
1668680645.3995762,38954,1668680645,399481243,,-0.09863520136182694,-0.6162017953587936,0.08546761364168255,0.9955612156862471,0.09352316526204414,-0.004347595409853882,0.009611544872827388
1668680645.4082897,38955,1668680645,408138547,,-0.09861755977748685,-0.6162225773402801,0.08546865884100895,0.9955612156861334,0.09352316526203269,-0.0043475954143174095,0.009611544882693711
1668680645.4157112,38956,1668680645,415609829,,-0.09859867051345006,-0.6162448289864344,0.08546985744421827,0.9955612156860032,0.09352316526201972,-0.004347595419431554,0.009611544893997983
1668680645.4241734,38957,1668680645,424073532,,-0.0985784935135253,-0.6162685974654644,0.08547114784661822,0.9955612156858547,0.09352316526200476,-0.004347595425262909,0.00961154490688707
1668680645.4315176,38958,1668680645,431427697,,-0.09855698944406738,-0.6162939290915432,0.08547249535087766,0.9955612156856862,0.09352316526198778,-0.004347595431881271,0.009611544921515438
1668680645.4400403,38959,1668680645,439895438,,-0.09853411971851243,-0.6163208692972619,0.08547387212005093,0.9955612156854957,0.09352316526196855,-0.004347595439360591,0.009611544938046074
1668680645.4478521,38960,1668680645,447689505,,-0.09850984651791116,-0.616349462607862,0.08547527962423944,0.9955612156852813,0.09352316526194698,-0.004347595447778017,0.009611544956649577
1668680645.45554,38961,1668680645,455339777,,-0.09848413280906824,-0.6163797526209809,0.08547671556384355,0.995561215685041,0.09352316526192293,-0.004347595457214508,0.00961154497750453
1668680645.463975,38962,1668680645,463812484,,-0.09845694235951517,-0.6164117819888607,0.08547817549090442,0.9955612156847727,0.0935231652618959,-0.004347595467754225,0.009611545000796909
1668680645.4719627,38963,1668680645,471707196,,-0.09842823974964629,-0.6164455924031665,0.08547968328341685,0.9955612156844741,0.09352316526186599,-0.004347595479485028,0.009611545026720557
1668680645.4800506,38964,1668680645,479902616,,-0.0983979903824785,-0.6164812245829894,0.08548127597409419,0.9955612156841427,0.09352316526183281,-0.004347595492497823,0.009611545055476086
1668680645.488102,38965,1668680645,487691736,,-0.09836616049175573,-0.6165187182673942,0.08548295529854179,0.9955612156837763,0.09352316526179634,-0.004347595506887003,0.009611545087271666
1668680645.4955537,38966,1668680645,495386188,,-0.09833271714752886,-0.616558112209339,0.08548467393658886,0.9955612156833725,0.09352316526175608,-0.004347595522749859,0.009611545122322044
1668680645.509293,38967,1668680645,508681459,,-0.09829762825930442,-0.6165994441705888,0.08548639176852979,0.9955612156829284,0.09352316526171195,-0.0043475955401866915,0.009611545160848181
1668680645.515619,38968,1668680645,515432344,,-0.09826086257713552,-0.6166427509180926,0.08548808767043753,0.9955612156824418,0.0935231652616636,-0.004347595559300903,0.009611545203078223
1668680645.5209591,38969,1668680645,520719271,,-0.0982223896918708,-0.616688068224765,0.08548976437411938,0.9955612156819099,0.09352316526161081,-0.00434759558019838,0.009611545249245674
1668680645.5281503,38970,1668680645,527987631,,-0.09818218003305793,-0.6167354308697869,0.08549145390202721,0.9955612156813296,0.09352316526155337,-0.004347595602987767,0.009611545299589883
1668680645.536089,38971,1668680645,535948278,,-0.09814020486717866,-0.616784872645645,0.08549311021984571,0.9955612156806986,0.09352316526149095,-0.0043475956277802775,0.00961154535435565
1668680645.543964,38972,1668680645,543718436,,-0.09809643629316028,-0.6168364263626132,0.08549467931348914,0.9955612156800135,0.09352316526142332,-0.004347595654689194,0.0096115454137927
1668680645.5516903,38973,1668680645,551565593,,-0.0980508472355224,-0.6168901238512523,0.08549613586471698,0.9955612156792718,0.0935231652613502,-0.004347595683830466,0.009611545478156158
1668680645.5602987,38974,1668680645,560186463,,-0.09800341143882398,-0.616945995973084,0.08549744136049965,0.9955612156784703,0.09352316526127132,-0.004347595715321653,0.00961154554770456
1668680645.56888,38975,1668680645,568375683,,-0.09795410345958629,-0.6170040726279892,0.08549855158317249,0.9955612156776057,0.09352316526118652,-0.004347595749282371,0.009611545622701376
1668680645.5753748,38976,1668680645,575242998,,-0.09790289865819285,-0.6170643827651839,0.08549940619287305,0.9955612156766755,0.09352316526109535,-0.004347595785834112,0.009611545703413639
1668680645.5839198,38977,1668680645,583775304,,-0.0978497731887337,-0.6171269543915363,0.08549998826961587,0.9955612156756762,0.09352316526099787,-0.004347595825099799,0.009611545790111437
1668680645.5916893,38978,1668680645,591595496,,-0.09779470398889928,-0.6171918145829699,0.08550029943421841,0.9955612156746046,0.09352316526089348,-0.004347595867203758,0.009611545883068015
1668680645.6005783,38979,1668680645,600421541,,-0.09773766876947416,-0.6172589894973557,0.0855003932660447,0.9955612156734578,0.093523165260782,-0.004347595912271729,0.009611545982559396
1668680645.6079714,38980,1668680645,607803720,,-0.09767864600229238,-0.6173285043852846,0.08550036557669827,0.9955612156722323,0.09352316526066337,-0.004347595960430537,0.0096115460888639
1668680645.6153302,38981,1668680645,615199465,,-0.0976176149108951,-0.6174003836107385,0.08550020742464086,0.995561215670925,0.09352316526053715,-0.004347596011807932,0.009611546202261744
1668680645.6242476,38982,1668680645,624152670,,-0.09755455545791594,-0.6174746506640961,0.08549988354503973,0.9955612156695327,0.09352316526040304,-0.004347596066532227,0.009611546323034502
1668680645.6324103,38983,1668680645,632246258,,-0.09748944833046412,-0.6175513281709042,0.08549940043104075,0.995561215668052,0.0935231652602609,-0.0043475961247327844,0.009611546451465355
1668680645.6399472,38984,1668680645,639810444,,-0.09742227492823433,-0.617630437909887,0.0854987605202952,0.9955612156664796,0.09352316526011038,-0.004347596186539344,0.009611546587838289
1668680645.6479416,38985,1668680645,647776670,,-0.09735301734883049,-0.6177120008240125,0.08549807719735511,0.9955612156648124,0.09352316525995137,-0.004347596252081797,0.00961154673243752
1668680645.656368,38986,1668680645,656228659,,-0.09728165837401152,-0.6177960370351628,0.08549749804190318,0.9955612156630468,0.09352316525978356,-0.004347596321490339,0.00961154688554777
1668680645.664264,38987,1668680645,664102221,,-0.09720818145974598,-0.6178825658706205,0.08549705515758943,0.9955612156611797,0.09352316525960676,-0.004347596394895203,0.009611547047453367
1668680645.6716177,38988,1668680645,671436465,,-0.09713257072095689,-0.6179716058747269,0.08549675938359369,0.995561215659208,0.09352316525942068,-0.0043475964724264985,0.009611547218438259
1668680645.679602,38989,1668680645,679490854,,-0.09705481091744644,-0.6180631748243957,0.08549655805458763,0.995561215657128,0.09352316525922502,-0.004347596554214031,0.00961154739878549
1668680645.68847,38990,1668680645,688359158,,-0.09697488744104685,-0.6181572897484637,0.0854963487762092,0.9955612156549367,0.09352316525901981,-0.004347596640387181,0.009611547588777062
1668680645.696525,38991,1668680645,696035954,,-0.09689278629804128,-0.6182539669334348,0.08549612769522918,0.9955612156526307,0.09352316525880472,-0.004347596731074652,0.009611547788693126
1668680645.7044103,38992,1668680645,704319145,,-0.09680849409560083,-0.6183532219409119,0.08549592423896508,0.995561215650207,0.09352316525857937,-0.0043475968264049996,0.009611547998812774
1668680645.7118142,38993,1668680645,711623765,,-0.0967219980293289,-0.6184550696281702,0.08549577825078057,0.9955612156476623,0.09352316525834406,-0.004347596926505128,0.009611548219412255
1668680645.7205346,38994,1668680645,720350044,,-0.09663328586817045,-0.618559524160849,0.08549574790661799,0.9955612156449932,0.09352316525809834,-0.004347597031501793,0.009611548450765886
1668680645.7285686,38995,1668680645,728322275,,-0.09654234594258086,-0.618666599034854,0.08549583260198174,0.9955612156421968,0.093523165257842,-0.004347597141520183,0.009611548693145034
1668680645.735548,38996,1668680645,735399442,,-0.09644916713047787,-0.6187763070914127,0.08549600246857088,0.9955612156392699,0.093523165257575,-0.0043475972566842675,0.00961154894681817
1668680645.7439017,38997,1668680645,743682997,,-0.09635373884217037,-0.6188886605286652,0.08549624293231156,0.9955612156362095,0.09352316525729706,-0.004347597377117046,0.009611549212050714
1668680645.751802,38998,1668680645,751670320,,-0.09625605100692539,-0.6190036709174979,0.08549654392833557,0.9955612156330124,0.09352316525700831,-0.0043475975029399145,0.009611549489104561
1668680645.7603347,38999,1668680645,760058092,,-0.09615609405823418,-0.619121349212951,0.08549698502990109,0.9955612156296756,0.0935231652567084,-0.004347597634272654,0.009611549778237463
1668680645.767984,39000,1668680645,767726858,,-0.09605385891968968,-0.6192417057667498,0.08549769019534992,0.9955612156261963,0.09352316525639728,-0.004347597771233258,0.00961155007970375
1668680645.7754917,39001,1668680645,775349644,,-0.09594933699727087,-0.6193647503578602,0.08549866334300078,0.9955612156225714,0.09352316525607503,-0.004347597913938345,0.009611550393753025
1668680645.783827,39002,1668680645,783705578,,-0.0958425201655516,-0.6194904922045039,0.08549986059992411,0.9955612156187981,0.09352316525574145,-0.004347598062502469,0.009611550720630845
1668680645.792112,39003,1668680645,791780225,,-0.09573340075513123,-0.619618939978941,0.08550110038716713,0.9955612156148737,0.09352316525539671,-0.004347598217038037,0.009611551060577756
1668680645.8003864,39004,1668680645,800230180,,-0.09562197154219311,-0.6197501018276229,0.08550212992507757,0.9955612156107954,0.09352316525504037,-0.004347598377655652,0.009611551413829422
1668680645.8082893,39005,1668680645,808144401,,-0.09550826756856225,-0.6198839853635865,0.08550286294127421,0.995561215606562,0.09352316525467282,-0.004347598544394551,0.009611551780463542
1668680645.8154893,39006,1668680645,815309992,,-0.09539235485248417,-0.6200205976878083,0.08550334346336205,0.9955612156021761,0.09352316525429452,-0.0043475987171681125,0.009611552160279044
1668680645.8242586,39007,1668680645,824109739,,-0.09527425202552832,-0.6201599453888975,0.08550362792491595,0.9955612155976377,0.09352316525390561,-0.004347598895979031,0.009611552553272028
1668680645.8316615,39008,1668680645,831557654,,-0.09515395976898726,-0.6203020345648252,0.08550375110145071,0.9955612155929444,0.09352316525350611,-0.004347599080917093,0.009611552959631299
1668680645.8398192,39009,1668680645,839694031,,-0.09503151770862629,-0.6204468708525308,0.0855037109717889,0.9955612155880967,0.09352316525309647,-0.004347599271969492,0.009611553379318702
1668680645.8479726,39010,1668680645,847772659,,-0.09490696508215535,-0.620594459437843,0.08550346790078613,0.9955612155830961,0.09352316525267695,-0.004347599469082018,0.009611553812203901
1668680645.856239,39011,1668680645,856096189,,-0.0947803230361742,-0.6207448050421696,0.0855031012654854,0.9955612155779423,0.09352316525224769,-0.0043475996722640515,0.009611554258296936
1668680645.863611,39012,1668680645,863480483,,-0.09465156278061694,-0.6208979119327538,0.08550273279581148,0.9955612155726333,0.09352316525180851,-0.004347599881608505,0.009611554717793082
1668680645.8717372,39013,1668680645,871549703,,-0.09452063250239709,-0.6210537839482603,0.08550239349319678,0.9955612155671628,0.09352316525135963,-0.004347600097349659,0.009611555191199116
1668680645.8797126,39014,1668680645,879616140,,-0.09438749706263419,-0.6212124245264442,0.0855020975355333,0.9955612155615273,0.0935231652509008,-0.004347600319638265,0.009611555678837286
1668680645.8883252,39015,1668680645,888153250,,-0.09425205877498513,-0.6213738366894502,0.08550181895709612,0.9955612155557193,0.09352316525043186,-0.004347600548775111,0.00961155618136075
1668680645.8954885,39016,1668680645,895350503,,-0.0941142070376603,-0.6215380230621711,0.08550149683937389,0.9955612155497275,0.09352316524995233,-0.004347600785190525,0.009611556699709338
1668680645.9037657,39017,1668680645,903619728,,-0.09397390522403717,-0.6217049859062849,0.08550111410512125,0.9955612155435466,0.09352316524946165,-0.004347601029105724,0.009611557234357866
1668680645.9116066,39018,1668680645,911437577,,-0.09383113606907215,-0.6218747271209099,0.08550066505936749,0.9955612155371741,0.09352316524896023,-0.004347601280629914,0.00961155778553406
1668680645.9201481,39019,1668680645,920013917,,-0.09368587433029342,-0.6220472482476043,0.08550002051023183,0.9955612155306058,0.09352316524844816,-0.0043476015399255465,0.0096115583535819
1668680645.9282331,39020,1668680645,928103870,,-0.09353811023390168,-0.6222225504915153,0.08549900748833827,0.9955612155238388,0.09352316524792555,-0.004347601807101726,0.00961155893872752
1668680645.9355261,39021,1668680645,935265243,,-0.09338786960313294,-0.622400634697887,0.08549770770880248,0.9955612155168732,0.09352316524739267,-0.0043476020821783,0.009611559540997995
1668680645.9440312,39022,1668680645,943875686,,-0.09323518166094943,-0.6225815013661647,0.08549626259934394,0.99556121550971,0.09352316524685018,-0.0043476023650975805,0.009611560160249574
1668680645.9529607,39023,1668680645,952695783,,-0.09308014427323336,-0.6227651506918672,0.08549477808911106,0.9955612155023539,0.0935231652462985,-0.004347602655699685,0.009611560796111564
1668680645.9599464,39024,1668680645,959832917,,-0.0929228983061634,-0.6229515825726817,0.08549340021642705,0.9955612154948171,0.09352316524573959,-0.00434760295350502,0.00961156144750527
1668680645.96767,39025,1668680645,967508499,,-0.09276339468348425,-0.6231407965497358,0.08549218160841128,0.9955612154870983,0.0935231652451731,-0.004347603258567954,0.00961156211453476
1668680645.9753702,39026,1668680645,975261621,,-0.09260149351987043,-0.6233327918219255,0.08549106580636467,0.995561215479183,0.09352316524459868,-0.004347603571465733,0.009611562798461547
1668680645.984157,39027,1668680645,983863778,,-0.0924371494072278,-0.6235275673343788,0.08548999064228863,0.9955612154710644,0.09352316524401631,-0.004347603892460488,0.009611563499847499
1668680645.9920058,39028,1668680645,991715341,,-0.09227034159429019,-0.6237251217544314,0.08548892520807086,0.9955612154627405,0.09352316524342613,-0.004347604221648332,0.009611564218886178
1668680645.999716,39029,1668680645,999611886,,-0.09210103903384088,-0.6239254534590872,0.0854878835395244,0.9955612154542065,0.09352316524282825,-0.004347604559204489,0.009611564955946212
1668680646.00788,39030,1668680646,7692365,,-0.0919292303571334,-0.6241285605488358,0.0854869309840256,0.9955612154454606,0.09352316524222304,-0.0043476049052263285,0.009611565711222868
1668680646.0168705,39031,1668680646,16164878,,-0.09175491446290951,-0.624334440873075,0.08548602064193689,0.9955612154365011,0.09352316524161108,-0.004347605259768062,0.009611566484814938
1668680646.0235274,39032,1668680646,23349076,,-0.0915780955427279,-0.6245430920379308,0.0854850103019272,0.9955612154273279,0.09352316524099237,-0.004347605622859271,0.009611567276767544
1668680646.0317445,39033,1668680646,31618702,,-0.09139878141285736,-0.6247545113879359,0.08548383356511217,0.9955612154179403,0.09352316524036801,-0.004347605994512845,0.009611568087087137
1668680646.0401618,39034,1668680646,40039596,,-0.09121698063271014,-0.6249686960064986,0.08548246549485583,0.9955612154083388,0.09352316523973815,-0.00434760637473169,0.00961156891575823
1668680646.0482721,39035,1668680646,48049966,,-0.09103270107180629,-0.6251856427273462,0.08548096762147797,0.9955612153985232,0.09352316523910355,-0.0043476067635193774,0.009611569762765953
1668680646.0559492,39036,1668680646,55823504,,-0.09084595115842861,-0.6254053481176982,0.08547957013436575,0.9955612153884938,0.09352316523846481,-0.004347607160873455,0.009611570628082437
1668680646.0634103,39037,1668680646,63268485,,-0.09065673951118869,-0.6256278085110168,0.0854784708765448,0.995561215378251,0.09352316523782254,-0.004347607566786918,0.009611571511669005
1668680646.0719593,39038,1668680646,71731347,,-0.09046507482795732,-0.6258530200337192,0.08547771860481262,0.9955612153677952,0.09352316523717721,-0.004347607981248984,0.009611572413477817
1668680646.0803883,39039,1668680646,80234516,,-0.09027096566440931,-0.6260809785879309,0.08547742712669253,0.9955612153571269,0.0935231652365293,-0.004347608404245257,0.009611573333453837
1668680646.0884814,39040,1668680646,88324236,,-0.09007442032567789,-0.626311679834931,0.08547777428829524,0.9955612153462469,0.09352316523587965,-0.004347608835759369,0.009611574271536178
1668680646.0956638,39041,1668680646,95521033,,-0.0898754469918072,-0.6265451192497251,0.08547873140003281,0.9955612153351558,0.09352316523522912,-0.004347609275771878,0.009611575227657302
1668680646.1036384,39042,1668680646,103534440,,-0.08967405370663992,-0.6267812921163405,0.0854801968964159,0.9955612153238541,0.09352316523457803,-0.0043476097242603935,0.009611576201742637
1668680646.1119564,39043,1668680646,111644004,,-0.08947024834654523,-0.6270201935057879,0.08548205533833535,0.995561215312343,0.09352316523392708,-0.0043476101811998555,0.009611577193711794
1668680646.1196523,39044,1668680646,119558828,,-0.08926403861899047,-0.6272618182951234,0.08548416132858486,0.995561215300623,0.09352316523327708,-0.004347610646562669,0.00961157820347805
1668680646.127509,39045,1668680646,127417711,,-0.08905543207950478,-0.6275061611481434,0.08548642939093364,0.9955612152886953,0.09352316523262855,-0.004347611120318636,0.009611579230948946
1668680646.135417,39046,1668680646,135314293,,-0.08884443613691548,-0.6277532165192512,0.08548885130541366,0.9955612152765612,0.09352316523198251,-0.004347611602434784,0.009611580276025117
1668680646.1444886,39047,1668680646,144317095,,-0.08863105806175722,-0.6280029786588279,0.08549144265198864,0.9955612152642211,0.09352316523133952,-0.004347612092875414,0.009611581338601708
1668680646.1518328,39048,1668680646,151692258,,-0.08841530499760641,-0.6282554416320549,0.08549420211859562,0.9955612152516767,0.09352316523070037,-0.004347612591602599,0.009611582418567754
1668680646.1597202,39049,1668680646,159606814,,-0.08819718396633994,-0.6285105993159081,0.08549710909612691,0.9955612152389293,0.09352316523006558,-0.004347613098575839,0.009611583515806372
1668680646.1676698,39050,1668680646,167546977,,-0.08797670187975797,-0.628768445409182,0.085500117082634,0.9955612152259798,0.09352316522943618,-0.0043476136137516495,0.009611584630194786
1668680646.1763682,39051,1668680646,176200089,,-0.08775386554396962,-0.6290289734255834,0.0855031818472269,0.9955612152128298,0.09352316522881295,-0.004347614137084422,0.009611585761603867
1668680646.184072,39052,1668680646,183958968,,-0.08752868166710687,-0.6292921766972644,0.08550627255573827,0.9955612151994808,0.09352316522819641,-0.00434761466852578,0.00961158690989928
1668680646.191812,39053,1668680646,191565276,,-0.08730115686533632,-0.629558048374169,0.08550936558921661,0.9955612151859342,0.0935231652275875,-0.004347615208024805,0.009611588074940261
1668680646.1995823,39054,1668680646,199431181,,-0.08707129767173796,-0.629826581432803,0.08551243093875613,0.9955612151721916,0.09352316522698711,-0.004347615755528138,0.009611589256580602
1668680646.2087576,39055,1668680646,208540703,,-0.08683911053925947,-0.6300977686667114,0.08551549663986913,0.9955612151582546,0.09352316522639617,-0.0043476163109797275,0.009611590454668124
1668680646.215903,39056,1668680646,215743484,,-0.08660460184611898,-0.6303716026856869,0.08551863363844397,0.9955612151441249,0.093523165225815,-0.00434761687432143,0.009611591669045133
1668680646.2239244,39057,1668680646,223649849,,-0.08636777790723006,-0.6306480759345612,0.08552188648657218,0.9955612151298043,0.09352316522524487,-0.004347617445492205,0.00961159289954797
1668680646.2321913,39058,1668680646,231963954,,-0.08612864498108036,-0.6309271806984961,0.08552525911594977,0.9955612151152947,0.09352316522468637,-0.0043476180244288055,0.009611594146007648
1668680646.240862,39059,1668680646,240663792,,-0.08588720927583969,-0.6312089091065918,0.08552869943573396,0.9955612151005979,0.09352316522414052,-0.004347618611065334,0.009611595408249246
1668680646.247728,39060,1668680646,247613084,,-0.08564347695328697,-0.631493253129277,0.08553214034223487,0.9955612150857158,0.0935231652236082,-0.004347619205333515,0.009611596686092199
1668680646.2559855,39061,1668680646,255817773,,-0.08539745413133693,-0.6317802045718869,0.0855355005845272,0.9955612150706505,0.09352316522309008,-0.004347619807162672,0.009611597979350883
1668680646.2635913,39062,1668680646,263468299,,-0.08514914689014279,-0.632069755080139,0.08553870816603566,0.9955612150554043,0.09352316522258697,-0.004347620416479485,0.009611599287833509
1668680646.2723281,39063,1668680646,272194075,,-0.08489856127085538,-0.6323618961229638,0.08554175250091021,0.9955612150399791,0.09352316522209983,-0.004347621033208742,0.009611600611343401
1668680646.280334,39064,1668680646,280233539,,-0.0846457032838012,-0.6326566190057246,0.08554463181692,0.995561215024377,0.0935231652216297,-0.004347621657272103,0.009611601949677926
1668680646.28813,39065,1668680646,287643735,,-0.08439057891303331,-0.6329539148725251,0.08554737121724086,0.9955612150086005,0.09352316522117753,-0.0043476222885897265,0.009611603302629577
1668680646.2953572,39066,1668680646,295208561,,-0.08413319411581177,-0.633253774692913,0.08555007793939107,0.9955612149926519,0.0935231652207438,-0.004347622927078602,0.009611604669985426
1668680646.3041422,39067,1668680646,303985962,,-0.08387355483163995,-0.6335561892795576,0.08555282441089056,0.9955612149765335,0.0935231652203298,-0.004347623572653754,0.009611606051526791
1668680646.3117378,39068,1668680646,311580240,,-0.08361166699187489,-0.633861149308366,0.0855556418393111,0.9955612149602479,0.09352316521993614,-0.004347624225227772,0.00961160744703025
1668680646.3198018,39069,1668680646,319620796,,-0.08334753651814154,-0.6341686453033611,0.08555850464155783,0.9955612149437976,0.09352316521956376,-0.004347624884711222,0.009611608856267514
1668680646.3276174,39070,1668680646,327503476,,-0.08308116933226244,-0.6344786676588889,0.0855613207318457,0.9955612149271849,0.09352316521921365,-0.004347625551011907,0.00961161027900425
1668680646.3362138,39071,1668680646,335778714,,-0.0828125713505783,-0.6347912066122197,0.0855639841310142,0.9955612149104127,0.09352316521888673,-0.004347626224035735,0.009611611715001873
1668680646.3437233,39072,1668680646,343624679,,-0.08254174848787948,-0.635106252247353,0.08556642615438409,0.9955612148934836,0.09352316521858381,-0.004347626903686275,0.009611613164016408
1668680646.3518353,39073,1668680646,351636321,,-0.08226870665465454,-0.6354237944777147,0.0855686084863622,0.9955612148764005,0.09352316521830585,-0.004347627589864734,0.009611614625799007
1668680646.3599324,39074,1668680646,359734276,,-0.08199345176892657,-0.6357438230763391,0.08557046940909961,0.9955612148591659,0.09352316521805366,-0.004347628282470309,0.00961161610009586
1668680646.3681386,39075,1668680646,367987896,,-0.08171598975308107,-0.6360663276579933,0.08557195897416492,0.9955612148417831,0.09352316521782839,-0.0043476289813998755,0.009611617586648765
1668680646.3759565,39076,1668680646,375792889,,-0.0814363277373664,-0.6363912976775842,0.0855730989095798,0.9955612148242547,0.09352316521763072,-0.004347629686543524,0.009611619085183895
1668680646.3841197,39077,1668680646,383977008,,-0.08115447276003188,-0.6367187224195275,0.0855739546736795,0.9955612148065841,0.09352316521746165,-0.004347630397785137,0.009611620595413675
1668680646.3919864,39078,1668680646,391876452,,-0.08087043107330344,-0.6370485910294083,0.0855745682776863,0.9955612147887744,0.09352316521732208,-0.004347631115014256,0.009611622117064055
1668680646.4007769,39079,1668680646,400558983,,-0.08058420811644197,-0.6373808924958315,0.08557500940360274,0.9955612147708284,0.0935231652172131,-0.004347631838119655,0.009611623649858325
1668680646.4081554,39080,1668680646,408002287,,-0.08029580847019845,-0.6377156156587566,0.08557533749260297,0.9955612147527493,0.09352316521713533,-0.004347632566996875,0.00961162519353528
1668680646.4153008,39081,1668680646,415188003,,-0.08000525055507497,-0.6380527492404784,0.08557548123770106,0.9955612147345414,0.09352316521708978,-0.004347633301482771,0.00961162674770384
1668680646.4242806,39082,1668680646,424186591,,-0.0797125522385611,-0.6383922818384261,0.08557535912693927,0.9955612147162104,0.09352316521707749,-0.004347634041361508,0.00961162831185668
1668680646.4326284,39083,1668680646,432388786,,-0.07941771122032817,-0.6387342019101961,0.0855746405672775,0.9955612146977586,0.09352316521709925,-0.004347634786550752,0.009611629885781802
1668680646.4404101,39084,1668680646,440297769,,-0.0791207225400208,-0.639078497841192,0.0855728361079962,0.9955612146791877,0.09352316521715585,-0.004347635537001643,0.00961163146934263
1668680646.4477763,39085,1668680646,447603762,,-0.07882158664084046,-0.6394251577915008,0.08556968591100027,0.9955612146604997,0.09352316521724845,-0.00434763629262888,0.009611633062320492
1668680646.4557772,39086,1668680646,455626800,,-0.07852030686186152,-0.6397741698404009,0.08556446345512525,0.9955612146416978,0.09352316521737775,-0.004347637053326009,0.009611634664450936
1668680646.4642906,39087,1668680646,464025150,,-0.07821688809471236,-0.6401255220054168,0.08555630910196103,0.9955612146227851,0.09352316521754472,-0.004347637818975055,0.009611636275443522
1668680646.4726098,39088,1668680646,472514544,,-0.0779113362440379,-0.6404792019495829,0.08554511299450945,0.9955612146037653,0.09352316521775003,-0.004347638589449965,0.009611637894990074
1668680646.4800863,39089,1668680646,479978534,,-0.07760228104077421,-0.6408365547090819,0.0855291791238459,0.9955612145844513,0.09352316521799202,-0.004347639372030438,0.009611639539180828
1668680646.4876645,39090,1668680646,487554320,,-0.07728773350250216,-0.6411995325733557,0.08550591735519664,0.9955612145643765,0.09352316521826662,-0.004347640184868167,0.009611641248164363
1668680646.4961162,39091,1668680646,495951352,,-0.07696823783969484,-0.6415677100504124,0.08547580623529538,0.9955612145435245,0.09352316521857626,-0.004347641028633234,0.009611643023306464
1668680646.5037706,39092,1668680646,503616539,,-0.07664503215252806,-0.6419399713493253,0.08544033772569402,0.9955612145222257,0.09352316521892715,-0.004347641890529731,0.009611644836131642
1668680646.5117786,39093,1668680646,511651093,,-0.07631879217605236,-0.6423159018108495,0.08540075333398633,0.9955612145005818,0.09352316521932245,-0.004347642766624545,0.009611646677847637
1668680646.519891,39094,1668680646,519750740,,-0.07599042038923735,-0.6426949886856398,0.08535860062725008,0.9955612144787911,0.09352316521976495,-0.004347643649233,0.009611648531363945
1668680646.528155,39095,1668680646,527920514,,-0.07566037087399739,-0.6430769004369752,0.08531469611272163,0.9955612144569592,0.09352316522025658,-0.004347644534257348,0.00961165038756445
1668680646.535707,39096,1668680646,535449711,,-0.07532886152273748,-0.6434616460240555,0.08526967347542534,0.9955612144351353,0.09352316522079848,-0.00434764541980148,0.009611652242226147
1668680646.543823,39097,1668680646,543705421,,-0.07499594526156135,-0.6438493275728874,0.08522398406629214,0.9955612144133272,0.09352316522139127,-0.004347646305558406,0.009611654094654283
1668680646.5515776,39098,1668680646,551469285,,-0.07466163377219885,-0.644239947453731,0.08517791575557418,0.995561214391539,0.09352316522203534,-0.004347647191376166,0.009611655944498556
1668680646.5599782,39099,1668680646,559769097,,-0.07432595823550651,-0.6446339385633135,0.08513317944321844,0.9955612143697636,0.09352316522273113,-0.004347648077526624,0.009611657792347145
1668680646.5685596,39100,1668680646,568439320,,-0.07398891651996496,-0.6450318243795626,0.08509196811651232,0.9955612143479741,0.09352316522347955,-0.004347648965068563,0.009611659640530672
1668680646.5759199,39101,1668680646,575791700,,-0.07365061102085094,-0.6454332920098099,0.0850554774658528,0.9955612143261904,0.09352316522428099,-0.004347649853227039,0.009611661487314368
1668680646.584234,39102,1668680646,584129844,,-0.07331112440679514,-0.6458378203154658,0.08502403506176878,0.9955612143044706,0.09352316522513598,-0.0043476507397454045,0.009611663327683161
1668680646.5925512,39103,1668680646,592339711,,-0.07297035242779412,-0.6462446474802894,0.08499970592376006,0.9955612142828305,0.09352316522604483,-0.004347651624028427,0.009611665160311656
1668680646.5995765,39104,1668680646,599450789,,-0.07262817069301253,-0.6466527336872848,0.084985649779917,0.9955612142613071,0.09352316522700768,-0.004347652504626512,0.009611666981984566
1668680646.6076767,39105,1668680646,607556894,,-0.07228555032895513,-0.6470623012045156,0.08498383323031454,0.9955612142400152,0.09352316522802373,-0.0043476533770885365,0.009611668782845691
1668680646.6156542,39106,1668680646,615491309,,-0.07194401081947752,-0.6474736775869757,0.08499658607830278,0.9955612142192235,0.09352316522909061,-0.00434765423097467,0.009611670539790122
1668680646.6242018,39107,1668680646,624071321,,-0.07160391246247796,-0.6478866195751515,0.08502454649442531,0.9955612141990481,0.093523165230206,-0.004347655061772617,0.00961167224288467
1668680646.6325796,39108,1668680646,632405964,,-0.07126529805251211,-0.6483010043971213,0.08506741680666907,0.9955612141794785,0.09352316523136882,-0.00434765586984613,0.009611673893019626
1668680646.640411,39109,1668680646,640301086,,-0.07092726620443529,-0.6487171833273333,0.08512427822601276,0.9955612141604216,0.09352316523257878,-0.004347656658804795,0.009611675498266616
1668680646.6484988,39110,1668680646,648394186,,-0.07058816867405625,-0.6491362688371912,0.08519187075330187,0.9955612141415063,0.09352316523383991,-0.004347657443006553,0.009611677090493435
1668680646.6568127,39111,1668680646,655452045,,-0.07024715949941557,-0.6495591770727098,0.08526703179347603,0.9955612141225193,0.0935231652351557,-0.004347658230718548,0.009611678688017659
1668680646.664395,39112,1668680646,664282338,,-0.06990395543067762,-0.649986068748625,0.08534826008191054,0.9955612141033829,0.09352316523652832,-0.004347659024966707,0.009611680297514958
1668680646.6723986,39113,1668680646,672259622,,-0.0695565651737476,-0.6504157401532408,0.08543311112484331,0.9955612140839074,0.09352316523796243,-0.004347659833119326,0.009611681935258317
1668680646.680203,39114,1668680646,679799472,,-0.06920210480303723,-0.650846557248164,0.0855183714179255,0.9955612140636035,0.09352316523946964,-0.004347660674148559,0.009611683643200834
1668680646.6887722,39115,1668680646,688183527,,-0.06883833045972418,-0.6512777260318339,0.08560221871777225,0.9955612140421298,0.09352316524106052,-0.004347661561345523,0.009611685450629284
1668680646.6956577,39116,1668680646,695446645,,-0.06846187605753228,-0.6517088917524422,0.08568339631650009,0.9955612140189075,0.0935231652427532,-0.004347662517188211,0.009611687407123664
1668680646.7038045,39117,1668680646,703634785,,-0.06807125509459214,-0.6521400064831395,0.08576141863639704,0.9955612139934699,0.09352316524456564,-0.0043476635598507125,0.00961168955264394
1668680646.711912,39118,1668680646,711786641,,-0.06766623969921623,-0.6525710987436661,0.08583609670219888,0.9955612139658019,0.09352316524650738,-0.004347664690026746,0.009611691888329325
