Time,header.seq,header.stamp.secs,header.stamp.nsecs,header.frame_id,twist.linear.x,twist.linear.y,twist.linear.z,twist.angular.x,twist.angular.y,twist.angular.z
1668680644.1996586,38804,1668680644,199466473,,6.751469247085573e-08,1.939884843105634e-07,0.00031339811392645193,3.033343166190901e-15,-1.3992766166936946e-15,4.019794781554479e-15
1668680644.2075286,38805,1668680644,207427089,,6.616654753956284e-08,1.901148889855472e-07,0.0003089884606598245,3.0091140699407934e-15,-1.4504147775545527e-15,3.9789292041269064e-15
1668680644.2157378,38806,1668680644,215632612,,6.48227506839298e-08,1.8625378689270506e-07,0.00031504058755303194,2.9807108358191225e-15,-1.5001716868835685e-15,3.935726563432018e-15
1668680644.224243,38807,1668680644,224083938,,6.347031905430712e-08,1.8236787466737678e-07,0.0003256562444554952,2.955584192472044e-15,-1.5508564719711488e-15,3.894217089404031e-15
1668680644.2317235,38808,1668680644,231522736,,6.209625393201979e-08,1.784198033679475e-07,0.00033479072319555185,2.9317773243899867e-15,-1.602155460468553e-15,3.853711947575641e-15
1668680644.2397795,38809,1668680644,239581409,,6.068001069212683e-08,1.7435054263257707e-07,0.00033405756534715973,2.9034709737919116e-15,-1.6513826192740215e-15,3.81330251427666e-15
1668680644.2479916,38810,1668680644,247557054,,5.924124065043965e-08,1.7021655605887382e-07,0.00032822257410306666,2.8778479452271915e-15,-1.7014688727957047e-15,3.7745527622477235e-15
1668680644.2561576,38811,1668680644,256024168,,5.776111769235501e-08,1.6596375109254117e-07,0.00030856351325272394,2.8476149575668655e-15,-1.7497851631869985e-15,3.737678118942434e-15
1668680644.2634594,38812,1668680644,263331633,,5.625275533488552e-08,1.616298065692038e-07,0.00027523985988383193,2.815796144755026e-15,-1.7975112706387573e-15,3.697996213719301e-15
1668680644.2718806,38813,1668680644,271760413,,5.476686132437457e-08,1.5736041981969926e-07,0.000244006299957419,2.7869571149143107e-15,-1.845922252949174e-15,3.659290503129006e-15
1668680644.2803228,38814,1668680644,280030816,,5.3287739043619695e-08,1.5311049009492582e-07,0.00020702515292786406,2.756114144783022e-15,-1.893606860925272e-15,3.616669955388661e-15
1668680644.288538,38815,1668680644,288357277,,5.184787000445156e-08,1.489733457604055e-07,0.00017971469710182866,2.7236711936665866e-15,-1.9405403431198657e-15,3.577321187762128e-15
1668680644.2954614,38816,1668680644,295332503,,5.04285648477683e-08,1.4489528732956917e-07,0.00015424285895606274,2.6889540183398806e-15,-1.9865229783697523e-15,3.5378083204301565e-15
1668680644.304355,38817,1668680644,304162756,,4.902961191849087e-08,1.4087570650681149e-07,0.00013047938887497174,2.6557102921611675e-15,-2.0324868351318043e-15,3.4972805494620188e-15
1668680644.3121188,38818,1668680644,311985435,,4.765100684154208e-08,1.3691459073621857e-07,0.00010833504303097718,2.6223301773733264e-15,-2.077650864502137e-15,3.458164618866695e-15
1668680644.3208308,38819,1668680644,320590338,,4.631669439553516e-08,1.330807399667421e-07,0.00011422025722699409,2.5903836035012146e-15,-2.123769218517664e-15,3.4147294593036428e-15
1668680644.3283293,38820,1668680644,328124849,,4.501096205952329e-08,1.2932900796190221e-07,0.00013342914609141426,2.556874527352601e-15,-2.1685146744443944e-15,3.368315525769397e-15
1668680644.3364897,38821,1668680644,336310963,,4.3734856591609376e-08,1.2566240219215809e-07,0.00016189321013970656,2.5257769999200966e-15,-2.21416554703675e-15,3.3187191656649385e-15
1668680644.3434198,38822,1668680644,343271783,,4.248598342742574e-08,1.2207404236327465e-07,0.00019389804469445676,2.4962717755982464e-15,-2.259804341122339e-15,3.271745881067704e-15
1668680644.3521395,38823,1668680644,351791892,,4.1255483780210465e-08,1.185384747149398e-07,0.00022299157583657658,2.4634895217806727e-15,-2.3042541743980624e-15,3.2235682102086103e-15
1668680644.3598053,38824,1668680644,359679699,,4.004927593535358e-08,1.1507270412503059e-07,0.00025258777355167044,2.430493309879235e-15,-2.3481370632470395e-15,3.1826451815704002e-15
1668680644.3677623,38825,1668680644,367649698,,3.8820894865051006e-08,1.1154322379663765e-07,0.0002622360881301799,2.395718949166251e-15,-2.3913719505823924e-15,3.1400993955897382e-15
1668680644.375878,38826,1668680644,375730929,,3.758923337300271e-08,1.0800431776657496e-07,0.0002612324651576241,2.3649746207759873e-15,-2.4354473507537963e-15,3.098323025066339e-15
1668680644.384412,38827,1668680644,384256453,,3.636858748976597e-08,1.0449706270057867e-07,0.00025482881641632037,2.3284109284429697e-15,-2.4777985797566404e-15,3.051119844469898e-15
1668680644.3920755,38828,1668680644,391962632,,3.5173007436561945e-08,1.0106182872012637e-07,0.00024842846536547334,2.2898054074589896e-15,-2.519449629072236e-15,3.0000745322189433e-15
1668680644.3998773,38829,1668680644,399643652,,3.397470130485747e-08,9.761876201636149e-08,0.00022852657125650442,2.245982477220681e-15,-2.5589616727309656e-15,2.946329958851722e-15
1668680644.4077082,38830,1668680644,407580130,,3.279630786627062e-08,9.423290998201471e-08,0.00020259842158308538,2.2045960317130445e-15,-2.59867611147765e-15,2.8985706820834297e-15
1668680644.415842,38831,1668680644,415562270,,3.1659466839431206e-08,9.096644949499889e-08,0.00018116174374907117,2.1647450326372177e-15,-2.638991129540614e-15,2.853629729854089e-15
1668680644.423907,38832,1668680644,423730944,,3.0555933746276526e-08,8.779569201285162e-08,0.0001610614992934016,2.1257564050410128e-15,-2.6791900430606194e-15,2.8119421887110787e-15
1668680644.4317834,38833,1668680644,431632147,,2.9491623380259152e-08,8.473763233132004e-08,0.000147703955387874,2.0853176360093004e-15,-2.7185658980564213e-15,2.7699256570535615e-15
1668680644.4396536,38834,1668680644,439555457,,2.8459248444885924e-08,8.177133207877667e-08,0.00013801366930120347,2.0481430740451955e-15,-2.7591312349702245e-15,2.7269186741982223e-15
1668680644.4479964,38835,1668680644,447747134,,2.7488597015955215e-08,7.8982380572939e-08,0.00015719771214189844,2.0082704816391777e-15,-2.7982778575023462e-15,2.68202662460588e-15
1668680644.4561498,38836,1668680644,455978163,,2.6558293465399844e-08,7.630935973269319e-08,0.00018610906299131356,1.972657116415198e-15,-2.838468427375994e-15,2.639491684385024e-15
1668680644.4639513,38837,1668680644,463735951,,2.5651678314878973e-08,7.370440222073582e-08,0.0002123689019816815,1.9297222061045486e-15,-2.8764504567431786e-15,2.5975472598180187e-15
1668680644.4721591,38838,1668680644,471868548,,2.4779393405910857e-08,7.119808510085004e-08,0.00024224756045304857,1.888049650486813e-15,-2.914095927880261e-15,2.557055387186902e-15
1668680644.480237,38839,1668680644,479941908,,2.393594358796402e-08,6.877461917505973e-08,0.00027256518694818393,1.846282287891325e-15,-2.951643799789549e-15,2.5191112262716373e-15
1668680644.4883196,38840,1668680644,488139527,,2.3116888594372593e-08,6.642124646012922e-08,0.00030168178006019655,1.8017635999555474e-15,-2.9881089100420808e-15,2.4754625390533217e-15
1668680644.495608,38841,1668680644,495506963,,2.2256158239809978e-08,6.394812885079891e-08,0.0003057458805840118,1.7550694928935832e-15,-3.023779725944535e-15,2.428824438856908e-15
1668680644.5034947,38842,1668680644,503378163,,2.1376375829229052e-08,6.142026935461831e-08,0.000293388326269238,1.7110475439464243e-15,-3.060196300154118e-15,2.382561928139307e-15
1668680644.5126333,38843,1668680644,512395273,,2.052624680014288e-08,5.8977612206551574e-08,0.0002814284481236868,1.66326958616784e-15,-3.095378578136788e-15,2.3391112536195337e-15
1668680644.5196028,38844,1668680644,519451053,,1.9685653373002797e-08,5.65623535260805e-08,0.00026167189010866787,1.6177934665392585e-15,-3.13128888767905e-15,2.292691928151297e-15
1668680644.528032,38845,1668680644,527793391,,1.8902142288863522e-08,5.431110837072715e-08,0.00025379941279851935,1.5718502574296226e-15,-3.166878547542292e-15,2.241094892653547e-15
1668680644.5353,38846,1668680644,535133515,,1.8140901351609956e-08,5.2123851469211254e-08,0.0002445910395515623,1.528317551668412e-15,-3.2033277825947626e-15,2.189463439063108e-15
1668680644.5442836,38847,1668680644,544123540,,1.7405264089995716e-08,5.001016117156749e-08,0.00023562777142821086,1.482460770712382e-15,-3.2383606438441893e-15,2.130475555002745e-15
1668680644.5521753,38848,1668680644,552042377,,1.6693031096335538e-08,4.796371776707086e-08,0.0002261236173064962,1.4375247958276694e-15,-3.273617930052173e-15,2.0786195448067077e-15
1668680644.5597947,38849,1668680644,559668279,,1.6025870330846836e-08,4.6046779347121766e-08,0.00022739206091419603,1.391175295358213e-15,-3.3081716648060625e-15,2.0291797186750115e-15
1668680644.5674734,38850,1668680644,567376731,,1.5389807840569095e-08,4.421919496595522e-08,0.00023364855717307467,1.3490021162552178e-15,-3.3439754197740675e-15,1.9863613392664745e-15
1668680644.5757365,38851,1668680644,575540184,,1.4786865477621461e-08,4.24867738852354e-08,0.00024607185209498593,1.307547916907411e-15,-3.379635480718637e-15,1.9458824206653446e-15
1668680644.5837023,38852,1668680644,583544078,,1.4200505515832365e-08,4.080199861815707e-08,0.00025702813085331415,1.2648032215708017e-15,-3.4149829393800614e-15,1.9090698150096487e-15
1668680644.5918105,38853,1668680644,591660190,,1.3613562968176175e-08,3.911554946911735e-08,0.0002592148719450226,1.2230961499530474e-15,-3.450122583164737e-15,1.8687642845014526e-15
1668680644.6001236,38854,1668680644,600003778,,1.3035782836557373e-08,3.7455426484286366e-08,0.00025678946031612994,1.1833245002047142e-15,-3.4860005971217196e-15,1.825678322602861e-15
1668680644.6084566,38855,1668680644,608222145,,1.2464134151214239e-08,3.581292082967871e-08,0.0002480740278552741,1.1431601096705664e-15,-3.521860654183203e-15,1.7809481839279682e-15
1668680644.6154974,38856,1668680644,615350534,,1.189869090476606e-08,3.418824512445927e-08,0.00023215954042717047,1.0980730439312764e-15,-3.555579747137857e-15,1.7332346415631885e-15
1668680644.623828,38857,1668680644,623687420,,1.1358190981944338e-08,3.263523858852893e-08,0.00021704455727217215,1.0567090822160542e-15,-3.5904473082392785e-15,1.6843487582189336e-15
1668680644.631871,38858,1668680644,631653719,,1.0834340444353099e-08,3.113007022298019e-08,0.00019878795039382502,1.0126548638020393e-15,-3.6244266440131265e-15,1.6453970982427808e-15
1668680644.6401536,38859,1668680644,639870248,,1.035031718699565e-08,2.973933674371609e-08,0.00019075943627833473,9.710423394682861e-16,-3.658944019159633e-15,1.60500391517348e-15
1668680644.648486,38860,1668680644,648352120,,9.892987259855585e-09,2.8425300617355435e-08,0.00018783304789055875,9.288814536111378e-16,-3.693026573027512e-15,1.5675963341206894e-15
1668680644.6565354,38861,1668680644,656414575,,9.450651817778707e-09,2.715434789735493e-08,0.00018385477565447197,8.853085474200702e-16,-3.726183293384972e-15,1.5282655792880884e-15
1668680644.6634736,38862,1668680644,663289874,,9.024535905004129e-09,2.592999844114361e-08,0.0001797343609028984,8.411665485179205e-16,-3.7588672088046635e-15,1.4910258927310034e-15
1668680644.6726182,38863,1668680644,672146307,,8.614388036613239e-09,2.475152958458588e-08,0.00017558496916834638,7.978575843314565e-16,-3.791798653738844e-15,1.4540902858981157e-15
1668680644.6796231,38864,1668680644,679488106,,8.219712053960083e-09,2.3617515806643042e-08,0.0001713755692403695,7.530850297540883e-16,-3.824057071601575e-15,1.4194495669321561e-15
1668680644.6881993,38865,1668680644,687931548,,7.828993806786161e-09,2.2494873662826333e-08,0.00015943891450870897,7.147743200221283e-16,-3.85826003672969e-15,1.3835341760367508e-15
1668680644.6956341,38866,1668680644,695523688,,7.459929752037867e-09,2.1434449925973512e-08,0.00015125656758304968,6.758572838142616e-16,-3.8921763631610184e-15,1.3516765899495552e-15
1668680644.7042634,38867,1668680644,703925791,,7.108446495091863e-09,2.042454082104638e-08,0.00014507918127841106,6.346077336677895e-16,-3.924936372774179e-15,1.3149802379079873e-15
1668680644.7122023,38868,1668680644,711967733,,6.771290391077114e-09,1.9455797638375864e-08,0.00013910370848819334,5.923268156789247e-16,-3.956988916364956e-15,1.2790187499580108e-15
1668680644.7195709,38869,1668680644,719466375,,6.435799324051375e-09,1.849183850553992e-08,0.0001227209686016822,5.508383859438963e-16,-3.9893614315513584e-15,1.2431219002879713e-15
1668680644.728279,38870,1668680644,728161853,,6.112074545945899e-09,1.75616871725176e-08,0.00010177860722401037,5.093123252932023e-16,-4.0211758583720076e-15,1.2088441171652837e-15
1668680644.7361453,38871,1668680644,735970910,,5.8075660855759235e-09,1.668674967642148e-08,8.327768846945119e-05,4.683772401995826e-16,-4.053007791185534e-15,1.1701896526452733e-15
1668680644.743769,38872,1668680644,743630707,,5.519442518913456e-09,1.5858890527978203e-08,6.60743237111358e-05,4.226171663782198e-16,-4.08295674134117e-15,1.1298388478670996e-15
1668680644.752324,38873,1668680644,752203829,,5.243369017279847e-09,1.5065654560599696e-08,4.365445163387257e-05,3.8066072194379067e-16,-4.113906656437497e-15,1.0940271787153612e-15
1668680644.7605205,38874,1668680644,760217259,,4.982716598910797e-09,1.4316727626375226e-08,1.9514540414735697e-05,3.3610148900979665e-16,-4.143559497624699e-15,1.0618456217210993e-15
1668680644.7685287,38875,1668680644,768279681,,4.73860873505825e-09,1.3615337867936496e-08,6.689606409054487e-06,2.9825464327380265e-16,-4.1752738414514e-15,1.0290192861195526e-15
1668680644.7766068,38876,1668680644,776494990,,4.505853810093909e-09,1.2946568261556222e-08,-4.5080171265549425e-06,2.647175104553747e-16,-4.2081240564557106e-15,9.964561259187231e-16
1668680644.783344,38877,1668680644,783216670,,4.283567715748888e-09,1.2307878505005832e-08,-1.446271750108636e-05,2.2793418723217174e-16,-4.239610194812373e-15,9.648166501822793e-16
1668680644.7918212,38878,1668680644,791625752,,4.071110506522489e-09,1.169742988733183e-08,-2.3602330385845803e-05,1.8664970136617923e-16,-4.268850644102624e-15,9.334379020152399e-16
1668680644.8001776,38879,1668680644,799991947,,3.866176353003084e-09,1.11085970474294e-08,-2.4370207695521787e-05,1.4710784851714925e-16,-4.298454071609954e-15,9.016385166931736e-16
1668680644.807562,38880,1668680644,807455812,,3.668969899291035e-09,1.0541968031102663e-08,-2.101581707897655e-05,1.095492647315219e-16,-4.32824436972843e-15,8.707541984405579e-16
1668680644.8159497,38881,1668680644,815716991,,3.4785566897404154e-09,9.994857849721051e-09,-4.50140203303949e-06,7.058914628243888e-17,-4.35735955254992e-15,8.396747067627943e-16
1668680644.8235476,38882,1668680644,823368716,,3.2984251252818823e-09,9.477289700422248e-09,2.873301810782351e-06,3.2337895755979964e-17,-4.386656583349643e-15,8.092964529155749e-16
1668680644.8323221,38883,1668680644,832076177,,3.1264544424593424e-09,8.983170013268248e-09,9.659635460213318e-06,-7.320759509076685e-18,-4.415092052127318e-15,7.793791292040908e-16
1668680644.839656,38884,1668680644,839550484,,2.961788005995916e-09,8.510037466538271e-09,1.1731296425434972e-05,-4.847031890527857e-17,-4.442353750510094e-15,7.488103118728911e-16
1668680644.8484557,38885,1668680644,848330310,,2.8040838906758647e-09,8.056909659222768e-09,1.1538389148288248e-05,-8.709756608296438e-17,-4.470372071710415e-15,7.191576214471204e-16
1668680644.8565514,38886,1668680644,856367572,,2.65363084771723e-09,7.624616210397232e-09,1.4322528685609759e-05,-1.1938437851878569e-16,-4.5001623499064984e-15,6.897410330068426e-16
1668680644.8637593,38887,1668680644,863586506,,2.5100927492851567e-09,7.212191320985329e-09,1.8448052383507715e-05,-1.555846908260129e-16,-4.528228271027584e-15,6.601136910295981e-16
1668680644.8716335,38888,1668680644,871522530,,2.373026551910684e-09,6.818362036214765e-09,2.2211212414987754e-05,-1.9331102427634566e-16,-4.555336916311241e-15,6.30718866523753e-16
1668680644.8796935,38889,1668680644,879570839,,2.243223342179589e-09,6.445401318173506e-09,3.032258126500221e-05,-2.2984416540140994e-16,-4.58283134104626e-15,6.024537806112933e-16
1668680644.8883944,38890,1668680644,888276564,,2.1203868121846833e-09,6.092457900619224e-09,4.0211908676752995e-05,-2.6394882478957648e-16,-4.610635811249646e-15,5.733024149731823e-16
1668680644.8965006,38891,1668680644,896315066,,2.0041873916206996e-09,5.7585847087212676e-09,5.074070688231765e-05,-2.9739542800713777e-16,-4.6390206130579515e-15,5.457389512827165e-16
1668680644.9045646,38892,1668680644,904410952,,1.8937161270028925e-09,5.441170044638592e-09,6.033749445335863e-05,-3.34916321316461e-16,-4.665296086787271e-15,5.217094088911933e-16
1668680644.9121711,38893,1668680644,912034955,,1.7870378219020494e-09,5.1346536237706435e-09,6.642385703913321e-05,-3.715583695039056e-16,-4.691214593056861e-15,5.012046006286357e-16
1668680644.919738,38894,1668680644,919546985,,1.6843640902814347e-09,4.8396433964103806e-09,7.049772930170965e-05,-4.014965784047349e-16,-4.719278866391892e-15,4.84859580583297e-16
1668680644.928189,38895,1668680644,928033193,,1.590444736384009e-09,4.5697869932233994e-09,8.040911673776372e-05,-4.294361549781444e-16,-4.7477431683402204e-15,4.688711821332738e-16
1668680644.9354527,38896,1668680644,935254424,,1.50352265815795e-09,4.320035571454422e-09,9.27487398314103e-05,-4.62347076039142e-16,-4.77433500425666e-15,4.605589826749791e-16
1668680644.9437146,38897,1668680644,943590034,,1.4208173298259932e-09,4.082400179024416e-09,0.00010393040662580604,-4.937917657286039e-16,-4.8012667815202176e-15,4.4387559037817403e-16
1668680644.951875,38898,1668680644,951635836,,1.3436142769455455e-09,3.860574280466784e-09,0.00011581050548771331,-5.223859291299846e-16,-4.8291131538963295e-15,4.295569579169043e-16
1668680644.9608676,38899,1668680644,960566582,,1.244309829972928e-09,3.5752450205917743e-09,0.0001008875783485529,-5.507380480292023e-16,-4.856708472027089e-15,4.066820884561339e-16
1668680644.9682832,38900,1668680644,968186591,,1.142836390474419e-09,3.283683734696111e-09,7.339076873053119e-05,-5.828826970491147e-16,-4.882673320395497e-15,3.8110013818682036e-16
1668680644.976325,38901,1668680644,976206550,,1.049681852568268e-09,3.016024914663097e-09,3.703284591621329e-05,-6.130116283618688e-16,-4.909662172303946e-15,3.512834116367545e-16
1668680644.9839976,38902,1668680644,983870300,,9.750684770387067e-10,2.801639967926104e-09,1.2653096329471095e-05,-6.428560291295354e-16,-4.936423744364829e-15,3.2570477090776796e-16
1668680644.9927201,38903,1668680644,992017477,,9.095501655406277e-10,2.613387700073731e-09,-9.825275219713291e-06,-6.699464685294472e-16,-4.963925580067732e-15,2.9992230289292366e-16
1668680644.9999251,38904,1668680644,999713265,,8.505032175395534e-10,2.44372943658581e-09,-2.5644794291151203e-05,-6.976575745750239e-16,-4.99082611267263e-15,2.752034682286369e-16
1668680645.0079122,38905,1668680645,7697951,,7.978566835768842e-10,2.2924613487800366e-09,-4.524748412699136e-05,-7.233821084834095e-16,-5.018038290747385e-15,2.5067196820210655e-16
1668680645.015449,38906,1668680645,15321213,,7.534835007641769e-10,2.164964844636748e-09,-6.934525184196076e-05,-7.48032045959452e-16,-5.045404889804968e-15,2.2633912769416964e-16
1668680645.0240679,38907,1668680645,23766528,,7.146836239771381e-10,2.053482074278811e-09,-9.140217209426775e-05,-7.721907172429956e-16,-5.072631181075355e-15,1.9732031632605838e-16
1668680645.0319464,38908,1668680645,31815300,,6.829891611718832e-10,1.962415101490472e-09,-0.00011476324149090426,-7.965218641700241e-16,-5.099395194535615e-15,1.6499519946681778e-16
1668680645.0396402,38909,1668680645,39490382,,6.370461806150916e-10,1.830408149754234e-09,-0.00011946198874342601,-8.209418101190978e-16,-5.1255879864962294e-15,1.3823805321046195e-16
1668680645.047791,38910,1668680645,47650608,,5.83916552629865e-10,1.6777518359471989e-09,-0.00011478146178146957,-8.495415217205305e-16,-5.150296136011072e-15,1.161454728111265e-16
1668680645.0560465,38911,1668680645,55644113,,5.371353076279879e-10,1.5433362657190972e-09,-0.00011327373205045603,-8.758274738358372e-16,-5.175243762356368e-15,9.622586429505924e-17
1668680645.0640233,38912,1668680645,63698607,,4.929082886138607e-10,1.4162595042743999e-09,-0.00011166168849548952,-9.086721558188968e-16,-5.197562155207949e-15,8.246159204123584e-17
1668680645.0725257,38913,1668680645,72370207,,4.3880968822834753e-10,1.2608190822671416e-09,-9.66071375569069e-05,-9.386184152795472e-16,-5.220470598458061e-15,6.990487277827948e-17
1668680645.0800126,38914,1668680645,79875402,,3.8562065226035484e-10,1.1079919798794634e-09,-7.548193917890154e-05,-9.691799442983336e-16,-5.2427518888318886e-15,6.258055115806933e-17
1668680645.0882163,38915,1668680645,88077085,,3.382439111663457e-10,9.718652682669277e-10,-5.1488257120588396e-05,-9.9848658487814e-16,-5.264502539719761e-15,6.061629979173881e-17
1668680645.0954366,38916,1668680645,95303571,,3.0260730436948286e-10,8.694712502292521e-10,-3.8245759206290504e-05,-1.0263752493725314e-15,-5.2867695378841494e-15,5.487821083058942e-17
1668680645.1038592,38917,1668680645,103723675,,2.709656941922703e-10,7.78556062979958e-10,-2.5974154647733552e-05,-1.0566023081920935e-15,-5.307983427217769e-15,4.543150992518695e-17
1668680645.1120155,38918,1668680645,111796384,,2.4357115858432744e-10,6.998438707636221e-10,-1.9373760113853996e-05,-1.0865979844545925e-15,-5.329021797334346e-15,3.627990234319051e-17
1668680645.120805,38919,1668680645,120491580,,2.19305633275676e-10,6.301221914228852e-10,-1.984089886316583e-05,-1.116772133181279e-15,-5.349670790614968e-15,2.6982282775083173e-17
1668680645.1278803,38920,1668680645,127741533,,1.971596223133161e-10,5.664904018949646e-10,-2.372293385156843e-05,-1.149729418659188e-15,-5.369001791278001e-15,1.79802510389522e-17
1668680645.135263,38921,1668680645,135150366,,1.8234653720141102e-10,5.239280930148284e-10,-4.789212950610951e-05,-1.1815677513726957e-15,-5.388571565760199e-15,8.616072272935112e-18
1668680645.1435559,38922,1668680645,143460056,,3.155680082076518e-07,-3.7107180712288864e-07,-7.005715254951299e-05,-1.2533062198001426e-15,-5.394386964188456e-15,-6.88214269644119e-19
1668680645.152568,38923,1668680645,152323073,,1.5515865668686813e-06,-1.8272833052038e-06,-7.832007088811037e-05,-2.3165133265932865e-15,-5.059465463273644e-15,-1.6433709726154308e-17
1668680645.1597075,38924,1668680645,159592067,,4.26382400590492e-06,-5.022639157969106e-06,-7.942744256224366e-05,-9.969795238422543e-15,-2.4568009052422914e-15,-3.151640190143801e-17
1668680645.1678357,38925,1668680645,167632453,,8.961030184002004e-06,-1.0556463720110373e-05,-8.472718550461012e-05,-4.130863841415774e-14,8.289025246556773e-15,-5.049671618351237e-17
1668680645.1755252,38926,1668680645,175349013,,1.6107782250176188e-05,-1.8976102463012656e-05,-8.359402136192639e-05,-1.3392188493716644e-13,4.010392515849722e-14,-7.680217139344192e-17
1668680645.1841555,38927,1668680645,183970134,,2.6127072912153602e-05,-3.0779856788739665e-05,-8.238549946160241e-05,-3.56187994113042e-13,1.1649343226443221e-13,-1.0997875787149836e-16
1668680645.1926281,38928,1668680645,192503161,,3.940273106251194e-05,-4.6419913536830286e-05,-7.801667219527527e-05,-8.181841342716167e-13,2.7529832144878165e-13,-1.6664187391102203e-16
1668680645.2004225,38929,1668680645,200019611,,5.628175898589312e-05,-6.630504609620602e-05,-7.627989658576728e-05,-1.6826390213093802e-12,5.724607884217492e-13,-2.5457067009959644e-16
1668680645.2080004,38930,1668680645,207836873,,7.707653468022747e-05,-9.08032533516212e-05,-7.582990961456547e-05,-3.175479464670328e-12,1.0856498352251073e-12,-3.946495907847236e-16
1668680645.216006,38931,1668680645,215766979,,0.00010206692641428766,-0.00012024421886997849,-7.982664948840568e-05,-5.595673703397624e-12,1.917647230652254e-12,-6.103787180550269e-16
1668680645.2240272,38932,1668680645,223844144,,0.00013150229047856552,-0.0001549216910326057,-8.335015834392499e-05,-9.324065438318807e-12,3.1993756051772854e-12,-9.358833152894874e-16
1668680645.2316928,38933,1668680645,231493822,,0.00016560338103094332,-0.00019509571779081542,-7.790354672173587e-05,-1.483108880008822e-11,5.0925640208648415e-12,-1.4139622632469706e-15
1668680645.2398555,38934,1668680645,239625723,,0.00020456417035792982,-0.00024099475706132857,-6.822270103891949e-05,-2.2683162799111553e-11,7.791934245992681e-12,-2.0902875784434283e-15
1668680645.2483742,38935,1668680645,248152919,,0.0002485535615138144,-0.00029281773026200545,-6.787717782326181e-05,-3.354779905767282e-11,1.1526969649107302e-11,-3.013648358640708e-15
1668680645.2559948,38936,1668680645,255824587,,0.0002977170176984381,-0.00035073596415236723,-6.117235547056913e-05,-4.819731819833068e-11,1.656318768222104e-11,-4.253325122660634e-15
1668680645.2640703,38937,1668680645,263924975,,0.00035217812583000226,-0.0004148949854786936,-5.487673006696374e-05,-6.751121667758974e-11,2.3202951028361476e-11,-5.880170482475133e-15
1668680645.2721846,38938,1668680645,272078155,,0.0004120400633017133,-0.0004854162716987938,-4.567044915480866e-05,-9.247721507429961e-11,3.178584080513504e-11,-7.980053250145058e-15
1668680645.2801242,38939,1668680645,279876487,,0.0004773869883029488,-0.0005623989129144231,-4.610641679146761e-05,-1.2419105498047151e-10,4.2688582672960806e-11,-1.0635372790779307e-14
1668680645.2877784,38940,1668680645,287585491,,0.0005482853744069802,-0.0006459211387344187,-5.117984782333614e-05,-1.6385510186024232e-10,5.632458003013109e-11,-1.3946092544681044e-14
1668680645.2954993,38941,1668680645,295339151,,0.0006247852606188523,-0.0007360418056041622,-5.830281351705045e-05,-2.1277585291631343e-10,7.31430508100052e-11,-1.800924860628772e-14
1668680645.3037152,38942,1668680645,303572746,,0.0007069214382997322,-0.000832801795364653,-6.47481945568614e-05,-2.72360443533053e-10,9.362784038466267e-11,-2.2935646437627355e-14
1668680645.3123193,38943,1668680645,311994294,,0.000794714559448129,-0.0009362253815154859,-8.350323379590278e-05,-3.4411221146998317e-10,1.1829590844218696e-10,-2.8839344107245424e-14
1668680645.3199818,38944,1668680645,319848257,,0.0008881722305005146,-0.00104632139021562,-0.0001074665085271167,-4.2962550294383913e-10,1.4769554904179444e-10,-3.5840037534984326e-14
1668680645.3276362,38945,1668680645,327514879,,0.0009872900174184933,-0.0011630843803827286,-0.00011049683163240122,-5.30579745014077e-10,1.8240436233923213e-10,-4.40472311402651e-14
1668680645.3356264,38946,1668680645,335472197,,0.0010920523652997287,-0.0012864958442296874,-8.812470685419113e-05,-6.487329077319655e-10,2.230270262497695e-10,-5.358734289639955e-14
1668680645.3445103,38947,1668680645,344188577,,0.0012024334679288909,-0.001416525336684102,-6.734682270566545e-05,-7.859144830150294e-10,2.701928926635618e-10,-6.456640777585676e-14
1668680645.3524625,38948,1668680645,352290682,,0.0013183981976625288,-0.0015531312261557616,-3.487630327782292e-05,-9.440180390800595e-10,3.2455344408353643e-10,-7.710585642195511e-14
1668680645.3604069,38949,1668680645,360299565,,0.0014399027922306965,-0.0016962619483649466,-8.567161890684729e-06,-1.124993443606619e-09,3.867796432254194e-10,-9.132191530758504e-14
1668680645.3676922,38950,1668680645,367482436,,0.0015668956982316028,-0.001845856623064833,1.3750704300605833e-05,-1.3308388769092238e-09,4.5755920379626433e-10,-1.0730956054305629e-13
1668680645.3760252,38951,1668680645,375850663,,0.0016993182462277903,-0.0020018459769926425,3.3215034035292095e-05,-1.5635926802243954e-09,5.375938058838027e-10,-1.2516723768563054e-13
1668680645.383526,38952,1668680645,383302037,,0.0018371053614291992,-0.002164152994987518,6.176683634774336e-05,-1.8253250928907078e-09,6.275962934429056e-10,-1.449829839517136e-13
1668680645.3916783,38953,1668680645,391546327,,0.001980186054096245,-0.00233269404318505,8.794018497029268e-05,-2.118130037846982e-09,7.282878569826864e-10,-1.6683356085511747e-13
1668680645.39959,38954,1668680645,399481243,,0.0021284841640994523,-0.002507379107598028,0.00011752710494096946,-2.4441168942589673e-09,8.403952407023615e-10,-1.907666732914315e-13
1668680645.4083405,38955,1668680645,408138547,,0.0022819187810855547,-0.0026881128194671923,0.00014377044361631275,-2.80540241230187e-09,9.64647987750371e-10,-2.168248219858171e-13
1668680645.4157321,38956,1668680645,415609829,,0.002440404786052884,-0.0028747949923794217,0.0001558776907591355,-3.20410276361384e-09,1.1017757448029096e-09,-2.4503402779041394e-13
1668680645.4241843,38957,1668680645,424073532,,0.0026038535173774752,-0.0030673206689237824,0.00016671995309751477,-3.6423258157456295e-09,1.2525056267072591e-09,-2.7539168862000807e-13
1668680645.431541,38958,1668680645,431427697,,0.0027721729620699483,-0.0032655814077781524,0.00017015277667502325,-4.12216361466187e-09,1.4175596667770915e-09,-3.078717836224598e-13
1668680645.4400816,38959,1668680645,439895438,,0.0029452683950851057,-0.0034694651621152484,0.0001740358678412035,-4.6456851711374446e-09,1.5976523671189756e-09,-3.424214037317519e-13
1668680645.4478614,38960,1668680645,447689505,,0.0031230426193850644,-0.003678857193666809,0.00017783619393035868,-5.214929510574326e-09,1.793488342376453e-09,-3.789512106888715e-13
1668680645.4555457,38961,1668680645,455339777,,0.0033053963935264843,-0.003893640339533185,0.00018114436262856764,-5.831899086846076e-09,2.0057600890247256e-09,-4.1735712108526e-13
1668680645.463983,38962,1668680645,463812484,,0.003492228777512067,-0.004113695412209194,0.0001838326793817991,-6.498553498316263e-09,2.2351458649693626e-09,-4.574977549576253e-13
1668680645.471973,38963,1668680645,471707196,,0.003683437517655869,-0.004338901390432596,0.00019311044036250175,-7.216803616212847e-09,2.482307690291046e-09,-4.9918229272361e-13
1668680645.4800637,38964,1668680645,479902616,,0.003878919179983078,-0.004569136242748231,0.00020505687124024212,-7.988506020326449e-09,2.7478894881912113e-09,-5.42193026586979e-13
1668680645.4881754,38965,1668680645,487691736,,0.004078569510389723,-0.00480427701115161,0.00021476844040082863,-8.815457877591653e-09,3.0325153308884568e-09,-5.862792890054536e-13
1668680645.4955766,38966,1668680645,495386188,,0.004282283673650628,-0.005044200161530499,0.00021488467480353443,-9.699392152027596e-09,3.3367878500697393e-09,-6.311444422646417e-13
1668680645.5093305,38967,1668680645,508681459,,0.004489956697233742,-0.005288781265786602,0.0002145664502943714,-1.0641973216605864e-08,3.6612867598275443e-09,-6.764363374989202e-13
1668680645.515634,38968,1668680645,515432344,,0.004701483369502017,-0.005537896183409128,0.00020940159915951875,-1.164479288757775e-08,4.006567494034595e-09,-7.217837438844299e-13
1668680645.5209734,38969,1668680645,520719271,,0.004916758758481875,-0.005791420384263898,0.0002097665119244017,-1.2709366758190403e-08,4.373160017109596e-09,-7.667425722113208e-13
1668680645.5282836,38970,1668680645,527987631,,0.005135678071080584,-0.006049230107973335,0.00021260720793418457,-1.383713099118312e-08,4.761567732279853e-09,-8.108270999063194e-13
1668680645.5361443,38971,1668680645,535948278,,0.005358136806966153,-0.006311202612006615,0.00020146316557150562,-1.5029439424983984e-08,5.17226651620766e-09,-8.535099710327287e-13
1668680645.543968,38972,1668680645,543718436,,0.005584031481001477,-0.0065772147195646245,0.00019080062469964583,-1.6287561075206615e-08,5.605703889819584e-09,-8.942065837791446e-13
1668680645.5516996,38973,1668680645,551565593,,0.00581325908867123,-0.006847144940984156,0.00017332683283158144,-1.7612677969661063e-08,6.0622982868494685e-09,-9.322924376942154e-13
1668680645.5603223,38974,1668680645,560186463,,0.00604571767208465,-0.007120872365991936,0.00015303610221937357,-1.9005883291251012e-08,6.542438476338144e-09,-9.670771128345024e-13
1668680645.568884,38975,1668680645,568375683,,0.006281306155122767,-0.00739827761774416,0.00012450773171640247,-2.0468179924804054e-08,7.0464830371477424e-09,-9.978060044879555e-13
1668680645.5753875,38976,1668680645,575242998,,0.006519924677986906,-0.0076792423181537926,8.913203682370034e-05,-2.200047924986678e-08,7.574759996597114e-09,-1.0237106301547172e-12
1668680645.5839257,38977,1668680645,583775304,,0.006761474711750846,-0.007963649145268531,5.6373901107195565e-05,-2.360360023062548e-08,8.127566543609036e-09,-1.043921893373323e-12
1668680645.591699,38978,1668680645,591595496,,0.007005858817355995,-0.008251382878946145,2.1403266214347318e-05,-2.5278268871812832e-08,8.705168830355423e-09,-1.0575568198945007e-12
1668680645.6005907,38979,1668680645,600421541,,0.007252981269622636,-0.008542328905902468,2.0404821769547577e-06,-2.702511784545775e-08,9.307801878690684e-09,-1.0636422298482273e-12
1668680645.6079798,38980,1668680645,607803720,,0.007502747410580305,-0.00883637536633934,-8.977440875242284e-06,-2.8844686428245608e-08,9.93566956529815e-09,-1.0611650447245324e-12
1668680645.61534,38981,1668680645,615199465,,0.007755063906121116,-0.009133412653910232,-3.057619576061783e-05,-3.073742067904279e-08,1.0588944703059447e-08,-1.049077491543926e-12
1668680645.624269,38982,1668680645,624152670,,0.008009839474074945,-0.009433331516650338,-5.040996511493124e-05,-3.27036738055061e-08,1.1267769173869263e-08,-1.0262346528122634e-12
1668680645.6324208,38983,1668680645,632246258,,0.008266984204457902,-0.009736025207477319,-7.03855026071054e-05,-3.474370682070272e-08,1.1972254153607299e-08,-9.914569165658804e-13
1668680645.6399522,38984,1668680645,639810444,,0.00852640987436819,-0.010041388725937284,-8.96098380579839e-05,-3.685768930412523e-08,1.2702480379285681e-08,-9.435195680307373e-13
1668680645.647942,38985,1668680645,647776670,,0.008788030378096173,-0.010349317698147929,-8.123828252633972e-05,-3.904570038988772e-08,1.345849851475036e-08,-8.811285034937555e-13
1668680645.6563766,38986,1668680645,656228659,,0.009051760532670945,-0.010659711948952861,-6.356829186014864e-05,-4.1307729954604766e-08,1.4240329515623554e-08,-8.029549247723367e-13
1668680645.6642783,38987,1668680645,664102221,,0.009317517001506397,-0.010972472905400552,-4.717120268602101e-05,-4.364367987892844e-08,1.5047965124458888e-08,-7.075937058509396e-13
1668680645.6716232,38988,1668680645,671436465,,0.009585218474410151,-0.011287503135441624,-2.6791222082233156e-05,-4.60533655346942e-08,1.588136831466797e-08,-5.935946179036478e-13
1668680645.6796129,38989,1668680645,679490854,,0.00985478486797145,-0.011604708716366735,-2.35613108402043e-05,-4.853651734760861e-08,1.6740473863846497e-08,-4.594831459758808e-13
1668680645.688478,38990,1668680645,688359158,,0.010126138445770063,-0.011923996003467547,-2.877962364013794e-05,-5.1092782483508955e-08,1.762518891072892e-08,-3.036980389392596e-13
1668680645.6965592,38991,1668680645,696035954,,0.010399203388481675,-0.01224527288836494,-2.6512375470230563e-05,-5.372172663740526e-08,1.8535393584622004e-08,-1.2465029008978945e-13
1668680645.7044206,38992,1668680645,704319145,,0.010673905133587002,-0.01256845071728099,-2.4374172203236768e-05,-5.642283598696865e-08,1.947094160469759e-08,7.930461842775571e-14
1668680645.71182,38993,1668680645,711623765,,0.01095017126143333,-0.012893441691633018,-1.2145630148447482e-05,-5.919551904453842e-08,2.0431660990145005e-08,3.098458989381214e-13
1668680645.7205477,38994,1668680645,720350044,,0.0112279307423985,-0.013220161030633963,4.536329398606189e-06,-6.203910882612265e-08,2.1417354712210263e-08,5.687117443642364e-13
1668680645.7285855,38995,1668680645,728322275,,0.011507114195104997,-0.013548526176721351,1.6613331440716993e-05,-6.495286484668262e-08,2.242780142180413e-08,8.576646337576932e-13
1668680645.7355683,38996,1668680645,735399442,,0.011787654214173809,-0.01387845578476205,2.5828279985124384e-05,-6.793597532922177e-08,2.346275616025087e-08,1.1785260267682673e-12
1668680645.7439065,38997,1668680645,743682997,,0.012069485110748608,-0.014209870415304152,3.426185316107023e-05,-7.098755937863825e-08,2.4521951079415315e-08,1.5331243219396384e-12
1668680645.7518113,38998,1668680645,751670320,,0.012352542808769258,-0.014542692765616646,4.096053023209031e-05,-7.41066692070227e-08,2.5605096199668616e-08,1.923378123436237e-12
1668680645.760357,38999,1668680645,760058092,,0.012636765541834941,-0.014876845549385304,6.928862256815982e-05,-7.729229237744177e-08,2.6711880188453815e-08,2.351199096528589e-12
1668680645.7680018,39000,1668680645,767726858,,0.012922092249145806,-0.015212256104023299,0.00010697630897751175,-8.05433540907916e-08,2.7841971041056394e-08,2.8185474787445486e-12
1668680645.7755017,39001,1668680645,775349644,,0.013208463329122795,-0.015548854094521282,0.00013628304773283964,-8.385871948230058e-08,2.899501693246192e-08,3.3274077937406332e-12
1668680645.7838361,39002,1668680645,783705578,,0.013495821443017727,-0.01588656905677165,0.00016300279163277613,-8.723719584137913e-08,3.017064688760982e-08,3.879806198536784e-12
1668680645.7921224,39003,1668680645,791780225,,0.013784109469895974,-0.01622533629294417,0.0001469124933339167,-9.067753494081121e-08,3.136847159389451e-08,4.477765380705989e-12
1668680645.8004215,39004,1668680645,800230180,,0.014073273740290791,-0.016565087269516485,0.00011043847435077661,-9.417843529097329e-08,3.258808414232598e-08,5.1233704778663736e-12
1668680645.8083258,39005,1668680645,808144401,,0.014352800625306862,-0.016905758104009922,7.278097122814758e-05,-9.761882446767084e-08,3.378794580862106e-08,5.809956682423234e-12
1668680645.8154984,39006,1668680645,815309992,,0.014625460653228433,-0.017247283728789895,4.7314691278686035e-05,-1.0102420784299663e-07,3.497682531041109e-08,6.539720154297157e-12
1668680645.824269,39007,1668680645,824109739,,0.014900330291595336,-0.01758960124470968,2.3765142633316023e-05,-1.0449731221084599e-07,3.6190015894319895e-08,7.321927786296811e-12
1668680645.831671,39008,1668680645,831557654,,0.015172819649721793,-0.01793265160930476,6.992973249827096e-06,-1.0798260602844873e-07,3.740849081358948e-08,8.153970554314327e-12
1668680645.83983,39009,1668680645,839694031,,0.015437782218678857,-0.0182763792741367,-1.7062836824263533e-05,-1.1141416346642052e-07,3.860963973024729e-08,9.03092184367793e-12
1668680645.847977,39010,1668680645,847772659,,0.01570046263346856,-0.01862072550234054,-4.374342626260531e-05,-1.1485234833170477e-07,3.981420128188005e-08,9.959234825718255e-12
1668680645.8562567,39011,1668680645,856096189,,0.0159601387407439,-0.018965632785876353,-4.795334071538574e-05,-1.182855138396363e-07,4.101820282400876e-08,1.0938985828268244e-11
1668680645.863624,39012,1668680645,863480483,,0.01623001776014222,-0.019311045010862917,-4.4202096422145206e-05,-1.218817844022852e-07,4.22793990221583e-08,1.1990561321617577e-11
1668680645.8717725,39013,1668680645,871549703,,0.016502646373856445,-0.01965691289986229,-4.066231675780207e-05,-1.255472946713504e-07,4.356563283356655e-08,1.3106973839605018e-11
1668680645.8797233,39014,1668680645,879616140,,0.016781310491694998,-0.0200031840866351,-3.336625470264568e-05,-1.2932618437527105e-07,4.489210862117579e-08,1.4296522299339642e-11
1668680645.8883345,39015,1668680645,888153250,,0.017078361794901496,-0.02034980672156482,-3.631863511593597e-05,-1.3338842322401174e-07,4.631725118741693e-08,1.558551204761116e-11
1668680645.8954995,39016,1668680645,895350503,,0.017384675571709574,-0.02069673480320836,-4.425202285969304e-05,-1.376168875234199e-07,4.780096380036566e-08,1.6964638027694434e-11
1668680645.9037747,39017,1668680645,903619728,,0.017690882662225006,-0.021043923587898746,-5.1473495673721964e-05,-1.418836918107508e-07,4.9299422376011814e-08,1.8420105718508495e-11
1668680645.911625,39018,1668680645,911437577,,0.01800151313535193,-0.021391326071201984,-6.083073956521138e-05,-1.4625203912190833e-07,5.083437408363346e-08,1.99640928788547e-11
1668680645.9201686,39019,1668680645,920013917,,0.018314030232522753,-0.021738901547039696,-0.00010035236142025848,-1.506861142978942e-07,5.239359064115011e-08,2.1594691312909475e-11
1668680645.9282413,39020,1668680645,928103870,,0.01862710421568204,-0.022086604842093262,-0.00015295076186648494,-1.5516579032683487e-07,5.397021994449965e-08,2.3311727548325223e-11
1668680645.935621,39021,1668680645,935265243,,0.018933165242996645,-0.022434390718359485,-0.00017204017551545548,-1.5957612786965088e-07,5.5524852667185494e-08,2.5097895983705598e-11
1668680645.9440408,39022,1668680645,943875686,,0.019238933803553415,-0.022782219322543703,-0.00018928389302119066,-1.6401395936765885e-07,5.709074615140031e-08,2.6971189170943433e-11
1668680645.9529946,39023,1668680645,952695783,,0.019520525910481378,-0.023130055935196677,-0.00018188970992961904,-1.681080600664719e-07,5.8540499880792296e-08,2.8863640644249955e-11
1668680645.9599547,39024,1668680645,959832917,,0.01979107916161669,-0.023477858003166346,-0.00016262451832225493,-1.7205006162303044e-07,5.99398140820875e-08,3.080707910996239e-11
1668680645.9676862,39025,1668680645,967508499,,0.020084944185333894,-0.023825576290522666,-0.00014207360733071387,-1.7637885357384446e-07,6.14736681100363e-08,3.291007050210126e-11
1668680645.975383,39026,1668680645,975261621,,0.02039046725252199,-0.02417318005746337,-0.00013692473948597456,-1.8091756799452777e-07,6.308152055974157e-08,3.514574048457675e-11
1668680645.9841797,39027,1668680645,983863778,,0.02069568309830927,-0.024520635410391487,-0.000131914847559604,-1.854754118632367e-07,6.469798984488212e-08,3.747891580418994e-11
1668680645.9920068,39028,1668680645,991715341,,0.02100639457778442,-0.024867905616058318,-0.00013449351220420157,-1.90146872231455e-07,6.635555795521213e-08,3.9933556461591024e-11
1668680645.9997234,39029,1668680645,999611886,,0.021319372106342976,-0.025214954793078552,-0.00012597312075961653,-1.9487908817266341e-07,6.803616231412356e-08,4.2502008856803997e-11
1668680646.0078933,39030,1668680646,7692365,,0.021632925478627614,-0.025561750559922942,-0.0001122154582101069,-1.9964288682102448e-07,6.972985325205596e-08,4.518069945946834e-11
1668680646.0168974,39031,1668680646,16164878,,0.02194617787016868,-0.025908263190463226,-0.00011542197991167304,-2.0442181655148245e-07,7.143103757871038e-08,4.7968407024256976e-11
1668680646.0235527,39032,1668680646,23349076,,0.02225868324479665,-0.026254460656195414,-0.0001372173662989768,-2.0920626317053569e-07,7.313646313024912e-08,5.086515930674551e-11
1668680646.0317688,39033,1668680646,31618702,,0.022569981795677808,-0.026600308562016946,-0.00015702177342599564,-2.1398600867514545e-07,7.484266706749877e-08,5.387056772887533e-11
1668680646.04017,39034,1668680646,40039596,,0.022880347177325844,-0.026945777324173026,-0.0001850522597897331,-2.1876369805273093e-07,7.655059769927364e-08,5.6987442542677513e-11
1668680646.048281,39035,1668680646,48049966,,0.02318967880699952,-0.027290832186445898,-0.0001894710879371699,-2.2353535485451033e-07,7.825893195197858e-08,6.021685233781326e-11
1668680646.0559552,39036,1668680646,55823504,,0.02349793727094763,-0.027635442218531623,-0.00015995314545160606,-2.282980857515153e-07,7.996671686958355e-08,6.355999754292796e-11
1668680646.0634255,39037,1668680646,63268485,,0.023805113957539075,-0.027979581268514832,-0.00011491288294272637,-2.3304958308387755e-07,8.167319941426547e-08,6.701823818122676e-11
1668680646.071974,39038,1668680646,71731347,,0.024111197635291452,-0.028323223815151222,-7.320754260632274e-05,-2.3778750073421033e-07,8.337761246311401e-08,7.059282325361238e-11
1668680646.0804055,39039,1668680646,80234516,,0.024416235979108802,-0.028666336590829494,2.8811426459485765e-07,-2.425105750965945e-07,8.507955936748642e-08,7.428525850006196e-11
1668680646.0884914,39040,1668680646,88324236,,0.024720243061731702,-0.029008895353776765,8.64531711187888e-05,-2.4721699846253333e-07,8.677845621187126e-08,7.809683455484162e-11
1668680646.095675,39041,1668680646,95521033,,0.025023235814037346,-0.02935087860501356,0.0001527731385228715,-2.519050616148406e-07,8.84737520385516e-08,8.20288351133236e-11
1668680646.1036494,39042,1668680646,103534440,,0.025325232153191265,-0.029692257656009403,0.00021354824089315117,-2.565730564576662e-07,9.016489551164075e-08,8.608250223751668e-11
1668680646.1119645,39043,1668680646,111644004,,0.025626255461058067,-0.030033009691050466,0.00025100653844539045,-2.6121944964973935e-07,9.185139437819893e-08,9.025902941717234e-11
1668680646.1196604,39044,1668680646,119558828,,0.02592632508523574,-0.03037310748691546,0.00027543335547229695,-2.6584262998341924e-07,9.353272889468973e-08,9.455960320314816e-11
1668680646.12752,39045,1668680646,127417711,,0.026225459570409518,-0.03071252523422825,0.0002915230604106384,-2.7044100805193125e-07,9.520838591364593e-08,9.89852574906358e-11
1668680646.1354253,39046,1668680646,135314293,,0.026523677243504937,-0.031051235786142987,0.00031389645879222814,-2.7501300971748263e-07,9.687785674583962e-08,1.0353705393040258e-10
1668680646.144503,39047,1668680646,144317095,,0.02682099391209745,-0.03138921663700539,0.00033388022543372913,-2.795570680562908e-07,9.854063422296173e-08,1.0821599172317065e-10
1668680646.1518552,39048,1668680646,151692258,,0.027117425757996298,-0.03172644322013772,0.0003559261031589985,-2.840716376615953e-07,1.0019621765220907e-07,1.130229451695719e-10
1668680646.1597452,39049,1668680646,159606814,,0.02741298675404692,-0.032062893887900096,0.0003707565588329681,-2.8855517380713515e-07,1.0184410564905745e-07,1.1795880244802603e-10
1668680646.167686,39050,1668680646,167546977,,0.027707690681424712,-0.03239854501374954,0.00038117725036318766,-2.9300614072324356e-07,1.0348379893732225e-07,1.230243545924381e-10
1668680646.1763718,39051,1668680646,176200089,,0.028001550081454593,-0.032733374264121616,0.0003849497165396519,-2.9742301130254115e-07,1.0511480028237152e-07,1.2822037182003143e-10
1668680646.184081,39052,1668680646,183958968,,0.02829457706669071,-0.03306735808549062,0.0003876625010612996,-3.018042665215142e-07,1.0673661415090338e-07,1.3354744393678786e-10
1668680646.191814,39053,1668680646,191565276,,0.0285867823250741,-0.033400475073568386,0.0003855297870881065,-3.0614839681289766e-07,1.0834874730010144e-07,1.3900622319873435e-10
1668680646.1996057,39054,1668680646,199431181,,0.028878176062802637,-0.03373270289052205,0.0003807405959056201,-3.104539005879619e-07,1.099507081232104e-07,1.445972508395954e-10
1668680646.2087772,39055,1668680646,208540703,,0.029168768323722987,-0.03406401745209399,0.0003856182372733907,-3.147192851129274e-07,1.1154200703399411e-07,1.5032097788747478e-10
1668680646.215957,39056,1668680646,215743484,,0.029458567458314815,-0.034394397805034296,0.0003985653655316214,-3.1894306683791186e-07,1.1312215645892937e-07,1.56177799859325e-10
1668680646.2239249,39057,1668680646,223649849,,0.029747580866710366,-0.03472382389914849,0.00041458045315193026,-3.231237715020435e-07,1.1469067095343233e-07,1.6216805676094737e-10
1668680646.2321975,39058,1668680646,231963954,,0.03003581524711326,-0.035052275894419754,0.0004285098866460748,-3.272599345205754e-07,1.1624706717865661e-07,1.682919775758407e-10
1668680646.2408762,39059,1668680646,240663792,,0.030323276393220393,-0.03537973489282262,0.00043150115920686475,-3.313501011612853e-07,1.1779086412765788e-07,1.745497635319282e-10
1668680646.247741,39060,1668680646,247613084,,0.030609970413823667,-0.03570617916303243,0.00042865528298161807,-3.353928269808127e-07,1.1932158310913078e-07,1.8094149789593672e-10
1668680646.2559967,39061,1668680646,255817773,,0.03089590186073539,-0.03603159012894495,0.00041133271485997274,-3.393866781581053e-07,1.2083874784260193e-07,1.8746726393459312e-10
1668680646.2636013,39062,1668680646,263468299,,0.031181076061825554,-0.03635594507019513,0.0003904890595642932,-3.433302318469472e-07,1.2234188469044914e-07,1.9412692287001931e-10
1668680646.272337,39063,1668680646,272194075,,0.03146549729716381,-0.03667922295966918,0.0003705205939011134,-3.4722207663896764e-07,1.2383052260976288e-07,2.0092044694663969e-10
1668680646.280343,39064,1668680646,280233539,,0.03174916884382488,-0.03700140440453683,0.00034923360665371214,-3.51060812891883e-07,1.253041934550555e-07,2.078476002420615e-10
1668680646.2881355,39065,1668680646,287643735,,0.03203209424854767,-0.03732246766812981,0.000335542110666233,-3.548450531762966e-07,1.2676243191212487e-07,2.1490811907831642e-10
1668680646.295366,39066,1668680646,295208561,,0.03231427673227585,-0.03764239062155459,0.0003410660770441055,-3.585734226031279e-07,1.2820477570773918e-07,2.221016148773458e-10
1668680646.304152,39067,1668680646,303985962,,0.032595716771463674,-0.037961158546032,0.00034547881551568154,-3.6224455937400746e-07,1.29630765824092e-07,2.2942768518330325e-10
1668680646.311747,39068,1668680646,311580240,,0.03287641662996848,-0.038278749717630844,0.000358806031785921,-3.6585711490867093e-07,1.3103994641423464e-07,2.3688577488467644e-10
1668680646.3198128,39069,1668680646,319620796,,0.033156375663946226,-0.03859515050019371,0.00035681974008286736,-3.6940975458351743e-07,1.3243186502130168e-07,2.444752733588018e-10
1668680646.3276258,39070,1668680646,327503476,,0.03343559521699022,-0.03891033970585241,0.00034712651176829393,-3.729011577097629e-07,1.3380607277128226e-07,2.521955283496524e-10
1668680646.3362284,39071,1668680646,335778714,,0.03371407486812742,-0.03922430069614896,0.0003186438835347013,-3.7633001846563725e-07,1.3516212438928303e-07,2.600457765788988e-10
1668680646.3437335,39072,1668680646,343624679,,0.0339918161889036,-0.03953700932738704,0.00029178227747546137,-3.7969504600919536e-07,1.364995784473768e-07,2.6802518537927256e-10
1668680646.3518457,39073,1668680646,351636321,,0.03426881787967092,-0.03984844969566192,0.00025371896773452755,-3.8299496514678216e-07,1.3781799748711736e-07,2.7613275555005146e-10
1668680646.3599572,39074,1668680646,359734276,,0.0345450798376235,-0.04015860104968983,0.0002114288609257187,-3.862285165812064e-07,1.391169480930484e-07,2.843675572794524e-10
1668680646.3681443,39075,1668680646,367987896,,0.03482060080621175,-0.040467445444542324,0.00016087786733507553,-3.8939445752507375e-07,1.403960010555507e-07,2.9272842483329953e-10
1668680646.3760962,39076,1668680646,375792889,,0.03509508065580107,-0.04077495882944124,0.00012402288685522958,-3.924836083976776e-07,1.4165200302443046e-07,3.012083360509621e-10
1668680646.384126,39077,1668680646,383977008,,0.03536884183339563,-0.04108112514593401,8.983494801123471e-05,-3.955033254088433e-07,1.4288746676420667e-07,3.098121481581728e-10
1668680646.3919957,39078,1668680646,391876452,,0.03564175870514979,-0.04138592453086407,6.348353816399301e-05,-3.984490968681788e-07,1.441008376586346e-07,3.1853600312992114e-10
1668680646.4007914,39079,1668680646,400558983,,0.03591416015866222,-0.041689337778933584,4.671640120079501e-05,-4.0132865151108754e-07,1.4529475674137336e-07,3.2738521615893745e-10
1668680646.4081652,39080,1668680646,408002287,,0.036185931690078894,-0.04199134752125308,3.52246854870497e-05,-4.0413786586376323e-07,1.4646780335542814e-07,3.363561512648161e-10
1668680646.41531,39081,1668680646,415188003,,0.03645372655700138,-0.04229194441791508,6.265009221995831e-07,-4.067843105775258e-07,1.475882603634189e-07,3.4537427084924133e-10
1668680646.4243686,39082,1668680646,424186591,,0.03672103257730964,-0.042591100662497404,-3.123928054699962e-05,-4.093619132992856e-07,1.4868827701800674e-07,3.545116561420869e-10
1668680646.4326422,39083,1668680646,432388786,,0.03698940059417526,-0.042888819075756604,-0.00014849889548132153,-4.1191283814466604e-07,1.4978230684610863e-07,3.6380262691260157e-10
1668680646.4404192,39084,1668680646,440297769,,0.03725794773135278,-0.043185067774747614,-0.00030272026988936447,-4.144119080285325e-07,1.5086173068938613e-07,3.7322701873510056e-10
1668680646.4478118,39085,1668680646,447603762,,0.03752620506554955,-0.04347982551836329,-0.00048493813196991587,-4.1684525695052325e-07,1.5192179213751288e-07,3.8277303548994723e-10
1668680646.4557881,39086,1668680646,455626800,,0.037793914302380736,-0.04377310428681707,-0.0008208089689074581,-4.192050507057822e-07,1.5295979399602457e-07,3.9243328031624003e-10
1668680646.464297,39087,1668680646,464025150,,0.038060951122466394,-0.04406485831793055,-0.0012179225226385537,-4.2148667535628e-07,1.5397413769772245e-07,4.022027433325803e-10
1668680646.4726353,39088,1668680646,472514544,,0.038327186438036134,-0.04435504520614144,-0.001581243142781865,-4.23685383109146e-07,1.5496317477001545e-07,4.1207597056835965e-10
1668680646.4800954,39089,1668680646,479978534,,0.0389370080993237,-0.04498296382770355,-0.0024025252986468017,-4.3859806628308677e-07,1.603165580763271e-07,4.337005893306767e-10
1668680646.487676,39090,1668680646,487554320,,0.03970037659546794,-0.04576126736037756,-0.0034132935926311867,-4.5938189246466296e-07,1.6769590707927697e-07,4.612979720430843e-10
1668680646.4961298,39091,1668680646,495951352,,0.040173869505702155,-0.0462829460885362,-0.0041147507029715615,-4.694729932870189e-07,1.714241893626539e-07,4.795840252702632e-10
1668680646.5037806,39092,1668680646,503616539,,0.0406278732368437,-0.04678222232622606,-0.004752628174325808,-4.787709759883916e-07,1.7488956591369016e-07,4.975402589924016e-10
1668680646.5117886,39093,1668680646,511651093,,0.040932375990962874,-0.04720026769720828,-0.005143664783689631,-4.828048764612698e-07,1.7655813543994425e-07,5.108094086603288e-10
1668680646.5199006,39094,1668680646,519750740,,0.04116078975500189,-0.04757134193947318,-0.005394674367484526,-4.840496981445026e-07,1.7727498269771297e-07,5.215942400216278e-10
1668680646.5281808,39095,1668680646,527920514,,0.041351784506442946,-0.04790649703366392,-0.005581597541223306,-4.837685781007009e-07,1.774712898945565e-07,5.310326067764493e-10
1668680646.5357296,39096,1668680646,535449711,,0.04152576488134593,-0.048279792479437235,-0.005674205167727579,-4.832475632733906e-07,1.7758701362983846e-07,5.403599095954448e-10
1668680646.5438342,39097,1668680646,543705421,,0.04170350837454218,-0.048640486593931324,-0.005748284390681591,-4.826652875839204e-07,1.7768325696648941e-07,5.497501898155122e-10
1668680646.551586,39098,1668680646,551469285,,0.04187457838454165,-0.04901437076905139,-0.0057689280487966095,-4.819330441705556e-07,1.7772956546345704e-07,5.591093005241632e-10
1668680646.5600202,39099,1668680646,559769097,,0.0420445724584384,-0.04948325469992319,-0.005415258136117109,-4.819587991373997e-07,1.780372538005056e-07,5.69392283322756e-10
1668680646.5685678,39100,1668680646,568439320,,0.042216146070437874,-0.04998802571794121,-0.004887665440032324,-4.822861486687788e-07,1.7845038744108456e-07,5.801451957720971e-10
1668680646.575925,39101,1668680646,575791700,,0.042360461616439256,-0.05037872129148462,-0.004235028040204932,-4.80659817446525e-07,1.7819571212422496e-07,5.889285448201775e-10
1668680646.5842433,39102,1668680646,584129844,,0.0425114201860117,-0.05075319290470987,-0.0036256038071103528,-4.790314252340038e-07,1.7794108776855375e-07,5.978074008039513e-10
1668680646.592564,39103,1668680646,592339711,,0.042681739030145695,-0.05095341158258299,-0.002456550028330266,-4.76374717931936e-07,1.773345390937691e-07,6.056339041382586e-10
1668680646.599594,39104,1668680646,599450789,,0.04286383091877786,-0.05106793121235741,-0.0010572802806611127,-4.732680382846764e-07,1.7657362572846662e-07,6.130169705187427e-10
1668680646.6076946,39105,1668680646,607556894,,0.04279141205094602,-0.05132372442893069,0.0006033426817949345,-4.6338614112029827e-07,1.734885333583118e-07,6.126618240509529e-10
1668680646.6156654,39106,1668680646,615491309,,0.04259357366548292,-0.05152012163582153,0.0025851522910870714,-4.490438685200585e-07,1.6886778292585572e-07,6.06950267822981e-10
1668680646.6243253,39107,1668680646,624071321,,0.04243113534023765,-0.051715104998597744,0.004405215386937202,-4.358675508407553e-07,1.6463760301160119e-07,6.023174597968861e-10
1668680646.6325912,39108,1668680646,632405964,,0.04222257213690613,-0.05188080206026224,0.006312659630559824,-4.210548821207815e-07,1.5983771225851207e-07,5.954646220551751e-10
1668680646.6404264,39109,1668680646,640301086,,0.042285618541299815,-0.05216356429323582,0.007902909352265787,-4.157857445732764e-07,1.583017557795375e-07,5.998577190524657e-10
1668680646.6485093,39110,1668680646,648394186,,0.04248909133833834,-0.05260744540094202,0.00899529554759649,-4.162762207984491e-07,1.5873932035048548e-07,6.112942096958562e-10
1668680646.6568158,39111,1668680646,655452045,,0.0427635720316923,-0.053119255403185295,0.009794961373888177,-4.1952838940827446e-07,1.601265524414034e-07,6.263176505205692e-10
1668680646.6644032,39112,1668680646,664282338,,0.043037800452237394,-0.05360331881930398,0.010512100793730422,-4.2246262139304745e-07,1.6140926458515364e-07,6.411860209443176e-10
1668680646.672409,39113,1668680646,672259622,,0.04381009191586804,-0.05381423660035641,0.010700644362613719,-4.3872247144135373e-07,1.6726714845453558e-07,6.732550211774324e-10
1668680646.6802635,39114,1668680646,679799472,,0.04480530724682747,-0.05388977187837595,0.010614406224329352,-4.610370214440645e-07,1.7521661525312336e-07,7.137927332534488e-10
1668680646.6887772,39115,1668680646,688183527,,0.04613863657631884,-0.053902118767566794,0.010347389507969155,-4.940880345887053e-07,1.868682834246533e-07,7.692149139870708e-10
1668680646.6956785,39116,1668680646,695446645,,0.04797544061740182,-0.05388889363749748,0.009946978025561194,-5.443472507865024e-07,2.0445019088257896e-07,8.486256974915563e-10
1668680646.7038143,39117,1668680646,703634785,,0.04968024741870826,-0.05388938060869999,0.009558563193839473,-5.912879295729605e-07,2.209374779925822e-07,9.254751548448681e-10
1668680646.7119217,39118,1668680646,711786641,,0.05157409365438126,-0.053883215580157406,0.009110910557587627,-6.458041964384643e-07,2.4006429375465765e-07,1.0144158568703432e-09
1668680646.7200556,39119,1668680646,719809005,,0.05318019307418553,-0.05388047765089928,0.009041633997083659,-6.910253773681051e-07,2.560541929692503e-07,1.0927497795520935e-09
1668680646.7280328,39120,1668680646,727871611,,0.0545867227826699,-0.053886058354803396,0.00915098655402805,-7.296362842817592e-07,2.698213776215243e-07,1.1637664304453565e-09
1668680646.736091,39121,1668680646,735880748,,0.055987563295614044,-0.05390202542997547,0.009290699682490697,-7.686278213353418e-07,2.8375764332894474e-07,1.2370003216188863e-09
1668680646.7435849,39122,1668680646,743427159,,0.05773544029683494,-0.05392897367330358,0.009156699959158422,-8.216364895093434e-07,3.025382667096177e-07,1.331996110631728e-09
1668680646.7521935,39123,1668680646,751946452,,0.059341445256652255,-0.05396805854524658,0.009015192378523142,-8.700524451168631e-07,3.197987347631527e-07,1.4226761713143077e-09
1668680646.7599876,39124,1668680646,759761323,,0.06105661109672781,-0.05401752054983806,0.008737720413876767,-9.236852795651944e-07,3.3889803257181744e-07,1.5232276689980395e-09
1668680646.7676215,39125,1668680646,767525435,,0.06289268207362803,-0.05407704343085834,0.008318198635694298,-9.832509194320155e-07,3.6008770489155684e-07,1.6350952536381413e-09
1668680646.7761123,39126,1668680646,775941473,,0.0647780470613088,-0.054912564518383104,0.0072425895910054015,-1.054715931920417e-06,3.8541928563864264e-07,1.767720733680811e-09
1668680646.7851746,39127,1668680646,784566112,,0.06649824339311138,-0.05569537748062036,0.00623773525926289,-1.1196686248749225e-06,4.085985678206616e-07,1.8937922480199987e-09
1668680646.7925098,39128,1668680646,792360553,,0.06817300252461371,-0.05683359916682548,0.004943869347877063,-1.1877553567980932e-06,4.329258305999818e-07,2.0279476292683896e-09
1668680646.8004084,39129,1668680646,800243809,,0.06913182919810863,-0.058613687031676326,0.0036472787613842468,-1.2320651202743981e-06,4.4918876705322616e-07,2.128153625546858e-09
1668680646.8078644,39130,1668680646,807732400,,0.0694344216723269,-0.060581504565455586,0.002520524700705861,-1.2486898135612243e-06,4.5602522232793957e-07,2.1866409516402285e-09
1668680646.8178222,39131,1668680646,815511247,,0.06939449481223012,-0.06256715449830257,0.0015171511652159874,-1.2494148512828167e-06,4.5744153432140597e-07,2.2206250449574583e-09
