Time,header.seq,header.stamp.secs,header.stamp.nsecs,header.frame_id,wrench.force.x,wrench.force.y,wrench.force.z,wrench.torque.x,wrench.torque.y,wrench.torque.z
1668680644.1997082,38804,1668680644,199466473,,-5e-324,-5e-324,2.236518235725951,-5e-324,-5e-324,0.0
1668680644.2076006,38805,1668680644,207427089,,-5e-324,-5e-324,2.2499218002427837,-5e-324,-5e-324,0.0
1668680644.2158692,38806,1668680644,215632612,,-5e-324,-5e-324,2.257000768579947,-5e-324,-5e-324,0.0
1668680644.2243607,38807,1668680644,224083938,,-5e-324,-5e-324,2.257000768579947,-5e-324,-5e-324,0.0
1668680644.2317638,38808,1668680644,231522736,,-5e-324,-5e-324,2.2463939494060385,-5e-324,-5e-324,0.0
1668680644.2398393,38809,1668680644,239581409,,-5e-324,-5e-324,2.2407679664521054,-5e-324,-5e-324,0.0
1668680644.2480137,38810,1668680644,247557054,,-5e-324,-5e-324,2.223720927864649,-5e-324,-5e-324,0.0
1668680644.256316,38811,1668680644,256024168,,-5e-324,-5e-324,2.2054593913708818,-5e-324,-5e-324,0.0
1668680644.263565,38812,1668680644,263331633,,-5e-324,-5e-324,2.2054593913708818,-5e-324,-5e-324,0.0
1668680644.2720163,38813,1668680644,271760413,,-5e-324,-5e-324,2.195791723451289,-5e-324,-5e-324,0.0
1668680644.280376,38814,1668680644,280030816,,-5e-324,-5e-324,2.2047380173637134,-5e-324,-5e-324,0.0
1668680644.288817,38815,1668680644,288357277,,-5e-324,-5e-324,2.20478204077104,-5e-324,-5e-324,0.0
1668680644.2955377,38816,1668680644,295332503,,-5e-324,-5e-324,2.20478204077104,-5e-324,-5e-324,0.0
1668680644.304451,38817,1668680644,304162756,,-5e-324,-5e-324,2.204780622450714,-5e-324,-5e-324,0.0
1668680644.3121977,38818,1668680644,311985435,,-5e-324,-5e-324,2.237897542194977,-5e-324,-5e-324,0.0
1668680644.32111,38819,1668680644,320590338,,-5e-324,-5e-324,2.2554150287301753,-5e-324,-5e-324,0.0
1668680644.3284395,38820,1668680644,328124849,,-5e-324,-5e-324,2.2692101958101087,-5e-324,-5e-324,0.0
1668680644.336609,38821,1668680644,336310963,,-5e-324,-5e-324,2.2768466519892536,-5e-324,-5e-324,0.0
1668680644.3434424,38822,1668680644,343271783,,-5e-324,-5e-324,2.2768466519892536,-5e-324,-5e-324,0.0
1668680644.3521757,38823,1668680644,351791892,,-5e-324,-5e-324,2.2808983068864714,-5e-324,-5e-324,0.0
1668680644.3599315,38824,1668680644,359679699,,-5e-324,-5e-324,2.259509440352926,-5e-324,-5e-324,0.0
1668680644.367859,38825,1668680644,367649698,,-5e-324,-5e-324,2.2477940883652003,-5e-324,-5e-324,0.0
1668680644.375984,38826,1668680644,375730929,,-5e-324,-5e-324,2.24158907997974,-5e-324,-5e-324,0.0
1668680644.3845222,38827,1668680644,384256453,,-5e-324,-5e-324,2.24158907997974,-5e-324,-5e-324,0.0
1668680644.3922024,38828,1668680644,391962632,,-5e-324,-5e-324,2.2246925978899457,-5e-324,-5e-324,0.0
1668680644.400008,38829,1668680644,399643652,,-5e-324,-5e-324,2.215757625537336,-5e-324,-5e-324,0.0
1668680644.4077628,38830,1668680644,407580130,,-5e-324,-5e-324,2.2193106653411228,-5e-324,-5e-324,0.0
1668680644.416057,38831,1668680644,415562270,,-5e-324,-5e-324,2.2193106653411228,-5e-324,-5e-324,0.0
1668680644.423979,38832,1668680644,423730944,,-5e-324,-5e-324,2.226150926856592,-5e-324,-5e-324,0.0
1668680644.4318779,38833,1668680644,431632147,,-5e-324,-5e-324,2.229779911040379,-5e-324,-5e-324,0.0
1668680644.439762,38834,1668680644,439555457,,-5e-324,-5e-324,2.2652560178573173,-5e-324,-5e-324,0.0
1668680644.4480674,38835,1668680644,447747134,,-5e-324,-5e-324,2.2796975023774158,-5e-324,-5e-324,0.0
1668680644.4562204,38836,1668680644,455978163,,-5e-324,-5e-324,2.2796975023774158,-5e-324,-5e-324,0.0
1668680644.4640572,38837,1668680644,463735951,,-5e-324,-5e-324,2.287338275494296,-5e-324,-5e-324,0.0
1668680644.472221,38838,1668680644,471868548,,-5e-324,-5e-324,2.291435332407185,-5e-324,-5e-324,0.0
1668680644.4803178,38839,1668680644,479941908,,-5e-324,-5e-324,2.2936005027119055,-5e-324,-5e-324,0.0
1668680644.4883504,38840,1668680644,488139527,,-5e-324,-5e-324,2.265904579261985,-5e-324,-5e-324,0.0
1668680644.4957163,38841,1668680644,495506963,,-5e-324,-5e-324,2.2465328460547846,-5e-324,-5e-324,0.0
1668680644.503572,38842,1668680644,503378163,,-5e-324,-5e-324,2.2465328460547846,-5e-324,-5e-324,0.0
1668680644.5126889,38843,1668680644,512395273,,-5e-324,-5e-324,2.2362997052835025,-5e-324,-5e-324,0.0
1668680644.519691,38844,1668680644,519451053,,-5e-324,-5e-324,2.249848703341528,-5e-324,-5e-324,0.0
1668680644.528054,38845,1668680644,527793391,,-5e-324,-5e-324,2.248027103473249,-5e-324,-5e-324,0.0
1668680644.5353496,38846,1668680644,535133515,,-5e-324,-5e-324,2.248027103473249,-5e-324,-5e-324,0.0
1668680644.5443914,38847,1668680644,544123540,,-5e-324,-5e-324,2.247046723018546,-5e-324,-5e-324,0.0
1668680644.5522628,38848,1668680644,552042377,,-5e-324,-5e-324,2.2601313208994935,-5e-324,-5e-324,0.0
1668680644.5599873,38849,1668680644,559668279,,-5e-324,-5e-324,2.267052353912625,-5e-324,-5e-324,0.0
1668680644.5675645,38850,1668680644,567376731,,-5e-324,-5e-324,2.275954899222249,-5e-324,-5e-324,0.0
1668680644.575836,38851,1668680644,575540184,,-5e-324,-5e-324,2.275954899222249,-5e-324,-5e-324,0.0
1668680644.583775,38852,1668680644,583544078,,-5e-324,-5e-324,2.266708885048361,-5e-324,-5e-324,0.0
1668680644.5919354,38853,1668680644,591660190,,-5e-324,-5e-324,2.261798844539356,-5e-324,-5e-324,0.0
1668680644.6002257,38854,1668680644,600003778,,-5e-324,-5e-324,2.2543299624151056,-5e-324,-5e-324,0.0
1668680644.6084948,38855,1668680644,608222145,,-5e-324,-5e-324,2.2450820506868725,-5e-324,-5e-324,0.0
1668680644.6155412,38856,1668680644,615350534,,-5e-324,-5e-324,2.2450820506868725,-5e-324,-5e-324,0.0
1668680644.6238525,38857,1668680644,623687420,,-5e-324,-5e-324,2.2401973419537144,-5e-324,-5e-324,0.0
1668680644.6319997,38858,1668680644,631653719,,-5e-324,-5e-324,2.2516694524466923,-5e-324,-5e-324,0.0
1668680644.6402574,38859,1668680644,639870248,,-5e-324,-5e-324,2.257724516626361,-5e-324,-5e-324,0.0
1668680644.6485584,38860,1668680644,648352120,,-5e-324,-5e-324,2.256583784577522,-5e-324,-5e-324,0.0
1668680644.6566286,38861,1668680644,656414575,,-5e-324,-5e-324,2.2564665268128996,-5e-324,-5e-324,0.0
1668680644.6635225,38862,1668680644,663289874,,-5e-324,-5e-324,2.2564665268128996,-5e-324,-5e-324,0.0
1668680644.6729672,38863,1668680644,672146307,,-5e-324,-5e-324,2.2564146444377897,-5e-324,-5e-324,0.0
1668680644.679707,38864,1668680644,679488106,,-5e-324,-5e-324,2.2467624073614507,-5e-324,-5e-324,0.0
1668680644.6882558,38865,1668680644,687931548,,-5e-324,-5e-324,2.250669476626765,-5e-324,-5e-324,0.0
1668680644.6957238,38866,1668680644,695523688,,-5e-324,-5e-324,2.252740491053648,-5e-324,-5e-324,0.0
1668680644.7043488,38867,1668680644,703925791,,-5e-324,-5e-324,2.252740491053648,-5e-324,-5e-324,0.0
1668680644.7122478,38868,1668680644,711967733,,-5e-324,-5e-324,2.2394842343768766,-5e-324,-5e-324,0.0
1668680644.7196593,38869,1668680644,719466375,,-5e-324,-5e-324,2.232469234475479,-5e-324,-5e-324,0.0
1668680644.728374,38870,1668680644,728161853,,-5e-324,-5e-324,2.2337035782457866,-5e-324,-5e-324,0.0
1668680644.7363088,38871,1668680644,735970910,,-5e-324,-5e-324,2.2337035782457866,-5e-324,-5e-324,0.0
1668680644.7438352,38872,1668680644,743630707,,-5e-324,-5e-324,2.2256467409954164,-5e-324,-5e-324,0.0
1668680644.7524269,38873,1668680644,752203829,,-5e-324,-5e-324,2.2213899840853006,-5e-324,-5e-324,0.0
1668680644.7605767,38874,1668680644,760217259,,-5e-324,-5e-324,2.2331975893347016,-5e-324,-5e-324,0.0
1668680644.7687397,38875,1668680644,768279681,,-5e-324,-5e-324,2.2339815394146365,-5e-324,-5e-324,0.0
1668680644.7767408,38876,1668680644,776494990,,-5e-324,-5e-324,2.2344181198018545,-5e-324,-5e-324,0.0
1668680644.78339,38877,1668680644,783216670,,-5e-324,-5e-324,2.2344181198018545,-5e-324,-5e-324,0.0
1668680644.791898,38878,1668680644,791625752,,-5e-324,-5e-324,2.2439218993319336,-5e-324,-5e-324,0.0
1668680644.800232,38879,1668680644,799991947,,-5e-324,-5e-324,2.248938802733996,-5e-324,-5e-324,0.0
1668680644.8076417,38880,1668680644,807455812,,-5e-324,-5e-324,2.265668318057324,-5e-324,-5e-324,0.0
1668680644.815963,38881,1668680644,815716991,,-5e-324,-5e-324,2.2558636589609744,-5e-324,-5e-324,0.0
1668680644.8236265,38882,1668680644,823368716,,-5e-324,-5e-324,2.2558636589609744,-5e-324,-5e-324,0.0
1668680644.8323715,38883,1668680644,832076177,,-5e-324,-5e-324,2.250664403215845,-5e-324,-5e-324,0.0
1668680644.8397892,38884,1668680644,839550484,,-5e-324,-5e-324,2.248067231703505,-5e-324,-5e-324,0.0
1668680644.8485541,38885,1668680644,848330310,,-5e-324,-5e-324,2.2517979380048416,-5e-324,-5e-324,0.0
1668680644.856666,38886,1668680644,856367572,,-5e-324,-5e-324,2.253784965408669,-5e-324,-5e-324,0.0
1668680644.863913,38887,1668680644,863586506,,-5e-324,-5e-324,2.253784965408669,-5e-324,-5e-324,0.0
1668680644.8717184,38888,1668680644,871522530,,-5e-324,-5e-324,2.2596466695581308,-5e-324,-5e-324,0.0
1668680644.8798077,38889,1668680644,879570839,,-5e-324,-5e-324,2.2627450216515506,-5e-324,-5e-324,0.0
1668680644.8884807,38890,1668680644,888276564,,-5e-324,-5e-324,2.2646202526589305,-5e-324,-5e-324,0.0
1668680644.8966308,38891,1668680644,896315066,,-5e-324,-5e-324,2.2646202526589305,-5e-324,-5e-324,0.0
1668680644.9046705,38892,1668680644,904410952,,-5e-324,-5e-324,2.261328847649885,-5e-324,-5e-324,0.0
1668680644.9122703,38893,1668680644,912034955,,-5e-324,-5e-324,2.259578153690023,-5e-324,-5e-324,0.0
1668680644.9198298,38894,1668680644,919546985,,-5e-324,-5e-324,2.267451239645167,-5e-324,-5e-324,0.0
1668680644.9282324,38895,1668680644,928033193,,-5e-324,-5e-324,2.2716637210151265,-5e-324,-5e-324,0.0
1668680644.9354963,38896,1668680644,935254424,,-5e-324,-5e-324,2.2716637210151265,-5e-324,-5e-324,0.0
1668680644.9437575,38897,1668680644,943590034,,-5e-324,-5e-324,2.2738974085499635,-5e-324,-5e-324,0.0
1668680644.9519336,38898,1668680644,951635836,,-5e-324,-5e-324,2.241852573328524,-5e-324,-5e-324,0.0
1668680644.96098,38899,1668680644,960566582,,-5e-324,-5e-324,2.2249100975447553,-5e-324,-5e-324,0.0
1668680644.968393,38900,1668680644,968186591,,-5e-324,-5e-324,2.2112988876033772,-5e-324,-5e-324,0.0
1668680644.9764805,38901,1668680644,976206550,,-5e-324,-5e-324,2.2227719395095558,-5e-324,-5e-324,0.0
1668680644.9841185,38902,1668680644,983870300,,-5e-324,-5e-324,2.2227719395095558,-5e-324,-5e-324,0.0
1668680644.9927995,38903,1668680644,992017477,,-5e-324,-5e-324,2.22885115159171,-5e-324,-5e-324,0.0
1668680644.9999762,38904,1668680644,999713265,,-5e-324,-5e-324,2.2224965027713637,-5e-324,-5e-324,0.0
1668680645.0079904,38905,1668680645,7697951,,-5e-324,-5e-324,2.214829979536617,-5e-324,-5e-324,0.0
1668680645.0155263,38906,1668680645,15321213,,-5e-324,-5e-324,2.214829979536617,-5e-324,-5e-324,0.0
1668680645.0241833,38907,1668680645,23766528,,-5e-324,-5e-324,2.2107959135258124,-5e-324,-5e-324,0.0
1668680645.0320723,38908,1668680645,31815300,,-5e-324,-5e-324,2.231533545103134,-5e-324,-5e-324,0.0
1668680645.03972,38909,1668680645,39490382,,-5e-324,-5e-324,2.242498999346002,-5e-324,-5e-324,0.0
1668680645.0480711,38910,1668680645,47650608,,-5e-324,-5e-324,2.2387122578606813,-5e-324,-5e-324,0.0
1668680645.0562143,38911,1668680645,55644113,,-5e-324,-5e-324,2.2387122578606813,-5e-324,-5e-324,0.0
1668680645.064126,38912,1668680645,63698607,,-5e-324,-5e-324,2.2553992883992233,-5e-324,-5e-324,0.0
1668680645.072601,38913,1668680645,72370207,,-5e-324,-5e-324,2.264236283950047,-5e-324,-5e-324,0.0
1668680645.080105,38914,1668680645,79875402,,-5e-324,-5e-324,2.2697222406283677,-5e-324,-5e-324,0.0
1668680645.0895998,38915,1668680645,88077085,,-5e-324,-5e-324,2.25852608161788,-5e-324,-5e-324,0.0
1668680645.0954773,38916,1668680645,95303571,,-5e-324,-5e-324,2.25852608161788,-5e-324,-5e-324,0.0
1668680645.1040168,38917,1668680645,103723675,,-5e-324,-5e-324,2.252585051897209,-5e-324,-5e-324,0.0
1668680645.1120806,38918,1668680645,111796384,,-5e-324,-5e-324,2.2443547648040605,-5e-324,-5e-324,0.0
1668680645.120837,38919,1668680645,120491580,,-5e-324,-5e-324,2.239991082990022,-5e-324,-5e-324,0.0
1668680645.1279843,38920,1668680645,127741533,,-5e-324,-5e-324,2.214190214274957,-5e-324,-5e-324,0.0
1668680645.1353357,38921,1668680645,135150366,,-5e-324,-5e-324,2.214190214274957,-5e-324,-5e-324,0.0
1668680645.1436577,38922,1668680645,143460056,,-5e-324,-5e-324,2.2292059312061543,-5e-324,-5e-324,0.0
1668680645.1526153,38923,1668680645,152323073,,-5e-324,-5e-324,2.2371411469488143,-5e-324,-5e-324,0.0
1668680645.1598628,38924,1668680645,159592067,,-5e-324,-5e-324,2.2315954624693353,-5e-324,-5e-324,0.0
1668680645.1678967,38925,1668680645,167632453,,-5e-324,-5e-324,2.2389042469454443,-5e-324,-5e-324,0.0
1668680645.1755948,38926,1668680645,175349013,,-5e-324,-5e-324,2.2389042469454443,-5e-324,-5e-324,0.0
1668680645.1841946,38927,1668680645,183970134,,-5e-324,-5e-324,2.2427708576015077,-5e-324,-5e-324,0.0
1668680645.1927288,38928,1668680645,192503161,,-5e-324,-5e-324,2.239719931665419,-5e-324,-5e-324,0.0
1668680645.2004833,38929,1668680645,200019611,,-5e-324,-5e-324,2.238094914109656,-5e-324,-5e-324,0.0
1668680645.208078,38930,1668680645,207836873,,-5e-324,-5e-324,2.2323940027396105,-5e-324,-5e-324,0.0
1668680645.2160568,38931,1668680645,215766979,,-5e-324,-5e-324,2.2323940027396105,-5e-324,-5e-324,0.0
1668680645.2240875,38932,1668680645,223844144,,-5e-324,-5e-324,2.243053163932167,-5e-324,-5e-324,0.0
1668680645.2317376,38933,1668680645,231493822,,-5e-324,-5e-324,2.2486918606111344,-5e-324,-5e-324,0.0
1668680645.2398992,38934,1668680645,239625723,,-5e-324,-5e-324,2.2378107345698486,-5e-324,-5e-324,0.0
1668680645.248471,38935,1668680645,248152919,,-5e-324,-5e-324,2.24562669407742,-5e-324,-5e-324,0.0
1668680645.2561119,38936,1668680645,255824587,,-5e-324,-5e-324,2.24562669407742,-5e-324,-5e-324,0.0
1668680645.2641432,38937,1668680645,263924975,,-5e-324,-5e-324,2.2497516248240634,-5e-324,-5e-324,0.0
1668680645.2722957,38938,1668680645,272078155,,-5e-324,-5e-324,2.238495705080218,-5e-324,-5e-324,0.0
1668680645.2801688,38939,1668680645,279876487,,-5e-324,-5e-324,2.232542377003532,-5e-324,-5e-324,0.0
1668680645.287917,38940,1668680645,287585491,,-5e-324,-5e-324,2.229353448894848,-5e-324,-5e-324,0.0
1668680645.2955756,38941,1668680645,295339151,,-5e-324,-5e-324,2.229353448894848,-5e-324,-5e-324,0.0
1668680645.303778,38942,1668680645,303572746,,-5e-324,-5e-324,2.2131706106862357,-5e-324,-5e-324,0.0
1668680645.3123689,38943,1668680645,311994294,,-5e-324,-5e-324,2.204602520130102,-5e-324,-5e-324,0.0
1668680645.3200734,38944,1668680645,319848257,,-5e-324,-5e-324,2.2281371351016532,-5e-324,-5e-324,0.0
1668680645.3277094,38945,1668680645,327514879,,-5e-324,-5e-324,2.2593185232972814,-5e-324,-5e-324,0.0
1668680645.3356624,38946,1668680645,335472197,,-5e-324,-5e-324,2.2593185232972814,-5e-324,-5e-324,0.0
1668680645.3446908,38947,1668680645,344188577,,-5e-324,-5e-324,2.2758206927417715,-5e-324,-5e-324,0.0
1668680645.3525698,38948,1668680645,352290682,,-5e-324,-5e-324,2.2712406159724834,-5e-324,-5e-324,0.0
1668680645.3605387,38949,1668680645,360299565,,-5e-324,-5e-324,2.2688295348667245,-5e-324,-5e-324,0.0
1668680645.36776,38950,1668680645,367482436,,-5e-324,-5e-324,2.2675014992071905,-5e-324,-5e-324,0.0
1668680645.3762374,38951,1668680645,375850663,,-5e-324,-5e-324,2.2808656235825424,-5e-324,-5e-324,0.0
1668680645.3835661,38952,1668680645,383302037,,-5e-324,-5e-324,2.2808656235825424,-5e-324,-5e-324,0.0
1668680645.3917763,38953,1668680645,391546327,,-5e-324,-5e-324,2.287935161578716,-5e-324,-5e-324,0.0
1668680645.3997,38954,1668680645,399481243,,-5e-324,-5e-324,2.286968630183501,-5e-324,-5e-324,0.0
1668680645.408416,38955,1668680645,408138547,,-5e-324,-5e-324,2.272246426108272,-5e-324,-5e-324,0.0
1668680645.415855,38956,1668680645,415609829,,-5e-324,-5e-324,2.272246426108272,-5e-324,-5e-324,0.0
1668680645.4242742,38957,1668680645,424073532,,-5e-324,-5e-324,2.2644679898622693,-5e-324,-5e-324,0.0
1668680645.4316313,38958,1668680645,431427697,,-5e-324,-5e-324,2.2657906044306406,-5e-324,-5e-324,0.0
1668680645.4401267,38959,1668680645,439895438,,-5e-324,-5e-324,2.2665010599524997,-5e-324,-5e-324,0.0
1668680645.4479213,38960,1668680645,447689505,,-5e-324,-5e-324,2.266701056023025,-5e-324,-5e-324,0.0
1668680645.4555984,38961,1668680645,455339777,,-5e-324,-5e-324,2.266701056023025,-5e-324,-5e-324,0.0
1668680645.4640205,38962,1668680645,463812484,,-5e-324,-5e-324,2.275657740646681,-5e-324,-5e-324,0.0
1668680645.4720628,38963,1668680645,471707196,,-5e-324,-5e-324,2.2803873918565243,-5e-324,-5e-324,0.0
1668680645.4801483,38964,1668680645,479902616,,-5e-324,-5e-324,2.2792810075400407,-5e-324,-5e-324,0.0
1668680645.488269,38965,1668680645,487691736,,-5e-324,-5e-324,2.2687778165291697,-5e-324,-5e-324,0.0
1668680645.4956691,38966,1668680645,495386188,,-5e-324,-5e-324,2.2687778165291697,-5e-324,-5e-324,0.0
1668680645.5096333,38967,1668680645,508681459,,-5e-324,-5e-324,2.263219296331833,-5e-324,-5e-324,0.0
1668680645.5160098,38968,1668680645,515432344,,-5e-324,-5e-324,2.2701391583480084,-5e-324,-5e-324,0.0
1668680645.5210624,38969,1668680645,520719271,,-5e-324,-5e-324,2.2737888476263834,-5e-324,-5e-324,0.0
1668680645.5283606,38970,1668680645,527987631,,-5e-324,-5e-324,2.257115808080319,-5e-324,-5e-324,0.0
1668680645.5362093,38971,1668680645,535948278,,-5e-324,-5e-324,2.257115808080319,-5e-324,-5e-324,0.0
1668680645.5440238,38972,1668680645,543718436,,-5e-324,-5e-324,2.2480218350275205,-5e-324,-5e-324,0.0
1668680645.5518072,38973,1668680645,551565593,,-5e-324,-5e-324,2.24320469036409,-5e-324,-5e-324,0.0
1668680645.5604053,38974,1668680645,560186463,,-5e-324,-5e-324,2.231284019881108,-5e-324,-5e-324,0.0
1668680645.5689533,38975,1668680645,568375683,,-5e-324,-5e-324,2.2202172891848226,-5e-324,-5e-324,0.0
1668680645.575433,38976,1668680645,575242998,,-5e-324,-5e-324,2.2202172891848226,-5e-324,-5e-324,0.0
1668680645.5840368,38977,1668680645,583775304,,-5e-324,-5e-324,2.214358008296621,-5e-324,-5e-324,0.0
1668680645.5918338,38978,1668680645,591595496,,-5e-324,-5e-324,2.2304675203483693,-5e-324,-5e-324,0.0
1668680645.6007166,38979,1668680645,600421541,,-5e-324,-5e-324,2.238992794804756,-5e-324,-5e-324,0.0
1668680645.6081228,38980,1668680645,607803720,,-5e-324,-5e-324,2.2246601590807993,-5e-324,-5e-324,0.0
1668680645.6154172,38981,1668680645,615199465,,-5e-324,-5e-324,2.2246601590807993,-5e-324,-5e-324,0.0
1668680645.6243553,38982,1668680645,624152670,,-5e-324,-5e-324,2.22240239152305,-5e-324,-5e-324,0.0
1668680645.632485,38983,1668680645,632246258,,-5e-324,-5e-324,2.221197502829551,-5e-324,-5e-324,0.0
1668680645.6400447,38984,1668680645,639810444,,-5e-324,-5e-324,2.2535717223426444,-5e-324,-5e-324,0.0
1668680645.64801,38985,1668680645,647776670,,-5e-324,-5e-324,2.2658225366462617,-5e-324,-5e-324,0.0
1668680645.656456,38986,1668680645,656228659,,-5e-324,-5e-324,2.2658225366462617,-5e-324,-5e-324,0.0
1668680645.6643515,38987,1668680645,664102221,,-5e-324,-5e-324,2.2723062653831656,-5e-324,-5e-324,0.0
1668680645.6716745,38988,1668680645,671436465,,-5e-324,-5e-324,2.2528205670664487,-5e-324,-5e-324,0.0
1668680645.679725,38989,1668680645,679490854,,-5e-324,-5e-324,2.24252517663891,-5e-324,-5e-324,0.0
1668680645.68857,38990,1668680645,688359158,,-5e-324,-5e-324,2.251297351622986,-5e-324,-5e-324,0.0
1668680645.6966426,38991,1668680645,696035954,,-5e-324,-5e-324,2.251297351622986,-5e-324,-5e-324,0.0
1668680645.704509,38992,1668680645,704319145,,-5e-324,-5e-324,2.264062425694212,-5e-324,-5e-324,0.0
1668680645.711878,38993,1668680645,711623765,,-5e-324,-5e-324,2.270808946388125,-5e-324,-5e-324,0.0
1668680645.7206626,38994,1668680645,720350044,,-5e-324,-5e-324,2.2667150318387534,-5e-324,-5e-324,0.0
1668680645.7286644,38995,1668680645,728322275,,-5e-324,-5e-324,2.2643744705685105,-5e-324,-5e-324,0.0
1668680645.7356143,38996,1668680645,735399442,,-5e-324,-5e-324,2.2643744705685105,-5e-324,-5e-324,0.0
1668680645.74401,38997,1668680645,743682997,,-5e-324,-5e-324,2.263126394144221,-5e-324,-5e-324,0.0
1668680645.751896,38998,1668680645,751670320,,-5e-324,-5e-324,2.2909243928854686,-5e-324,-5e-324,0.0
1668680645.7604187,38999,1668680645,760058092,,-5e-324,-5e-324,2.30559338260847,-5e-324,-5e-324,0.0
1668680645.7680974,39000,1668680645,767726858,,-5e-324,-5e-324,2.299107516684523,-5e-324,-5e-324,0.0
1668680645.775595,39001,1668680645,775349644,,-5e-324,-5e-324,2.299107516684523,-5e-324,-5e-324,0.0
1668680645.7839632,39002,1668680645,783705578,,-5e-324,-5e-324,2.2486476435020313,-5e-324,-5e-324,0.0
1668680645.7921534,39003,1668680645,791780225,,-5e-324,-5e-324,2.2219484988040348,-5e-324,-5e-324,0.0
1668680645.8005116,39004,1668680645,800230180,,-0.01307348746701959,-5e-324,2.217143157898895,-5e-324,-5e-324,0.0
1668680645.808362,39005,1668680645,808144401,,-0.023679853446177113,-5e-324,2.2288433378489922,-5e-324,-5e-324,0.0
1668680645.8155477,39006,1668680645,815309992,,-0.023679853446177113,-5e-324,2.2288433378489922,-5e-324,-5e-324,0.0
1668680645.8245637,39007,1668680645,824109739,,-0.02924949166932742,-5e-324,2.23504952707219,-5e-324,-5e-324,0.0
1668680645.831771,39008,1668680645,831557654,,-0.04154132863271639,-5e-324,2.2243110711359053,-5e-324,-5e-324,0.0
1668680645.8399487,39009,1668680645,839694031,,-0.048096068383205404,-5e-324,2.218616130351168,-5e-324,-5e-324,0.0
1668680645.8494034,39010,1668680645,847772659,,-0.055857335656201046,-5e-324,2.243959385699201,-5e-324,-5e-324,0.0
1668680645.85637,39011,1668680645,856096189,,-0.047494094162586833,-5e-324,2.253377140641156,-5e-324,-5e-324,0.0
1668680645.863738,39012,1668680645,863480483,,-0.047494094162586833,-5e-324,2.253377140641156,-5e-324,-5e-324,0.0
1668680645.87184,39013,1668680645,871549703,,-0.04316549056233294,-5e-324,2.2583233828396345,-5e-324,-5e-324,0.0
1668680645.8798473,39014,1668680645,879616140,,-0.022837903139520725,-5e-324,2.246155423903068,-5e-324,-5e-324,0.0
1668680645.8885722,39015,1668680645,888153250,,-0.012083027738488456,-5e-324,2.2395516080277367,-5e-324,-5e-324,0.0
1668680645.8956006,39016,1668680645,895350503,,-0.012083027738488456,-5e-324,2.2395516080277367,-5e-324,-5e-324,0.0
1668680645.9038358,39017,1668680645,903619728,,-0.006392861833117723,-5e-324,2.236044932339171,-5e-324,-5e-324,0.0
1668680645.9116685,39018,1668680645,911437577,,-0.0033823213272243815,-5e-324,2.197276610408369,-5e-324,-5e-324,0.0
1668680645.9203403,39019,1668680645,920013917,,-0.0017895111546650934,-5e-324,2.1767866641321882,-5e-324,-5e-324,0.0
1668680645.9282796,39020,1668680645,928103870,,-0.009541792557067505,-5e-324,2.2130948804690083,-5e-324,-5e-324,0.0
1668680645.9356084,39021,1668680645,935265243,,-0.009541792557067505,-5e-324,2.2130948804690083,-5e-324,-5e-324,0.0
1668680645.944149,39022,1668680645,943875686,,-0.03937017521454852,-5e-324,2.241720026118406,-5e-324,-5e-324,0.0
1668680645.9531019,39023,1668680645,952695783,,-0.05518068869801669,-5e-324,2.2568407080012944,-5e-324,-5e-324,0.0
1668680645.9600658,39024,1668680645,959832917,,-0.029194877835050863,-5e-324,2.259949939746023,-5e-324,-5e-324,0.0
1668680645.967726,39025,1668680645,967508499,,-0.015446361977612996,-5e-324,2.24238328089326,-5e-324,-5e-324,0.0
1668680645.975479,39026,1668680645,975261621,,-0.015446361977612996,-5e-324,2.24238328089326,-5e-324,-5e-324,0.0
1668680645.9842515,39027,1668680645,983863778,,-0.008172327340825566,-5e-324,2.233071815686266,-5e-324,-5e-324,0.0
1668680645.992054,39028,1668680645,991715341,,-0.00432379703793048,-5e-324,2.2463582386553878,-5e-324,-5e-324,0.0
1668680645.9997716,39029,1668680645,999611886,,-0.0022876250602227844,-5e-324,2.2534365897795077,-5e-324,-5e-324,0.0
1668680646.0080447,39030,1668680646,7692365,,-0.0012103316530010168,-5e-324,2.2333217945077184,-5e-324,-5e-324,0.0
1668680646.016989,39031,1668680646,16164878,,-0.0006403596182468431,-5e-324,2.2094935496711594,-5e-324,-5e-324,0.0
1668680646.0235994,39032,1668680646,23349076,,-0.0006403596182468431,-5e-324,2.2094935496711594,-5e-324,-5e-324,0.0
1668680646.0318012,39033,1668680646,31618702,,-0.0003388000633252034,-5e-324,2.1968735508455826,-5e-324,-5e-324,0.0
1668680646.0402696,39034,1668680646,40039596,,-0.00017925159494506856,-5e-324,2.223157944985288,-5e-324,-5e-324,0.0
1668680646.0483553,39035,1668680646,48049966,,-9.483804098203274e-05,-5e-324,2.264665847595336,-5e-324,-5e-324,0.0
1668680646.056052,39036,1668680646,55823504,,-5.017670286317954e-05,-5e-324,2.2865865236422143,-5e-324,-5e-324,0.0
1668680646.0634732,39037,1668680646,63268485,,-5.017670286317954e-05,-5e-324,2.2865865236422143,-5e-324,-5e-324,0.0
1668680646.0720503,39038,1668680646,71731347,,-2.654737997695243e-05,-5e-324,2.3302534122487915,-5e-324,-5e-324,0.0
1668680646.0806158,39039,1668680646,80234516,,-1.4045629613456754e-05,-5e-324,2.353346973120834,-5e-324,-5e-324,0.0
1668680646.0885925,39040,1668680646,88324236,,-7.4312309316280976e-06,-5e-324,2.337273493781984,-5e-324,-5e-324,0.0
1668680646.095752,39041,1668680646,95521033,,-7.4312309316280976e-06,-5e-324,2.337273493781984,-5e-324,-5e-324,0.0
1668680646.1037383,39042,1668680646,103534440,,-3.9316993740371945e-06,-5e-324,2.3146678448431586,-5e-324,-5e-324,0.0
1668680646.1121855,39043,1668680646,111644004,,-2.080174887583226e-06,-5e-324,2.302704491732534,-5e-324,-5e-324,0.0
1668680646.1197965,39044,1668680646,119558828,,-1.1005743703361159e-06,-5e-324,2.2953805145264257,-5e-324,-5e-324,0.0
1668680646.1276686,39045,1668680646,127417711,,-5.82289475693075e-07,-5e-324,2.3055429103851006,-5e-324,-5e-324,0.0
1668680646.1355221,39046,1668680646,135314293,,-5.82289475693075e-07,-5e-324,2.3055429103851006,-5e-324,-5e-324,0.0
1668680646.1445568,39047,1668680646,144317095,,-3.080764395770609e-07,-5e-324,2.3109189989040066,-5e-324,-5e-324,0.0
1668680646.1518862,39048,1668680646,151692258,,-1.6299640743035876e-07,-5e-324,2.3049600629404363,-5e-324,-5e-324,0.0
1668680646.1598418,39049,1668680646,159606814,,-8.623778199876902e-08,-5e-324,2.301830999017655,-5e-324,-5e-324,0.0
1668680646.1677759,39050,1668680646,167546977,,-4.5626496689779474e-08,-5e-324,2.29549501341703,-5e-324,-5e-324,0.0
1668680646.1773303,39051,1668680646,176200089,,-4.5626496689779474e-08,-5e-324,2.29549501341703,-5e-324,-5e-324,0.0
1668680646.1841757,39052,1668680646,183958968,,-2.4139966867563605e-08,-5e-324,2.290666423087611,-5e-324,-5e-324,0.0
1668680646.1918638,39053,1668680646,191565276,,-1.27719207619463e-08,-5e-324,2.288089339538283,-5e-324,-5e-324,0.0
1668680646.199647,39054,1668680646,199431181,,-6.757339844099733e-09,-5e-324,2.300636691769329,-5e-324,-5e-324,0.0
1668680646.209317,39055,1668680646,208540703,,-3.575158554436527e-09,-5e-324,2.3121547238170193,-5e-324,-5e-324,0.0
1668680646.2159855,39056,1668680646,215743484,,-1.8915370521909224e-09,-5e-324,2.3182519249953066,-5e-324,-5e-324,0.0
1668680646.2239792,39057,1668680646,223649849,,-1.8915370521909224e-09,-5e-324,2.3182519249953066,-5e-324,-5e-324,0.0
1668680646.2323616,39058,1668680646,231963954,,-1.0007702778303862e-09,-5e-324,2.307018772648699,-5e-324,-5e-324,0.0
1668680646.2410543,39059,1668680646,240663792,,-5.294853451739932e-10,-5e-324,2.301086643625032,-5e-324,-5e-324,0.0
1668680646.247849,39060,1668680646,247613084,,-2.8013894593454166e-10,-5e-324,2.28377569851423,-5e-324,-5e-324,0.0
1668680646.2560484,39061,1668680646,255817773,,-1.482152995254809e-10,-5e-324,2.2786816273655783,-5e-324,-5e-324,0.0
1668680646.2636986,39062,1668680646,263468299,,-1.482152995254809e-10,-5e-324,2.2786816273655783,-5e-324,-5e-324,0.0
1668680646.2724676,39063,1668680646,272194075,,-7.841742582468734e-11,-5e-324,2.2759777174955618,-5e-324,-5e-324,0.0
1668680646.2804587,39064,1668680646,280233539,,-4.148891978532328e-11,-5e-324,2.2842292122590093,-5e-324,-5e-324,0.0
1668680646.2882476,39065,1668680646,287643735,,-2.195086674741472e-11,-5e-324,2.30771621083308,-5e-324,-5e-324,0.0
1668680646.295408,39066,1668680646,295208561,,-2.195086674741472e-11,-5e-324,2.30771621083308,-5e-324,-5e-324,0.0
1668680646.304302,39067,1668680646,303985962,,-1.1613716468299292e-11,-5e-324,2.3201443984599717,-5e-324,-5e-324,0.0
1668680646.3118148,39068,1668680646,311580240,,-6.144559654890693e-12,-5e-324,2.3032130969013824,-5e-324,-5e-324,0.0
1668680646.319869,39069,1668680646,319620796,,-3.2509501549799198e-12,-5e-324,2.2942688997636616,-5e-324,-5e-324,0.0
1668680646.3277884,39070,1668680646,327503476,,-1.7200055827844305e-12,-5e-324,2.270692315544684,-5e-324,-5e-324,0.0
1668680646.3364174,39071,1668680646,335778714,,-1.7200055827844305e-12,-5e-324,2.270692315544684,-5e-324,-5e-324,0.0
1668680646.343861,39072,1668680646,343624679,,-9.100167839478552e-13,-5e-324,2.2547644471156127,-5e-324,-5e-324,0.0
1668680646.3519166,39073,1668680646,351636321,,-4.814696855379844e-13,-5e-324,2.246351403820014,-5e-324,-5e-324,0.0
1668680646.3600063,39074,1668680646,359734276,,-2.5473492597179256e-13,-5e-324,2.232376158262067,-5e-324,-5e-324,0.0
1668680646.3682275,39075,1668680646,367987896,,-0.0003754320506728229,-5e-324,2.2448948152872843,-5e-324,-5e-324,0.0
1668680646.376162,39076,1668680646,375792889,,-0.0003754320506728229,-5e-324,2.2448948152872843,-5e-324,-5e-324,0.0
1668680646.3842301,39077,1668680646,383977008,,-0.0005288712896665899,-5e-324,2.2515329289743096,-5e-324,-5e-324,0.0
1668680646.3921177,39078,1668680646,391876452,,-0.00027981406279252994,-5e-324,2.2610636103928465,-5e-324,-5e-324,0.0
1668680646.4008687,39079,1668680646,400558983,,-0.00014804341106476222,-5e-324,2.266115734600451,-5e-324,-5e-324,0.0
1668680646.4081852,39080,1668680646,408002287,,-0.004179478077485153,-5e-324,2.236199286417798,-5e-324,-5e-324,0.0
1668680646.4154212,39081,1668680646,415188003,,-0.004179478077485153,-5e-324,2.236199286417798,-5e-324,-5e-324,0.0
1668680646.4244263,39082,1668680646,424186591,,-0.0022112691009388927,-5e-324,2.126282066562637,-5e-324,-5e-324,0.0
1668680646.4327722,39083,1668680646,432388786,,-0.001169933409414915,-5e-324,2.0681552094479776,-5e-324,-5e-324,0.0
1668680646.4404976,39084,1668680646,440297769,,-0.0006189858040724423,-5e-324,2.0171992938363785,-5e-324,-5e-324,0.0
1668680646.4478788,39085,1668680646,447603762,,-0.0003274916525674896,-5e-324,1.8060301346835521,-5e-324,-5e-324,0.0
1668680646.455936,39086,1668680646,455626800,,-0.00017326856576638605,-5e-324,1.6943177125810625,-5e-324,-5e-324,0.0
1668680646.464372,39087,1668680646,464025150,,-0.00017326856576638605,-5e-324,1.6943177125810625,-5e-324,-5e-324,0.0
1668680646.472735,39088,1668680646,472514544,,0.4295024543639855,-0.4244956831758249,1.0826879069485758,-5e-324,-5e-324,0.0
1668680646.480207,39089,1668680646,479978534,,0.6569162028966766,-0.6490148935670479,0.7590741210759614,-5e-324,-5e-324,0.0
1668680646.4878724,39090,1668680646,487554320,,0.3475597848441366,-0.3805237576388072,1.037047397436495,-5e-324,-5e-324,0.0
1668680646.4963,39091,1668680646,495951352,,0.3475597848441366,-0.3805237576388072,1.037047397436495,-5e-324,-5e-324,0.0
1668680646.5038304,39092,1668680646,503616539,,0.18388616920734144,-0.3053738496610019,1.2706675740618951,-5e-324,-5e-324,0.0
1668680646.5118494,39093,1668680646,511651093,,0.09729009137497013,-0.2656003070566283,1.3942752077775995,-5e-324,-5e-324,0.0
1668680646.5199692,39094,1668680646,519750740,,0.051474028310836896,-0.23543584947491733,1.436218173988392,-5e-324,-5e-324,0.0
1668680646.5283995,39095,1668680646,527920514,,0.02723376608140894,-0.2946957878977821,1.5218884013036398,-5e-324,-5e-324,0.0
1668680646.5358233,39096,1668680646,535449711,,0.02723376608140894,-0.2946957878977821,1.5218884013036398,-5e-324,-5e-324,0.0
1668680646.5439293,39097,1668680646,543705421,,0.014408781269228033,-0.3261079582281929,1.5671831268089178,-5e-324,-5e-324,0.0
1668680646.5516355,39098,1668680646,551469285,,0.0076233664137323656,-0.4616542402361754,2.018712198803483,-5e-324,-5e-324,0.0
1668680646.5601947,39099,1668680646,559769097,,0.004033353993799386,-0.5333100683165175,2.2576338040297883,-5e-324,-5e-324,0.0
1668680646.5686455,39100,1668680646,568439320,,-0.03527021880247778,-0.4217045842310002,2.4537682916028674,-5e-324,-5e-324,0.0
1668680646.5759757,39101,1668680646,575791700,,-0.03527021880247778,-0.4217045842310002,2.4537682916028674,-5e-324,-5e-324,0.0
1668680646.5843463,39102,1668680646,584129844,,-0.01866069006113841,-0.22311453716139418,3.2039525540767633,-5e-324,-5e-324,0.0
1668680646.5926378,39103,1668680646,592339711,,-0.009872956998310622,-0.11804495031402061,3.6008484145233774,-5e-324,-5e-324,0.0
1668680646.5996962,39104,1668680646,599450789,,-0.33302566255517707,-0.2880360332626734,4.063158601899113,-5e-324,-5e-324,0.0
1668680646.6077724,39105,1668680646,607556894,,-0.5204382878153849,-0.22137919207211704,4.629833881533918,-5e-324,-5e-324,0.0
1668680646.615721,39106,1668680646,615491309,,-0.5204382878153849,-0.22137919207211704,4.629833881533918,-5e-324,-5e-324,0.0
1668680646.624381,39107,1668680646,624071321,,-0.6196746496752021,-0.18647857916252103,4.929559964942479,-5e-324,-5e-324,0.0
1668680646.6326365,39108,1668680646,632405964,,-0.32785610548923266,-0.33177313189058605,4.737334093058828,-5e-324,-5e-324,0.0
1668680646.640538,39109,1668680646,640301086,,-0.17346138971943864,-0.5437370896912681,4.292082482530644,-5e-324,-5e-324,0.0
1668680646.648663,39110,1668680646,648394186,,-0.09177457189183608,-0.6557723008595421,4.05653846943923,-5e-324,-5e-324,0.0
1668680646.6568553,39111,1668680646,655452045,,-0.09177457189183608,-0.6557723008595421,4.05653846943923,-5e-324,-5e-324,0.0
1668680646.6644962,39112,1668680646,664282338,,0.5313058568392748,-0.34695457166145643,3.49256388274042,-5e-324,-5e-324,0.0
1668680646.6725373,39113,1668680646,672259622,,0.8610293185671586,-0.18356596434311429,3.194120561068372,-5e-324,-5e-324,0.0
1668680646.680301,39114,1668680646,679799472,,1.3584313520437779,-0.09712067808720816,2.9858272228994833,-5e-324,-5e-324,0.0
1668680646.6888492,39115,1668680646,688183527,,2.0984607034728495,-0.051384395499856364,2.818236730781032,-5e-324,-5e-324,0.0
1668680646.6957269,39116,1668680646,695446645,,2.0984607034728495,-0.051384395499856364,2.818236730781032,-5e-324,-5e-324,0.0
1668680646.703884,39117,1668680646,703634785,,2.490145883725535,-0.02718634335022649,2.7294109779337905,-5e-324,-5e-324,0.0
1668680646.712053,39118,1668680646,711786641,,2.309078852983772,-0.01438369095455195,3.180385801519317,-5e-324,-5e-324,0.0
1668680646.7201383,39119,1668680646,719809005,,2.213218227644985,-0.007610091685034796,3.419027386187734,-5e-324,-5e-324,0.0
1668680646.72813,39120,1668680646,727871611,,2.342799083637914,-0.004026330629434726,3.49033730987323,-5e-324,-5e-324,0.0
1668680646.7361438,39121,1668680646,735880748,,2.915388235550806,-0.002130242184782576,3.1850873278169423,-5e-324,-5e-324,0.0
1668680646.7436407,39122,1668680646,743427159,,2.915388235550806,-0.002130242184782576,3.1850873278169423,-5e-324,-5e-324,0.0
1668680646.7522852,39123,1668680646,751946452,,3.21841557425288,-0.0011270638662042374,3.023490450132778,-5e-324,-5e-324,0.0
1668680646.7601714,39124,1668680646,759761323,,3.5506429172809555,-0.0005963044801090981,2.8401756050037568,-5e-324,-5e-324,0.0
1668680646.7677112,39125,1668680646,767525435,,3.807731977131988,-0.9586105626767492,2.000580258997317,-5e-324,-5e-324,0.0
1668680646.7761536,39126,1668680646,775941473,,3.807731977131988,-0.9586105626767492,2.000580258997317,-5e-324,-5e-324,0.0
1668680646.7852638,39127,1668680646,784566112,,3.9438153953157284,-1.4655039428293521,1.5561689343395952,-5e-324,-5e-324,0.0
1668680646.7925675,39128,1668680646,792360553,,3.2408786014520654,-2.3675883640468904,1.4381977405266975,-5e-324,-5e-324,0.0
1668680646.8004346,39129,1668680646,800243809,,2.5447912811238007,-2.769251663361933,1.5317952276417275,-5e-324,-5e-324,0.0
1668680646.8079748,39130,1668680646,807732400,,2.176452086639972,-2.9819368922956864,1.5810943670982638,-5e-324,-5e-324,0.0
1668680646.8179078,39131,1668680646,815511247,,2.176452086639972,-2.9819368922956864,1.5810943670982638,-5e-324,-5e-324,0.0
1668680646.8239415,39132,1668680646,823645503,,2.480346026683326,-3.573201138123066,1.1940759322209527,-5e-324,-5e-324,0.0
1668680646.8324935,39133,1668680646,832147303,,2.6409255188908727,-3.886225026218513,0.9891635421133478,-5e-324,-5e-324,0.0
1668680646.8401897,39134,1668680646,839653181,,2.773714047007031,-4.029806592470757,0.7999572287165695,-5e-324,-5e-324,0.0
1668680646.8491316,39135,1668680646,848041020,,3.2238789332021227,-3.113390160756765,0.9459637170000543,-5e-324,-5e-324,0.0
1668680646.8556852,39136,1668680646,855464199,,3.2238789332021227,-3.113390160756765,0.9459637170000543,-5e-324,-5e-324,0.0
1668680646.8637452,39137,1668680646,863518277,,3.4620241506421836,-2.6287294465982933,1.0229882375697041,-5e-324,-5e-324,0.0
1668680646.8716872,39138,1668680646,871488336,,4.729865758772677,-1.4943498891992235,1.0434074468952212,0.0037134503489909625,-5e-324,0.0
1668680646.8807442,39139,1668680646,880455255,,5.353871173362823,-0.7906273641626583,1.24688389682028,0.0019647041717551954,-5e-324,0.0
1668680646.888035,39140,1668680646,887747247,,5.684041023404971,-0.4183033929876759,1.3544542223851295,0.001039481377086715,-5e-324,0.0
1668680646.8954551,39141,1668680646,895231356,,5.684041023404971,-0.4183033929876759,1.3544542223851295,0.001039481377086715,-5e-324,0.0
1668680646.9040694,39142,1668680646,903710940,,5.9957793480477335,-0.5776062445341441,1.161993776919365,0.0116516884927557,-5e-324,0.0
1668680646.9123628,39143,1668680646,912107151,,6.160736850050089,-0.6617652398038095,1.0601903373796915,0.017268062485145057,-5e-324,0.0
1668680646.9198,39144,1668680646,919578864,,5.136776381563129,-2.332142311115451,0.9618475583030046,0.00913614865267085,-5e-324,0.0
1668680646.9277496,39145,1668680646,927481299,,4.024458628080505,-3.891004872194935,0.5972440234881145,0.004833733505163316,-0.05080946253251471,0.0
1668680646.9361262,39146,1668680646,935768292,,3.436202113065699,-4.715570028719263,0.4046453780184946,0.002557421128662125,-0.07767311912385486,0.0
1668680646.9453201,39147,1668680646,943848698,,3.436202113065699,-4.715570028719263,0.4046453780184946,0.002557421128662125,-0.07767311912385486,0.0
1668680646.9517727,39148,1668680646,951570776,,3.418256310182927,-5.521901167651805,0.21408888972769435,0.0013530747655701551,-0.14940116491463323,0.0
1668680646.9598997,39149,1668680646,959644417,,3.5946738734246084,-6.049105415145608,0.1132696805516014,0.0007158818313902375,-0.20267185861549522,0.0
1668680646.9678917,39150,1668680646,967713405,,3.687899617420589,-6.328128789695706,0.05992847432942779,0.0003787571903306393,-0.23086634856575702,0.0
1668680646.976246,39151,1668680646,975958583,,3.687899617420589,-6.328128789695706,0.05992847432942779,0.0003787571903306393,-0.23086634856575702,0.0
1668680646.983819,39152,1668680646,983486046,,3.606960944932627,-6.448124986649166,0.0317068258510429,0.0002003920241257801,-0.2517722782665802,0.0
1668680646.9921355,39153,1668680646,991875248,,3.5647014381061095,-6.511319438787313,0.016775377928396548,0.00010602297291880288,-0.262790232430988,0.0
1668680647.003522,39154,1668680647,3230705,,3.547607200723087,-6.472029732796399,0.008875480187218988,5.6094402137909685e-05,-0.25991921977273663,0.0
1668680647.0087411,39155,1668680647,8490152,,4.214824705875257,-6.358798847605194,0.004695819604777531,2.9678303339214224e-05,-0.26631080846526495,0.0
1668680647.0162947,39156,1668680647,15971154,,4.567787870500021,-6.298914212909585,0.0024844539445163594,1.5702131683816473e-05,-0.2696962954460823,0.0
1668680647.0237515,39157,1668680647,23475738,,4.567787870500021,-6.298914212909585,0.0024844539445163594,1.5702131683816473e-05,-0.2696962954460823,0.0
1668680647.0317907,39158,1668680647,31586136,,5.254077005003074,-5.726549052222664,0.001314469447706845,8.307649416404984e-06,-0.22357369063604593,0.0
1668680647.0402906,39159,1668680647,39946990,,5.615140719579534,-5.23005691539671,0.017778417583089314,4.395392945088279e-06,-0.17270479700587785,0.0
1668680647.047702,39160,1668680647,47522794,,5.806107486787827,-4.9675709653526825,0.025844037342965698,2.325504865862773e-06,-0.14580405537187868,0.0
1668680647.0557156,39161,1668680647,55473366,,5.806107486787827,-4.9675709653526825,0.025844037342965698,2.325504865862773e-06,-0.14580405537187868,0.0
1668680647.0639164,39162,1668680647,63666386,,6.001254690600886,-5.660004582320228,0.013673506634205797,1.23037301754663e-06,-0.2424917396876789,0.0
1668680647.07244,39163,1668680647,72224489,,6.104957729080645,-6.0259100643707875,0.007234348921359942,6.509630594753308e-07,-0.2935851836783646,0.0
1668680647.080013,39164,1668680647,79744441,,5.867294079822316,-6.686662701949398,0.0038275334715571732,3.4441010877046744e-07,-0.396237096367186,0.0
1668680647.0878649,39165,1668680647,87609808,,5.542004910028182,-7.230954213167524,0.0020250630202028655,1.8221974549353124e-07,-0.47657340140621934,0.0
1668680647.0955431,39166,1668680647,95316675,,5.542004910028182,-7.230954213167524,0.0020250630202028655,1.8221974549353124e-07,-0.47657340140621934,0.0
1668680647.104089,39167,1668680647,103769689,,5.370036725589,-7.518824331145018,0.0010714159043329727,9.640842356882205e-08,-0.5190673899341076,0.0
1668680647.1118572,39168,1668680647,111575725,,5.66010677314825,-7.993809416951789,-0.07754180729032055,5.100755744033985e-08,-0.5909244565599225,0.0
1668680647.1200392,39169,1668680647,119826001,,5.827957454346241,-8.278586926949014,-0.2653121687512607,2.6986966695625624e-08,-0.6357429003885515,0.0
1668680647.1279676,39170,1668680647,127716945,,5.916820970823744,-8.429257313416242,-0.36437818963616264,1.4278205191115972e-08,-0.6594549433608702,0.0
1668680647.1364336,39171,1668680647,136140455,,5.796559086924241,-8.33675125719075,-0.19278441395326615,7.55428150851264e-09,-0.6565727581519352,0.0
1668680647.143752,39172,1668680647,143387717,,5.796559086924241,-8.33675125719075,-0.19278441395326615,7.55428150851264e-09,-0.6565727581519352,0.0
1668680647.1522453,39173,1668680647,151790768,,5.733136123526895,-8.287693049391825,-0.10199795520257386,3.9968027035613485e-09,-0.6550319411935592,0.0
1668680647.15972,39174,1668680647,159511514,,5.67341025785913,-8.269451585585669,-0.05396485458636843,2.114619614478797e-09,-0.6504836233276097,0.0
1668680647.1693518,39175,1668680647,168450730,,5.478119542530228,-8.209207083476024,0.5890243543506379,1.1187983109484054e-09,-0.6193124531683301,0.0
1668680647.1754026,39176,1668680647,175199545,,5.478119542530228,-8.209207083476024,0.5890243543506379,1.1187983109484054e-09,-0.6193124531683301,0.0
1668680647.1841173,39177,1668680647,183885873,,5.374946914702415,-8.17722943436635,0.929215639505699,5.919313582502266e-10,-0.6028246162884449,0.0
1668680647.1926649,39178,1668680647,192438898,,5.406579176649375,-8.401446429337039,0.4916273739577773,3.1317774566797356e-10,-0.6460520081555692,0.0
1668680647.2021446,39179,1668680647,200470291,,5.2496423200049795,-8.28682671232304,1.0769935336805967,1.656953952762417e-10,-0.610357709464975,0.0
1668680647.208245,39180,1668680647,208053462,,5.166279227879334,-8.226318828949987,1.3869817895550005,8.766575657281001e-11,-0.5914909050178708,0.0
1668680647.2160327,39181,1668680647,215792504,,5.166279227879334,-8.226318828949987,1.3869817895550005,8.766575657281001e-11,-0.5914909050178708,0.0
1668680647.2245338,39182,1668680647,224340547,,5.036078462304008,-8.265449407993872,1.1901374513053433,4.6382006347675133e-11,-0.5787061551563671,0.0
1668680647.2341247,39183,1668680647,232589365,,4.967033896957055,-8.286282082447867,1.0858522253669962,2.4539690261488147e-11,-0.5719469345576661,0.0
1668680647.240264,39184,1668680647,240027311,,4.727144973309224,-8.536276659952268,1.0840068958167755,1.2983405539117237e-11,-0.6074551060719471,0.0
1668680647.2486558,39185,1668680647,248446972,,4.545363585730417,-8.49950513657277,1.197368681346304,6.869231746487322e-12,-0.5836014206613056,0.0
1668680647.2560642,39186,1668680647,255811149,,4.545363585730417,-8.49950513657277,1.197368681346304,6.869231746487322e-12,-0.5836014206613056,0.0
1668680647.2646186,39187,1668680647,264330081,,4.449219565224118,-8.480051276117093,1.257266640738001,3.63435807691466e-12,-0.5709729418609661,0.0
1668680647.2724721,39188,1668680647,272308245,,4.323950940885263,-8.388516514199784,2.0315277878518185,1.9228582057941497e-12,-0.5402354701376517,0.0
1668680647.2806585,39189,1668680647,280464654,,4.425268295505344,-8.653554698044783,1.074836269431641,1.0173416051311987e-12,-0.6039319813365435,0.0
1668680647.2890317,39190,1668680647,288552304,,4.479133381784157,-8.793700376119876,0.5686720176775616,5.382528667023945e-13,-0.6376171604642913,0.0
1668680647.297749,39191,1668680647,295783105,,4.479133381784157,-8.793700376119876,0.5686720176775616,5.382528667023945e-13,-0.6376171604642913,0.0
1668680647.3044395,39192,1668680647,304072439,,4.599181538565491,-8.944467493385776,0.3008717447360351,2.8477764700872834e-13,-0.6663385804432798,0.0
1668680647.3121505,39193,1668680647,311628756,,4.662739640363959,-9.024196803418434,0.15918456327463099,1.5066953332302077e-13,-0.6815280747040287,0.0
1668680647.3197296,39194,1668680647,319535463,,4.755157470693344,-9.028702343907844,0.0842210198473984,7.971590646326635e-14,-0.6780863755695161,0.0
1668680647.3282344,39195,1668680647,327947494,,4.578230145123492,-9.084117232579398,-0.2687448527500346,4.2175917075660754e-14,-0.6945244484585631,0.0
1668680647.336484,39196,1668680647,336237675,,4.484669334760315,-9.113551213939243,-0.4546354557507261,2.2314341768072344e-14,-0.7032256112180433,0.0
1668680647.3442516,39197,1668680647,344017653,,4.484669334760315,-9.113551213939243,-0.4546354557507261,2.2314341768072344e-14,-0.7032256112180433,0.0
1668680647.3518224,39198,1668680647,351601113,,4.6137490083189014,-9.011015073069647,-0.24053753048939713,1.1806023035588897e-14,-0.6728493014778847,0.0
1668680647.3628514,39199,1668680647,360446982,,4.568956189278969,-8.869699078843087,-0.1272630694374638,6.246304792027769e-15,-0.645443267465676,0.0
1668680647.3688505,39200,1668680647,368572543,,4.545195764387984,-8.79496870405756,-0.06733206585139795,3.304781249138304e-15,-0.6309467724913684,0.0
1668680647.3763697,39201,1668680647,376158108,,4.436525063450427,-9.08506620605455,-0.03562390182679645,1.7484864200984025e-15,-0.6838121579424203,0.0
1668680647.3836174,39202,1668680647,383363310,,4.436525063450427,-9.08506620605455,-0.03562390182679645,1.7484864200984025e-15,-0.6838121579424203,0.0
1668680647.3931148,39203,1668680647,392553528,,4.379001016186617,-9.238556217528451,-0.018847815900466438,9.250853629315616e-16,-0.7117809408769561,0.0
1668680647.4004917,39204,1668680647,400279789,,4.449750563321791,-9.34036918462446,-0.338973277707227,4.894421362803931e-16,-0.7243081115092844,0.0
1668680647.4079778,39205,1668680647,407623763,,3.870016932986125,-9.232418062408595,-0.19657937096185096,2.5895297273710857e-16,-0.6807480211410055,0.0
1668680647.4160144,39206,1668680647,415711374,,3.563068018339152,-9.175394406497372,-0.12126986333401679,1.3700627126016402e-16,-0.6577098509471382,0.0
1668680647.4238703,39207,1668680647,423612736,,3.563068018339152,-9.175394406497372,-0.12126986333401679,1.3700627126016402e-16,-0.6577098509471382,0.0
1668680647.4320545,39208,1668680647,431756119,,3.02137029974665,-9.184332233887371,0.48249772841516164,7.24869777172624e-17,-0.6159856875924081,0.0
1668680647.4403965,39209,1668680647,439553072,,2.755291624040688,-9.346943224580432,0.3568470629249552,3.8351251298601357e-17,-0.6243869568075548,0.0
1668680647.4483573,39210,1668680647,448068999,,2.6148576260907483,-9.432845976913914,0.2905303138862268,2.0290795981389143e-17,-0.6288242497197447,0.0
1668680647.4567645,39211,1668680647,456391061,,2.6622301290284076,-9.50475171390114,0.429151739499967,1.073540986584114e-17,-0.6432686628174068,0.0
1668680647.4636068,39212,1668680647,463355868,,2.6622301290284076,-9.50475171390114,0.429151739499967,1.073540986584114e-17,-0.6432686628174068,0.0
1668680647.4719782,39213,1668680647,471663127,,2.6873768262374265,-9.542778287887444,0.5024133580952004,5.679867122675052e-18,-0.650904780637499,0.0
1668680647.4799573,39214,1668680647,479636639,,2.8436538988624562,-9.435947969592974,0.4952447076211498,3.005091648516885e-18,-0.63487789592147,0.0
1668680647.4883795,39215,1668680647,488064507,,2.8265348031776796,-9.535393975946704,0.2620229844643933,1.5899273030409892e-18,-0.6643183681666643,0.0
1668680647.4956405,39216,1668680647,495382908,,2.8265348031776796,-9.535393975946704,0.2620229844643933,1.5899273030409892e-18,-0.6643183681666643,0.0
1668680647.50387,39217,1668680647,503620025,,2.8174335400694908,-9.588054940254498,0.13863054633619207,8.41195252797958e-19,-0.6798975462943511,0.0
1668680647.5116224,39218,1668680647,511423581,,2.587709736341089,-9.440157297908211,0.8050863563788327,4.450577406755672e-19,-0.6278397028461262,0.0
1668680647.5203104,39219,1668680647,520047633,,2.340620492476857,-9.240460981786288,1.4863263460599376,2.354701739892192e-19,-0.5710604506571735,0.0
1668680647.5281541,39220,1668680647,527929150,,2.2094814769464675,-9.135016735057281,1.8464921929661855,1.245820435666384e-19,-0.5410252449932202,0.0
1668680647.5356774,39221,1668680647,535443783,,2.2094814769464675,-9.135016735057281,1.8464921929661855,1.245820435666384e-19,-0.5410252449932202,0.0
1668680647.546528,39222,1668680647,543921627,,1.9047213121283704,-9.247673381682468,3.1018918883486566,6.591359455975257e-20,-0.5237640261563661,0.0
1668680647.555036,39223,1668680647,552091370,,1.7436928914611984,-9.307353366044396,3.7658540261802305,3.487342014472201e-20,-0.5146308389847448,0.0
1668680647.5598865,39224,1668680647,559673218,,1.7352891282026506,-9.178395444700783,4.263043785491419,1.8450752696969413e-20,-0.4828571199691918,0.0
1668680647.5678885,39225,1668680647,567669263,,1.514335592935776,-9.19141728198425,3.907530459817962,9.761883797802583e-21,-0.49682726079755757,0.0
1668680647.5755095,39226,1668680647,575322079,,1.514335592935776,-9.19141728198425,3.907530459817962,9.761883797802583e-21,-0.49682726079755757,0.0
1668680647.5843277,39227,1668680647,584046777,,1.3972095616720877,-9.198526368706016,3.719052018346434,5.164796084305707e-21,-0.5042161140170882,0.0
1668680647.5925577,39228,1668680647,592313768,,1.2362138625751569,-9.135959254434152,4.061894210770674,2.7325789924342448e-21,-0.4905405241257291,0.0
1668680647.6003885,39229,1668680647,600102875,,1.1661618996932668,-9.044289452794153,4.41129979170116,1.4457469042355667e-21,-0.46834588558260015,0.0
1668680647.6081967,39230,1668680647,607987231,,1.1288014433492095,-8.995380194414388,4.596969598049972,7.649126034028171e-22,-0.4566059372369342,0.0
1668680647.615867,39231,1668680647,615501016,,1.1288014433492095,-8.995380194414388,4.596969598049972,7.649126034028171e-22,-0.4566059372369342,0.0
1668680647.624171,39232,1668680647,623926853,,1.030676551291298,-9.348992835718354,4.929641096020799,4.0469828372472993e-22,-0.5072804439312197,0.0
1668680647.631848,39233,1668680647,631627034,,0.9786736792919534,-9.535565870307817,5.106555534607266,2.1411688096279422e-22,-0.5340974839599091,0.0
1668680647.6399336,39234,1668680647,639621101,,1.0512291690046367,-9.576766530832671,5.194104878477568,1.1328449009291874e-22,-0.5448667714802959,0.0
1668680647.6486042,39235,1668680647,648327272,,1.0847414054010027,-9.359173673798725,5.018976115018132,5.993630972908942e-23,-0.5155258802017154,0.0
1668680647.6559005,39236,1668680647,655673115,,1.1034189666844567,-9.244010424288339,4.926042954157847,3.171097138712277e-23,-0.500011158769725,0.0
1668680647.6636064,39237,1668680647,663407102,,1.1034189666844567,-9.244010424288339,4.926042954157847,3.171097138712277e-23,-0.500011158769725,0.0
1668680647.672349,39238,1668680647,672090040,,1.5550647579327546,-9.191402628433442,4.817457046872252,1.6777571239539784e-23,-0.5048027206087591,0.0
1668680647.680412,39239,1668680647,680155769,,1.7596483140524835,-9.083640987356771,4.781756840033448,8.8766406194715e-24,-0.49548919130061303,0.0
1668680647.687954,39240,1668680647,687621790,,1.8676383919375925,-9.02732292998465,4.7617907187913,4.6964335637303336e-24,-0.4905554792845429,0.0
1668680647.6959534,39241,1668680647,695714243,,2.191582821046475,-9.259872614380733,4.906402028214307,2.484778776573474e-24,-0.5301377194218787,0.0
1668680647.70353,39242,1668680647,703376006,,2.191582821046475,-9.259872614380733,4.906402028214307,2.484778776573474e-24,-0.5301377194218787,0.0
1668680647.712252,39243,1668680647,712039038,,2.36346091622251,-9.382656294266546,4.983066657522883,1.3146413091396784e-24,-0.551079704284476,0.0
1668680647.7198033,39244,1668680647,719549248,,2.379914166638735,-9.663039180761618,5.028526969761508,6.9554754249784735e-25,-0.6010314603426603,0.0
1668680647.7283194,39245,1668680647,728113722,,2.0638650740605016,-9.721609305681948,4.935617730804145,3.6799876933077056e-25,-0.6113128701405761,0.0
1668680647.7383223,39246,1668680647,738079513,,1.896211946774291,-9.752126467510166,4.887536260072513,1.9469998232274798e-25,-0.6167559286831883,0.0
1668680647.7438185,39247,1668680647,743587479,,1.896211946774291,-9.752126467510166,4.887536260072513,1.9469998232274798e-25,-0.6167559286831883,0.0
1668680647.7525647,39248,1668680647,752254883,,2.023548587451959,-9.94959132785364,4.7881327551684185,1.0301143991708631e-25,-0.6521673555472043,0.0
1668680647.7599978,39249,1668680647,759643548,,2.074377857250887,-9.947987123275919,4.708993875716706,5.450106685783553e-26,-0.6588245141968514,0.0
1668680647.7680404,39250,1668680647,767740645,,2.1012060211909676,-9.947328997141575,4.666787872365084,2.8835305001396934e-26,-0.6623448310932378,0.0
1668680647.7762806,39251,1668680647,775554904,,2.1012060211909676,-9.947328997141575,4.666787872365084,2.8835305001396934e-26,-0.6623448310932378,0.0
1668680647.783887,39252,1668680647,783601417,,2.1048284449359684,-10.03758087602157,4.796447243166089,1.5256119970870755e-26,-0.6919101190108399,0.0
1668680647.7918828,39253,1668680647,791628601,,2.1067034832315086,-10.085035108765233,4.865623717788438,8.071674516857924e-27,-0.7075557057384012,0.0
1668680647.7996554,39254,1668680647,799448919,,2.161716149021008,-10.21487392756901,4.899408365047299,4.270543862429722e-27,-0.7217985135960387,0.0
1668680647.8085659,39255,1668680647,808246820,,2.3339267019495757,-10.204718423030606,4.830985923158111,2.2594499868455463e-27,-0.7302090161845889,0.0
1668680647.8160157,39256,1668680647,815791811,,2.3339267019495757,-10.204718423030606,4.830985923158111,2.2594499868455463e-27,-0.7302090161845889,0.0
1668680647.8245947,39257,1668680647,824381700,,2.4247743153422623,-10.19910297533164,4.795419109063911,1.195424846930805e-27,-0.7346624349760218,0.0
1668680647.832651,39258,1668680647,832414900,,2.432431391071277,-10.215453149458618,4.668864784834767,6.324727579629434e-28,-0.7527586081321428,0.0
1668680647.840687,39259,1668680647,840377082,,3.09833667793263,-10.005083243323533,4.470429318981331,3.346273005720839e-28,-0.7539433579763151,0.0
1668680647.8486736,39260,1668680647,848491766,,3.450644778900026,-9.893839722360573,4.365328432441306,1.7704387877322686e-28,-0.754567192861016,0.0
1668680647.8562276,39261,1668680647,855915264,,3.450644778900026,-9.893839722360573,4.365328432441306,1.7704387877322686e-28,-0.754567192861016,0.0
1668680647.8639138,39262,1668680647,863654699,,3.757810065366781,-9.693472661190048,4.253975996086439,9.366998734855749e-29,-0.7323143682339406,0.0
1668680647.8725007,39263,1668680647,872229078,,3.920173806588614,-9.587369483357007,4.1954023560605815,4.9558711606841295e-29,-0.7205430351705048,0.0
1668680647.8802373,39264,1668680647,879886142,,3.84430229944054,-9.5333333872375,4.1556486011294265,2.622041451752037e-29,-0.7175153528436221,0.0
1668680647.8912668,39265,1668680647,890729470,,3.7358996916719986,-9.651269485289667,4.166728421021553,1.3872639444801185e-29,-0.7287523887645111,0.0
1668680647.8964891,39266,1668680647,896011593,,3.7358996916719986,-9.651269485289667,4.166728421021553,1.3872639444801185e-29,-0.7287523887645111,0.0
1668680647.9057484,39267,1668680647,904828756,,3.6787374030970668,-9.713366357186029,4.173045850070581,7.339705672343944e-30,-0.7346993105478471,0.0
1668680647.9118803,39268,1668680647,911620336,,3.6130990082659897,-9.785476910317826,4.229385070465939,3.8832753904539986e-30,-0.7376366349310137,0.0
1668680647.920048,39269,1668680647,919696783,,3.4613605513702845,-9.78309127422639,4.305089721908582,2.0545548324814357e-30,-0.7362984015983396,0.0
1668680647.9285355,39270,1668680647,928310618,,3.3803407478271517,-9.782065420720176,4.345258353680445,1.0870193677351621e-30,-0.7355928180178379,0.0
1668680647.9368777,39271,1668680647,935770810,,3.3803407478271517,-9.782065420720176,4.345258353680445,1.0870193677351621e-30,-0.7355928180178379,0.0
1668680647.9436939,39272,1668680647,943508561,,3.353297252571693,-9.895142455284038,4.297547382169655,5.75117824625899e-31,-0.740604901751843,0.0
1668680647.9517326,39273,1668680647,951517582,,3.3388043365270725,-9.955263605610579,4.2718376242433855,3.042820781487784e-31,-0.7432501660477606,0.0
1668680647.961497,39274,1668680647,959647692,,3.35934398992874,-9.956592032389405,4.323343125352,1.6098889500210744e-31,-0.7470345061637415,0.0
1668680647.968442,39275,1668680647,967951461,,3.435257151721364,-9.734709899268923,4.530884160269444,8.517565172315957e-32,-0.713478424311951,0.0
1668680647.9755628,39276,1668680647,975298815,,3.435257151721364,-9.734709899268923,4.530884160269444,8.517565172315957e-32,-0.713478424311951,0.0
1668680647.9840076,39277,1668680647,983705747,,3.4758718736409855,-9.617428728498663,4.640132639508053,4.5064547131465215e-32,-0.695710669623101,0.0
1668680647.991842,39278,1668680647,991610312,,3.6458415520306073,-9.602789447867142,4.745437393524917,2.3842651826893674e-32,-0.7003092599237914,0.0
1668680648.00036,39279,1668680647,999816990,,3.7698275525401503,-9.252042489114322,4.595949202750306,1.261461797186362e-32,-0.6631964275302291,0.0
1668680648.008209,39280,1668680648,7992006,,3.8350529829141733,-9.066696472064466,4.5167842528303375,6.674114428688389e-33,-0.6435673364228796,0.0
1668680648.0155363,39281,1668680648,15339052,,3.8350529829141733,-9.066696472064466,4.5167842528303375,6.674114428688389e-33,-0.6435673364228796,0.0
1668680648.0257738,39282,1668680648,25450945,,4.082440212787319,-8.74898900381204,4.073201611592594,3.531125834058521e-33,-0.607917712886605,0.0
1668680648.0332673,39283,1668680648,32987158,,4.213448126323918,-8.580912594272888,3.8383383562604285,1.8682403170012613e-33,-0.5890487882972039,0.0
1668680648.0403674,39284,1668680648,40067443,,4.412658098259164,-8.397310169402314,3.6531651672178813,9.884444922364463e-34,-0.5718469164635919,0.0
1668680648.0478752,39285,1668680648,47631959,,4.869813873453751,-8.596596284035858,2.0711778692872835,5.229640455467735e-34,-0.6464016101823078,0.0
1668680648.0556152,39286,1668680648,55412896,,4.869813873453751,-8.596596284035858,2.0711778692872835,5.229640455467735e-34,-0.6464016101823078,0.0
1668680648.064267,39287,1668680648,63805910,,5.111659805713002,-8.702052342384828,1.234168928956977,2.7668867102071503e-34,-0.6858441791644301,0.0
1668680648.0716732,39288,1668680648,71455155,,5.137805414386975,-8.579679376953216,1.5990372955810164,1.4638983563615236e-34,-0.6649576624322109,0.0
1668680648.0799658,39289,1668680648,79676886,,5.3395852037246865,-8.738259445502926,1.0091499095360255,7.74516133910495e-35,-0.6997712668013726,0.0
1668680648.0876052,39290,1668680648,87419150,,5.446377717635663,-8.82211208985164,0.6972389545099682,4.097792985973645e-35,-0.7181870501518265,0.0
1668680648.0959885,39291,1668680648,95638440,,5.446377717635663,-8.82211208985164,0.6972389545099682,4.097792985973645e-35,-0.7181870501518265,0.0
1668680648.104087,39292,1668680648,103850908,,5.910456170595232,-8.953919603737866,0.36067892381415784,2.1680513317538348e-35,-0.7743617322236549,0.0
