Time,header.seq,header.stamp.secs,header.stamp.nsecs,header.frame_id,pose.position.x,pose.position.y,pose.position.z,pose.orientation.x,pose.orientation.y,pose.orientation.z,pose.orientation.w
1668678526.6538694,57469,1668678526,653776046,,-0.09533516395461707,-0.6129993762781097,0.07074656311953309,0.9955579581877151,0.0935395715785273,-0.0043725551656902594,0.009776563779592162
1668678526.6621196,57470,1668678526,662028163,,-0.0953352007891209,-0.6129993762587312,0.0707437302724969,0.9955579582752628,0.09353957154436769,-0.004372551568717294,0.009776556800071624
1668678526.6703935,57471,1668678526,670187828,,-0.09533522798574164,-0.6129993762401126,0.07074089329302045,0.9955579583624634,0.09353957151056003,-0.004372547995881696,0.00977654984173843
1668678526.6782863,57472,1668678526,678132424,,-0.09533524625212668,-0.612999376222276,0.07073805138244031,0.9955579584493085,0.09353957147710591,-0.004372544447449061,0.009776542905314834
1668678526.6861424,57473,1668678526,686050927,,-0.09533525625768023,-0.612999376205064,0.0707351917396113,0.9955579585357895,0.09353957144400683,-0.004372540923679812,0.00977653599151473
1668678526.694293,57474,1668678526,694128691,,-0.0953352586352693,-0.6129993761883262,0.0707322948455349,0.9955579586218986,0.09353957141126419,-0.0043725374248294365,0.009776529101043749
1668678526.702328,57475,1668678526,702234218,,-0.0953352539828028,-0.6129993761718296,0.07072933920120612,0.9955579587076274,0.09353957137887925,-0.004372533951147984,0.009776522234598439
1668678526.7102942,57476,1668678526,710166978,,-0.09533524286490337,-0.6129993761555494,0.07072632517914977,0.9955579587929683,0.09353957134685345,-0.004372530502880444,0.00977651539286758
1668678526.7186384,57477,1668678526,718462327,,-0.09533522581437173,-0.612999376139554,0.07072325793205485,0.995557958877913,0.09353957131518789,-0.004372527080266283,0.00977650857653022
1668678526.726498,57478,1668678526,726318938,,-0.09533520333356119,-0.612999376123765,0.07072012565743356,0.9955579589624541,0.09353957128388374,-0.004372523683540149,0.0097765017862578
1668678526.7345593,57479,1668678526,734213595,,-0.09533517589581779,-0.6129993761080202,0.07071691421837809,0.995557959046584,0.09353957125294234,-0.00437252031293133,0.009776495022712356
1668678526.7425587,57480,1668678526,742402686,,-0.09533514394692565,-0.6129993760923368,0.07071362740418125,0.995557959130295,0.09353957122236467,-0.004372516968663917,0.009776488286547405
1668678526.7502286,57481,1668678526,750065679,,-0.09533510790630464,-0.6129993760766109,0.07071024349340041,0.9955579592135797,0.09353957119215175,-0.004372513650956992,0.009776481578408148
1668678526.7583144,57482,1668678526,758142996,,-0.09533506816843751,-0.6129993760611316,0.07070682756440788,0.9955579592964311,0.09353957116230444,-0.004372510360024551,0.009776474898930932
1668678526.7668593,57483,1668678526,766661465,,-0.09533502510439254,-0.6129993760475048,0.07070351860568504,0.9955579593788417,0.09353957113282405,-0.004372507096075111,0.009776468248742972
1668678526.7744489,57484,1668678526,774165354,,-0.0953349790621163,-0.6129993760361484,0.07070035507185202,0.9955579594608047,0.09353957110371106,-0.0043725038593123945,0.009776461628463106
1668678526.7823257,57485,1668678526,782197794,,-0.09533493036769448,-0.6129993760267326,0.07069732726377959,0.9955579595423132,0.09353957107496631,-0.004372500649934997,0.009776455038701396
1668678526.7906384,57486,1668678526,790529413,,-0.09533487932666768,-0.6129993760189192,0.07069441291263401,0.99555795962336,0.09353957104659068,-0.004372497468136411,0.009776448480059355
1668678526.7987833,57487,1668678526,798543099,,-0.09533482622501901,-0.6129993760122615,0.0706915820368271,0.9955579597039387,0.09353957101858482,-0.004372494314104961,0.009776441953129187
1668678526.8068964,57488,1668678526,806635666,,-0.09533477133031806,-0.6129993760066913,0.0706888503051624,0.9955579597840427,0.09353957099094931,-0.004372491188023999,0.009776435458494881
1668678526.814582,57489,1668678526,814445809,,-0.09533471489263728,-0.6129993760024552,0.0706862549658114,0.9955579598636655,0.09353957096368483,-0.004372488090071935,0.009776428996731373
1668678526.8221266,57490,1668678526,821952868,,-0.0953346571452781,-0.6129993759996172,0.07068382607892672,0.9955579599428006,0.09353957093679205,-0.004372485020422,0.00977642256840491
1668678526.8303735,57491,1668678526,830120277,,-0.09533459830566422,-0.6129993759981534,0.07068157723662595,0.9955579600214419,0.09353957091027135,-0.00437248197924248,0.00977641617407319
1668678526.8386142,57492,1668678526,838486660,,-0.09533453857612688,-0.6129993759978419,0.07067950991062513,0.9955579600995831,0.09353957088412301,-0.004372478966696767,0.009776409814284506
1668678526.8462706,57493,1668678526,846154647,,-0.09533447814479114,-0.6129993759985519,0.07067763104029343,0.9955579601772183,0.09353957085834771,-0.00437247598294314,0.009776403489579122
1668678526.8538978,57494,1668678526,853802676,,-0.09533441718631394,-0.612999376000193,0.07067596837697866,0.9955579602543415,0.09353957083294553,-0.0043724730281351175,0.00977639720048812
1668678526.8626993,57495,1668678526,862475315,,-0.09533435586260282,-0.6129993760027137,0.07067454111077096,0.9955579603309469,0.0935395708079169,-0.004372470102421182,0.009776390947533726
1668678526.8702934,57496,1668678526,870113122,,-0.09533429432341928,-0.6129993760058506,0.07067335209206498,0.9955579604070287,0.09353957078326226,-0.004372467205944933,0.009776384731229604
1668678526.8782835,57497,1668678526,878162916,,-0.0953342327071427,-0.6129993760094354,0.07067241327238771,0.9955579604825816,0.09353957075898135,-0.0043724643388450115,0.009776378552080503
1668678526.8867762,57498,1668678526,886563253,,-0.09533417639288262,-0.6129993760131459,0.07067166139684862,0.9955579605575998,0.09353957073507452,-0.004372461501255251,0.009776372410582617
1668678526.8943243,57499,1668678526,894193181,,-0.09533413320390714,-0.6129993760166041,0.07067099883946776,0.9955579606320782,0.09353957071154188,-0.004372458693304624,0.00977636630722345
1668678526.9028373,57500,1668678526,902539683,,-0.09533410123877423,-0.6129993760196827,0.07067037442785397,0.9955579607060115,0.09353957068838342,-0.004372455915117265,0.009776360242481345
1668678526.911634,57501,1668678526,911357627,,-0.09533407584450332,-0.6129993760223541,0.07066977016166835,0.9955579607793945,0.09353957066559927,-0.004372453166812476,0.009776354216825978
1668678526.9180958,57502,1668678526,917997199,,-0.09533405452607277,-0.612999376024667,0.07066920571726257,0.9955579608522223,0.09353957064318931,-0.004372450448505278,0.009776348230718875
1668678526.926242,57503,1668678526,926102468,,-0.09533403390569434,-0.6129993760266954,0.07066870969586855,0.9955579609244898,0.09353957062115344,-0.004372447760305357,0.009776342284611859
1668678526.9344172,57504,1668678526,934280602,,-0.09533401232989398,-0.6129993760284249,0.07066825021383528,0.9955579609961921,0.09353957059949153,-0.004372445102318075,0.009776336378948904
1668678526.9419394,57505,1668678526,941829898,,-0.09533398904953824,-0.6129993760297718,0.07066776461044322,0.9955579610673247,0.09353957057820338,-0.004372442474643728,0.009776330514164874
1668678526.95025,57506,1668678526,950152333,,-0.0953339639451754,-0.6129993760307206,0.07066723324144426,0.9955579611378832,0.09353957055728855,-0.004372439877378144,0.009776324690685907
1668678526.959002,57507,1668678526,958786494,,-0.09533393705169699,-0.6129993760312876,0.07066664873431487,0.9955579612078629,0.0935395705367471,-0.004372437310612544,0.00977631890893005
1668678526.9663637,57508,1668678526,966160109,,-0.09533390832082093,-0.6129993760316117,0.07066611828124461,0.9955579612772593,0.09353957051657857,-0.004372434774433372,0.009776313169305745
1668678526.9741294,57509,1668678526,974025440,,-0.0953338778260694,-0.6129993760319846,0.07066581274144175,0.9955579613460684,0.09353957049678233,-0.0043724322689223825,0.009776307472213449
1668678526.9820333,57510,1668678526,981906517,,-0.09533384569899284,-0.6129993760323234,0.07066576448813416,0.995557961414286,0.09353957047735817,-0.004372429794157128,0.009776301818045025
1668678526.990412,57511,1668678526,990222705,,-0.09533381210835998,-0.612999376032423,0.07066594262261071,0.995557961481908,0.09353957045830565,-0.004372427350210276,0.009776296207183439
1668678526.9983845,57512,1668678526,998167325,,-0.09533377722359757,-0.6129993760321971,0.07066627964419535,0.9955579615489304,0.09353957043962435,-0.004372424937150126,0.009776290640003456
1668678527.00638,57513,1668678527,6185943,,-0.09533374119676022,-0.6129993760316893,0.07066668707963421,0.9955579616153496,0.09353957042131346,-0.004372422555040324,0.009776285116870682
1668678527.0139055,57514,1668678527,13788311,,-0.09533370417911217,-0.6129993760309844,0.07066710325958968,0.9955579616811618,0.09353957040337255,-0.004372420203940244,0.00977627963814272
1668678527.0229645,57515,1668678527,22761469,,-0.0953336663184979,-0.6129993760301503,0.07066749736279887,0.9955579617463631,0.09353957038580102,-0.0043724178839046465,0.009776274204168173
1668678527.0308924,57516,1668678527,30742118,,-0.09533362775436931,-0.6129993760292085,0.07066785373929216,0.9955579618109506,0.09353957036859788,-0.0043724155949841975,0.009776268815287868
1668678527.0389018,57517,1668678527,38719576,,-0.09533358861557638,-0.6129993760281925,0.07066814922330504,0.9955579618749203,0.09353957035176272,-0.004372413337224595,0.009776263471833227
1668678527.0464642,57518,1668678527,46241821,,-0.09533354902322239,-0.6129993760270573,0.07066846523896118,0.9955579619382694,0.09353957033529481,-0.004372411110667707,0.009776258174128067
1668678527.0547876,57519,1668678527,54608142,,-0.09533350909040239,-0.6129993760256557,0.07066893111022261,0.9955579620009943,0.09353957031919315,-0.004372408915350981,0.00977625292248728
1668678527.061907,57520,1668678527,61804443,,-0.09533346892231644,-0.612999376023848,0.07066960389810213,0.9955579620630922,0.09353957030345703,-0.0043724067513074135,0.009776247717217496
1668678527.0703523,57521,1668678527,70186534,,-0.09533342861659283,-0.612999376021517,0.07067049019968355,0.9955579621245602,0.09353957028808525,-0.004372404618565708,0.009776242558616966
1668678527.0783887,57522,1668678527,78245248,,-0.09533338826353308,-0.6129993760186955,0.0706715395027315,0.995557962185395,0.09353957027307747,-0.004372402517150603,0.009776237446975877
1668678527.0870147,57523,1668678527,86638619,,-0.09533334794640987,-0.6129993760155679,0.0706726881239351,0.9955579622455942,0.09353957025843225,-0.0043724004470824755,0.009776232382575576
1668678527.0939806,57524,1668678527,93810751,,-0.09533330774186372,-0.6129993760121992,0.07067392891211217,0.9955579623051551,0.09353957024414881,-0.004372398408377553,0.009776227365689743
1668678527.1023908,57525,1668678527,102193461,,-0.09533326772025617,-0.6129993760085275,0.07067527193999767,0.9955579623640751,0.09353957023022597,-0.004372396401047718,0.009776222396583045
1668678527.110178,57526,1668678527,110057512,,-0.09533322794609407,-0.6129993760046596,0.07067668563276487,0.9955579624223518,0.09353957021666272,-0.00437239442510099,0.009776217475512458
1668678527.1189911,57527,1668678527,118789088,,-0.095333188478328,-0.6129993760007942,0.0706781296604429,0.9955579624799828,0.0935395702034581,-0.004372392480541302,0.009776212602726772
1668678527.1262555,57528,1668678527,126148605,,-0.09533314937061423,-0.6129993759969979,0.07067959683487672,0.9955579625369658,0.09353957019061077,-0.004372390567368499,0.009776207778466528
1668678527.1343513,57529,1668678527,134216985,,-0.09533311067162573,-0.6129993759932219,0.07068109639612442,0.9955579625932985,0.0935395701781194,-0.004372388685578321,0.009776203002964143
1668678527.1418858,57530,1668678527,141775550,,-0.09533307242539621,-0.612999375989452,0.0706826317658985,0.9955579626489793,0.09353957016598283,-0.004372386835162436,0.00977619827644377
1668678527.151026,57531,1668678527,150804271,,-0.09533303467159492,-0.6129993759856939,0.07068420122959339,0.995557962704006,0.09353957015420018,-0.0043723850161089635,0.009776193599121907
1668678527.1583931,57532,1668678527,158267776,,-0.09533299744582756,-0.612999375982073,0.07068577006250741,0.9955579627583766,0.09353957014276967,-0.004372383228401734,0.009776188971206612
1668678527.1662738,57533,1668678527,166140097,,-0.09533296077988962,-0.6129993759788368,0.07068729091591403,0.9955579628120895,0.09353957013169016,-0.004372381472020649,0.009776184392898133
1668678527.1743698,57534,1668678527,174252049,,-0.09533292470191204,-0.6129993759760707,0.07068874155706416,0.9955579628651431,0.09353957012096029,-0.004372379746942219,0.009776179864389197
1668678527.1832986,57535,1668678527,183112679,,-0.09533288923661201,-0.6129993759737621,0.07069011701738713,0.9955579629175357,0.09353957011057876,-0.0043723780531387,0.009776175385863827
1668678527.191173,57536,1668678527,190937770,,-0.09533285440550184,-0.6129993759717703,0.07069144843405749,0.995557962969266,0.09353957010054363,-0.004372376390578606,0.009776170957498711
1668678527.1983087,57537,1668678527,198133258,,-0.09533282022710866,-0.6129993759698684,0.07069277940934927,0.9955579630203325,0.09353957009085415,-0.004372374759226953,0.009776166579462706
1668678527.2061749,57538,1668678527,206074866,,-0.09533278671727743,-0.6129993759680461,0.07069409844713608,0.995557963070734,0.0935395700815083,-0.004372373159044796,0.009776162251916779
1668678527.2145808,57539,1668678527,214389846,,-0.09533275388934243,-0.6129993759664701,0.07069536757409384,0.9955579631204692,0.09353957007250512,-0.004372371589989598,0.009776157975014174
1668678527.2220292,57540,1668678527,221916678,,-0.09533272175423221,-0.6129993759652704,0.07069653780476284,0.9955579631695373,0.09353957006384224,-0.004372370052015296,0.009776153748900403
1668678527.2303364,57541,1668678527,230164515,,-0.09533269032064064,-0.6129993759645559,0.0706975767898859,0.995557963217937,0.09353957005551874,-0.004372368545071958,0.009776149573713316
1668678527.2386005,57542,1668678527,238432096,,-0.09533265959513008,-0.6129993759642469,0.07069847281973607,0.9955579632656676,0.09353957004753265,-0.004372367069106174,0.009776145449583136
1668678527.2468688,57543,1668678527,246668218,,-0.09533262958236312,-0.6129993759643159,0.07069920477175726,0.9955579633127283,0.09353957003988256,-0.004372365624061032,0.009776141376632425
1668678527.2539856,57544,1668678527,253868509,,-0.09533260028517775,-0.6129993759645888,0.07069982926535945,0.9955579633591183,0.09353957003256654,-0.004372364209876245,0.00977613735497678
1668678527.2623055,57545,1668678527,262169942,,-0.09533257170475458,-0.6129993759648437,0.07070040927827416,0.9955579634048369,0.09353957002558301,-0.004372362826487851,0.009776133384723627
1668678527.2702284,57546,1668678527,270068564,,-0.0953325438408397,-0.612999375965088,0.07070093160275474,0.9955579634498839,0.09353957001893014,-0.00437236147382858,0.009776129465973258
1668678527.2790117,57547,1668678527,278795412,,-0.0953325166917931,-0.6129993759653476,0.07070137591502133,0.9955579634942586,0.09353957001260622,-0.004372360151827669,0.009776125598818488
1668678527.2862368,57548,1668678527,286093410,,-0.09533249025467462,-0.6129993759655915,0.07070176415638207,0.9955579635379608,0.09353957000660935,-0.004372358860411047,0.009776121783345058
1668678527.2940495,57549,1668678527,293907885,,-0.09533246452535908,-0.6129993759657533,0.07070213814916992,0.99555796358099,0.09353957000093785,-0.0043723575995011305,0.009776118019630946
1668678527.3022912,57550,1668678527,302196873,,-0.09533243949866711,-0.6129993759658164,0.07070251151213437,0.9955579636233464,0.09353956999558981,-0.004372356369017498,0.009776114307747427
1668678527.3102455,57551,1668678527,310121866,,-0.09533241516845198,-0.6129993759657961,0.0707028752943888,0.9955579636650297,0.09353956999056327,-0.004372355168875984,0.009776110647758116
1668678527.318375,57552,1668678527,318215355,,-0.09533239152766507,-0.6129993759656652,0.07070327952892115,0.9955579637060398,0.0935395699858565,-0.004372353998989481,0.009776107039719597
1668678527.3268726,57553,1668678527,326622541,,-0.09533236856842162,-0.6129993759653024,0.07070380922858518,0.9955579637463771,0.09353956998146727,-0.004372352859267669,0.009776103483681584
1668678527.3342707,57554,1668678527,333957924,,-0.09533234628212726,-0.6129993759646329,0.07070448503746593,0.9955579637860414,0.0935395699773939,-0.00437235174961698,0.00977609997968655
1668678527.3428571,57555,1668678527,342679097,,-0.09533232465955857,-0.6129993759636434,0.07070529493147305,0.9955579638250334,0.09353956997363423,-0.004372350669940766,0.009776096527769866
1668678527.35024,57556,1668678527,350077158,,-0.09533230369095629,-0.6129993759624518,0.07070616585152963,0.995557963863353,0.09353956997018652,-0.004372349620139424,0.009776093127960132
1668678527.3583698,57557,1668678527,358260876,,-0.0953322833661055,-0.6129993759613509,0.07070699821546637,0.995557963901001,0.09353956996704839,-0.004372348600110307,0.009776089780279048
1668678527.3663285,57558,1668678527,366216709,,-0.09533226367420884,-0.6129993759602629,0.07070786519083498,0.9955579639379776,0.09353956996421792,-0.004372347609747555,0.009776086484741396
1668678527.3740938,57559,1668678527,373924975,,-0.09533224460393044,-0.6129993759587001,0.07070892123565993,0.9955579639742836,0.0935395699616932,-0.004372346648942511,0.009776083241354976
1668678527.3823159,57560,1668678527,382188305,,-0.09533222614367541,-0.6129993759564213,0.07071020429231799,0.9955579640099197,0.09353956995947184,-0.0043723457175836805,0.009776080050121573
1668678527.390389,57561,1668678527,390247901,,-0.09533220828163386,-0.6129993759534166,0.07071169286375886,0.9955579640448865,0.09353956995755201,-0.004372344815556593,0.009776076911035329
1668678527.398425,57562,1668678527,398246969,,-0.09533219100585043,-0.6129993759499737,0.07071329123251179,0.995557964079185,0.09353956995593134,-0.004372343942743878,0.009776073824084406
1668678527.4063194,57563,1668678527,406137756,,-0.09533217430430105,-0.6129993759467729,0.07071487209457766,0.995557964112816,0.09353956995460744,-0.0043723430990254475,0.009776070789250132
1668678527.41399,57564,1668678527,413882619,,-0.09533215816465795,-0.6129993759440908,0.07071638731788693,0.9955579641457806,0.09353956995357882,-0.004372342284278351,0.009776067806507412
1668678527.4222796,57565,1668678527,422139523,,-0.0953321425743661,-0.612999375941908,0.07071783266488768,0.9955579641780796,0.09353956995284275,-0.004372341498377071,0.009776064875824655
1668678527.430503,57566,1668678527,430305690,,-0.09533212752073793,-0.6129993759400877,0.07071923679306702,0.9955579642097145,0.09353956995239701,-0.004372340741193246,0.009776061997163918
1668678527.4388552,57567,1668678527,438698019,,-0.09533211299099517,-0.6129993759384031,0.0707206398770831,0.9955579642406863,0.0935395699522397,-0.004372340012595811,0.009776059170480605
1668678527.446426,57568,1668678527,446219470,,-0.0953320989723611,-0.6129993759367177,0.07072207373064714,0.9955579642709964,0.0935395699523681,-0.004372339312451091,0.009776056395723981
1668678527.4539278,57569,1668678527,453826301,,-0.09533208545205697,-0.612999375934898,0.07072356490730651,0.995557964300646,0.09353956995278026,-0.004372338640623094,0.009776053672837353
1668678527.462192,57570,1668678527,462089820,,-0.09533207241736391,-0.6129993759329159,0.07072511695066908,0.995557964329637,0.09353956995347378,-0.004372337996973082,0.009776051001757755
1668678527.470894,57571,1668678527,470556724,,-0.09533205985565942,-0.61299937593089,0.07072669919540557,0.9955579643579703,0.09353956995444622,-0.004372337381359772,0.009776048382415645
1668678527.4783795,57572,1668678527,478215260,,-0.09533204775445792,-0.612999375929142,0.07072823963005939,0.9955579643856477,0.09353956995569543,-0.004372336793639384,0.009776045814735623
1668678527.4862087,57573,1668678527,486115447,,-0.09533203610136212,-0.6129993759279952,0.07072967184066543,0.9955579644126712,0.09353956995721874,-0.004372336233665894,0.009776043298636785
1668678527.4943736,57574,1668678527,494281435,,-0.09533202488396188,-0.6129993759274308,0.07073099699954855,0.9955579644390422,0.09353956995901415,-0.0043723357012906425,0.009776040834031378
1668678527.503211,57575,1668678527,502940326,,-0.09533201408990245,-0.6129993759272406,0.0707322393669113,0.9955579644647626,0.09353956996107925,-0.004372335196362858,0.009776038420826397
1668678527.510852,57576,1668678527,510763067,,-0.09533200370701714,-0.6129993759273659,0.0707333997755241,0.9955579644898342,0.09353956996341137,-0.004372334718729483,0.009776036058923085
1668678527.5189655,57577,1668678527,518800810,,-0.09533199372329318,-0.6129993759277657,0.07073447735516673,0.9955579645142592,0.09353956996600805,-0.004372334268234843,0.009776033748216307
1668678527.5269647,57578,1668678527,526834026,,-0.09533198412688776,-0.6129993759284245,0.07073545779307874,0.9955579645380392,0.09353956996886742,-0.004372333844721306,0.009776031488595684
1668678527.5351887,57579,1668678527,534917794,,-0.09533197490614147,-0.61299937592936,0.07073632095751053,0.9955579645611765,0.09353956997198647,-0.004372333448028929,0.009776029279944976
1668678527.5423028,57580,1668678527,542176639,,-0.09533196604957,-0.6129993759305747,0.07073702895192312,0.9955579645836733,0.0935395699753627,-0.004372333077995599,0.009776027122142246
1668678527.550787,57581,1668678527,550615784,,-0.09533195754587453,-0.6129993759320589,0.07073755612058366,0.9955579646055317,0.0935395699789939,-0.0043723327344571995,0.00977602501506026
1668678527.5590708,57582,1668678527,558929386,,-0.09533194938390999,-0.6129993759336796,0.07073789899949262,0.9955579646267539,0.09353956998287771,-0.004372332417247433,0.009776022958566492
1668678527.5672383,57583,1668678527,567076469,,-0.09533194155274498,-0.6129993759353333,0.07073804594625623,0.9955579646473424,0.09353956998701139,-0.004372332126198011,0.009776020952522432
1668678527.5742817,57584,1668678527,574118737,,-0.09533193404165054,-0.6129993759368996,0.07073802872238279,0.9955579646672995,0.09353956999139237,-0.004372331861138503,0.00977601899678459
1668678527.5821679,57585,1668678527,582039946,,-0.09533192684012179,-0.6129993759382898,0.07073786839660551,0.9955579646866277,0.0935395699960182,-0.004372331621896533,0.00977601709120395
1668678527.5903683,57586,1668678527,590270735,,-0.095331919937882,-0.6129993759394502,0.07073755926956782,0.9955579647053294,0.0935395700008866,-0.004372331408297739,0.009776015235626384
1668678527.5984054,57587,1668678527,598183428,,-0.09533191254612125,-0.6129993759403324,0.07073710448946104,0.9955579647234075,0.0935395700059948,-0.004372331220166357,0.009776013429892828
1668678527.6064527,57588,1668678527,606275155,,-0.09533190160307582,-0.6129993759409402,0.07073654726065648,0.9955579647408642,0.09353957001134021,-0.004372331057324007,0.009776011673838481
1668678527.6142032,57589,1668678527,614007304,,-0.09533188118094864,-0.6129993759413895,0.07073595790348548,0.9955579647577024,0.09353957001692022,-0.004372330919591012,0.00977600996729399
1668678527.621865,57590,1668678527,621765614,,-0.09533184272406656,-0.6129993759418093,0.07073541631297443,0.9955579647739249,0.09353957002273248,-0.004372330806785659,0.009776008310084973
1668678527.6311195,57591,1668678527,630974316,,-0.09533177527344565,-0.6129993759423122,0.07073497486844305,0.9955579647895346,0.09353957002877421,-0.004372330718724746,0.009776006702032249
1668678527.638761,57592,1668678527,638609594,,-0.09533166567832313,-0.6129993759428217,0.07073459498332829,0.995557964804534,0.093539570035043,-0.0043723306552231975,0.009776005142951199
1668678527.6461885,57593,1668678527,645971528,,-0.09533149879543269,-0.6129993759432449,0.07073422434909657,0.9955579648189263,0.09353957004153604,-0.004372330616094214,0.009776003632653019
1668678527.6548634,57594,1668678527,654688924,,-0.09533125767646797,-0.612999375943584,0.07073389775094482,0.9955579648327144,0.09353957004825071,-0.004372330601149674,0.009776002170944284
1668678527.6624591,57595,1668678527,662240340,,-0.09533121053488164,-0.6129993759440322,0.0707339465922292,0.9955579648459015,0.09353957005518448,-0.004372330610198467,0.009776000757625216
1668678527.6702232,57596,1668678527,670125207,,-0.09533160089446008,-0.6129993759440928,0.07073462391605324,0.9955579648584905,0.09353957006233461,-0.00437233064304838,0.00977599939249389
1668678527.6783595,57597,1668678527,678182350,,-0.09533251387582738,-0.6129993759416149,0.07073602839478439,0.9955579648704845,0.09353957006969844,-0.004372330699510019,0.009775998075350827
1668678527.686179,57598,1668678527,686044082,,-0.09533439245606078,-0.6129993759316577,0.07073844966702524,0.9955579648818863,0.09353957007727373,-0.0043723307794003175,0.00977599680601161
1668678527.6943994,57599,1668678527,694221236,,-0.09533768317882045,-0.6129993759046285,0.07074210869976949,0.9955579648926984,0.0935395700850573,-0.0043723308825528336,0.009775995584328618
1668678527.7026312,57600,1668678527,702443141,,-0.0953424226783375,-0.6129993758512554,0.07074700636247863,0.9955579649029233,0.09353957009304632,-0.004372331008804882,0.009775994410158511
1668678527.7102206,57601,1668678527,710063053,,-0.0953484432297791,-0.6129993757670553,0.07075305995265735,0.9955579649125634,0.09353957010123859,-0.00437233115797815,0.009775993283319824
1668678527.7182715,57602,1668678527,718103112,,-0.09535523516377016,-0.6129993756569139,0.07076002409869382,0.995557964921623,0.09353957010963114,-0.004372331329857315,0.009775992203546137
1668678527.7263958,57603,1668678527,726236072,,-0.09536213984654202,-0.6129993755392517,0.07076755785859673,0.9955579649301071,0.09353957011822138,-0.004372331524175068,0.009775991170452756
1668678527.734027,57604,1668678527,733855973,,-0.09536867672543858,-0.6129993754293421,0.0707753312927349,0.9955579649380204,0.09353957012700706,-0.00437233174067857,0.009775990183687164
1668678527.7423666,57605,1668678527,742183924,,-0.0953745857343551,-0.6129993753387581,0.07078312839184694,0.9955579649453673,0.09353957013598566,-0.004372331979131401,0.009775989242933715
1668678527.7502058,57606,1668678527,750086846,,-0.09537972917281304,-0.6129993752736395,0.07079051997352973,0.9955579649521517,0.09353957014515435,-0.004372332239326609,0.009775988347942698
1668678527.7586355,57607,1668678527,758403884,,-0.09538391698763383,-0.612999375248436,0.07079689360115994,0.9955579649583769,0.09353957015451039,-0.004372332521050854,0.009775987498448583
1668678527.766306,57608,1668678527,766115032,,-0.09538705679776789,-0.6129993752627224,0.07080187803549348,0.9955579649640468,0.09353957016405118,-0.004372332824105037,0.009775986694216154
1668678527.7745624,57609,1668678527,774446855,,-0.09538910685808726,-0.6129993753091768,0.07080523509204671,0.9955579649691646,0.09353957017377384,-0.004372333148295958,0.009775985935023199
1668678527.782082,57610,1668678527,781916812,,-0.09539005124094997,-0.6129993753749455,0.07080685941732019,0.9955579649737332,0.09353957018367601,-0.004372333493432619,0.009775985220650821
1668678527.7905238,57611,1668678527,790237720,,-0.0953898916010272,-0.6129993754461923,0.07080677438414569,0.9955579649777562,0.09353957019375463,-0.004372333859323899,0.00977598455087834
1668678527.79852,57612,1668678527,798266365,,-0.09538863282938931,-0.6129993755095856,0.07080496706098569,0.9955579649812369,0.09353957020400694,-0.004372334245777398,0.00977598392548124
1668678527.8071568,57613,1668678527,806969924,,-0.09538627593491353,-0.6129993755526546,0.0708013505736641,0.9955579649841785,0.09353957021443038,-0.0043723346525996526,0.009775983344230509
1668678527.8144732,57614,1668678527,814321370,,-0.09538282438268071,-0.6129993755647274,0.07079603050127141,0.9955579649865844,0.09353957022502184,-0.00437233507959589,0.0097759828068935
1668678527.8223727,57615,1668678527,822236391,,-0.09537828297201037,-0.6129993755392803,0.07078918580212755,0.9955579649884583,0.093539570235779,-0.004372335526569981,0.009775982313232632
1668678527.8303623,57616,1668678527,830170718,,-0.09537265580377725,-0.6129993754742009,0.07078107797298888,0.9955579649898033,0.09353957024669882,-0.004372335993324629,0.009775981863006216
1668678527.8381703,57617,1668678527,838036397,,-0.0953659453136445,-0.6129993753732228,0.07077201779177085,0.9955579649906234,0.09353957025777886,-0.004372336479661483,0.009775981455969123
1668678527.8462882,57618,1668678527,846153552,,-0.09535815329287271,-0.6129993752454229,0.07076248776147698,0.9955579649909219,0.09353957026901608,-0.004372336985381312,0.009775981091872324
1668678527.8541384,57619,1668678527,854011224,,-0.09534928069470809,-0.6129993751074957,0.07075303613972343,0.9955579649907023,0.09353957028040805,-0.004372337510283831,0.009775980770463258
1668678527.8623264,57620,1668678527,862065870,,-0.09533932762081085,-0.6129993749649121,0.07074384578106464,0.9955579649899684,0.09353957029195174,-0.00437233805416826,0.009775980491486062
1668678527.8701673,57621,1668678527,870066717,,-0.09532829324068856,-0.6129993748186853,0.07073509493428519,0.995557964988724,0.09353957030364451,-0.004372338616832801,0.009775980254681838
1668678527.8782156,57622,1668678527,878111495,,-0.09531617579099347,-0.6129993746740648,0.07072704093394105,0.9955579649869727,0.09353957031548377,-0.004372339198075192,0.009775980059788691
1668678527.8865566,57623,1668678527,886319736,,-0.09530297271993517,-0.6129993745300906,0.07071978852497018,0.9955579649847182,0.09353957032746663,-0.004372339797692608,0.009775979906542066
1668678527.894106,57624,1668678527,893958886,,-0.09528868073690316,-0.6129993743817856,0.07071327491187739,0.9955579649819644,0.09353957033959036,-0.004372340415482013,0.009775979794675259
1668678527.9021974,57625,1668678527,902035376,,-0.09527329587304614,-0.6129993742223594,0.07070739092377143,0.9955579649787148,0.09353957035185237,-0.004372341051239753,0.009775979723918497
1668678527.9104304,57626,1668678527,910192995,,-0.09525681353270204,-0.6129993740463934,0.07070195996585375,0.9955579649749736,0.09353957036424981,-0.004372341704761857,0.009775979693999987
1668678527.919033,57627,1668678527,918678472,,-0.09523922854558192,-0.6129993738469933,0.07069674523318231,0.9955579649707446,0.0935395703767798,-0.004372342375844225,0.009775979704645651
1668678527.926199,57628,1668678527,926038059,,-0.0952205352301084,-0.6129993736201782,0.07069158224877413,0.9955579649660314,0.0935395703894399,-0.004372343064282479,0.009775979755579584
1668678527.9340003,57629,1668678527,933865041,,-0.09520072744370475,-0.6129993733628082,0.07068634800979813,0.995557964960838,0.09353957040222735,-0.0043723437698720315,0.009775979846523545
1668678527.9423728,57630,1668678527,942235036,,-0.09517979863209583,-0.6129993730736236,0.07068101378130348,0.9955579649551685,0.09353957041513941,-0.004372344492408285,0.00977597997719774
1668678527.9511046,57631,1668678527,950928836,,-0.09515774187399718,-0.6129993727510796,0.0706754822012501,0.9955579649490265,0.09353957042817333,-0.0043723452316866565,0.009775980147320382
1668678527.95897,57632,1668678527,958732918,,-0.09513454992207859,-0.6129993723873649,0.07066931254246311,0.995557964942416,0.0935395704413265,-0.004372345987502477,0.00977598035660789
1668678527.9670346,57633,1668678527,966949817,,-0.0951102152446407,-0.6129993719697934,0.07066203007614741,0.9955579649353412,0.09353957045459614,-0.004372346759651006,0.009775980604775551
1668678527.9749904,57634,1668678527,974790176,,-0.09508473006272951,-0.6129993714783011,0.07065285316703182,0.9955579649278059,0.09353957046797957,-0.004372347547927526,0.009775980891536482
1668678527.9825404,57635,1668678527,982306680,,-0.0950580863817026,-0.6129993708739084,0.07064094250447031,0.995557964919814,0.09353957048147435,-0.004372348352127596,0.009775981216602642
1668678527.9909987,57636,1668678527,990886219,,-0.09503027603643469,-0.6129993701336789,0.07062622854546068,0.9955579649113696,0.09353957049507734,-0.00437234917204667,0.009775981579684335
1668678527.9990654,57637,1668678527,998780922,,-0.09500129072106984,-0.6129993692473299,0.070608798312097,0.9955579649024767,0.09353957050878649,-0.004372350007480622,0.009775981980490839
1668678528.0068307,57638,1668678528,6653347,,-0.09497112201790639,-0.6129993682174774,0.07058906117747817,0.9955579648931393,0.09353957052259837,-0.004372350858225187,0.009775982418729665
1668678528.0141206,57639,1668678528,13947847,,-0.0949397614331646,-0.6129993670857418,0.07056773354686047,0.9955579648833615,0.09353957053651091,-0.004372351724076596,0.009775982894107232
1668678528.0223143,57640,1668678528,22124192,,-0.0949072004028495,-0.6129993658773722,0.0705451544898748,0.995557964873147,0.09353957055052124,-0.004372352604831004,0.009775983406328792
1668678528.0303316,57641,1668678528,30140476,,-0.09487343031931166,-0.6129993646114805,0.07052165068751333,0.9955579648625004,0.09353957056462678,-0.00437235350028521,0.0097759839550983
1668678528.0383468,57642,1668678528,38203575,,-0.09483844256006832,-0.6129993633228739,0.07049766390793684,0.9955579648514253,0.09353957057882491,-0.004372354410235591,0.009775984540118363
1668678528.0464356,57643,1668678528,46234721,,-0.09480222849845604,-0.6129993620356503,0.07047349229352942,0.995557964839926,0.093539570593113,-0.00437235533447958,0.009775985161090905
1668678528.0541306,57644,1668678528,54005813,,-0.09476477952093529,-0.6129993607606725,0.07044927926179702,0.9955579648280064,0.09353957060748858,-0.00437235627281439,0.00977598581771614
1668678528.0623174,57645,1668678528,62181331,,-0.09472608704525863,-0.6129993594997828,0.07042508339170243,0.9955579648156708,0.09353957062194851,-0.004372357225037794,0.009775986509694117
1668678528.0703166,57646,1668678528,70116538,,-0.09468614254721273,-0.6129993582790415,0.07040144018702847,0.9955579648029231,0.09353957063649083,-0.004372358190947795,0.009775987236722761
1668678528.078423,57647,1668678528,78004494,,-0.09464493757717175,-0.6129993571560161,0.0703791005590161,0.9955579647897675,0.09353957065111274,-0.00437235917034252,0.009775987998499677
1668678528.0864434,57648,1668678528,86314603,,-0.09460246374865891,-0.612999356148939,0.0703585222572998,0.9955579647762083,0.0935395706658113,-0.0043723601630209705,0.009775988794721246
1668678528.0942156,57649,1668678528,93941501,,-0.09455871275796722,-0.6129993552598206,0.0703400010358921,0.9955579647622493,0.09353957068058433,-0.004372361168782118,0.00977598962508288
1668678528.1026537,57650,1668678528,102460679,,-0.09451367639247175,-0.6129993544677104,0.07032354735853627,0.9955579647478946,0.09353957069542931,-0.004372362187425542,0.009775990489279256
1668678528.110297,57651,1668678528,110188199,,-0.0944673465452156,-0.6129993537432393,0.07030907342118797,0.9955579647331486,0.0935395707103434,-0.004372363218750885,0.009775991387003807
1668678528.1185508,57652,1668678528,118385260,,-0.09441971522981338,-0.6129993530668885,0.07029663770352634,0.9955579647180154,0.09353957072532418,-0.004372364262558547,0.009775992317949256
1668678528.1262286,57653,1668678528,126128063,,-0.09437077458637651,-0.6129993524236538,0.07028632275263912,0.9955579647024988,0.09353957074036941,-0.004372365318649275,0.00977599328180746
1668678528.1341755,57654,1668678528,134068031,,-0.09432051688412321,-0.6129993517904704,0.07027796214197952,0.9955579646866032,0.09353957075547625,-0.0043723663868239105,0.009775994278269208
1668678528.1422741,57655,1668678528,142101566,,-0.09426893452983565,-0.6129993511430191,0.07027132293299669,0.9955579646703328,0.09353957077064212,-0.004372367466884273,0.009775995307024814
1668678528.1503203,57656,1668678528,150178921,,-0.0942160200768298,-0.6129993504661975,0.07026624480443898,0.9955579646536916,0.09353957078586485,-0.004372368558632287,0.009775996367763471
1668678528.158274,57657,1668678528,158119685,,-0.09416176622742987,-0.6129993497476123,0.07026255727991702,0.9955579646366839,0.09353957080114168,-0.004372369661870283,0.009775997460173358
1668678528.1662233,57658,1668678528,166024004,,-0.09410644499134255,-0.6129993490060821,0.0702603208265316,0.9955579646193182,0.09353957081647075,-0.0043723707762361,0.009775998583571225
1668678528.1745102,57659,1668678528,174212072,,-0.09405045366823298,-0.6129993482988944,0.07025970472169696,0.9955579646016093,0.0935395708318507,-0.004372371901121734,0.009775999736720395
1668678528.1819944,57660,1668678528,181845320,,-0.09399387128345978,-0.6129993476343618,0.07026084909384657,0.9955579645835653,0.09353957084727924,-0.00437237303618849,0.009776000918986836
1668678528.1907809,57661,1668678528,190547970,,-0.0939366209797083,-0.6129993469898921,0.0702637828173694,0.9955579645651887,0.09353957086275402,-0.004372374181288046,0.009776002130162706
1668678528.1982327,57662,1668678528,198079449,,-0.09387922505070104,-0.6129993463990268,0.0702687781324335,0.9955579645464927,0.09353957087827341,-0.004372375335900798,0.009776003369204056
1668678528.2066016,57663,1668678528,206392534,,-0.09382247302619683,-0.6129993459648341,0.0702763036901209,0.9955579645275037,0.09353957089383706,-0.004372376498984356,0.009776004633890936
1668678528.2144005,57664,1668678528,214182187,,-0.09376785270755832,-0.6129993457941563,0.0702872645169293,0.9955579645082525,0.09353957090944554,-0.004372377669307181,0.009776005921576604
1668678528.2218277,57665,1668678528,221721292,,-0.09371734811888116,-0.612999346053025,0.07030309464080593,0.9955579644887911,0.09353957092510085,-0.004372378844873477,0.009776007227893466
1668678528.2302706,57666,1668678528,230089853,,-0.09367142153300592,-0.6129993466634762,0.07032420738927724,0.9955579644691339,0.09353957094080202,-0.004372380025094915,0.009776008551633348
1668678528.239196,57667,1668678528,238957597,,-0.09363004776489897,-0.6129993474370747,0.07035058249018224,0.9955579644492719,0.09353957095654519,-0.00437238121027975,0.00977600989360066
1668678528.2467327,57668,1668678528,246480024,,-0.09359324922603278,-0.6129993482247011,0.07038232145901926,0.9955579644292042,0.09353957097232732,-0.00437238240043622,0.009776011253923104
1668678528.2541053,57669,1668678528,253955803,,-0.09356057160715145,-0.6129993488674195,0.07041913755594942,0.9955579644089192,0.09353957098814472,-0.004372383595966663,0.009776012633613938
1668678528.2622428,57670,1668678528,262074612,,-0.09353152767445144,-0.6129993492583061,0.07046062611067411,0.995557964388408,0.09353957100399375,-0.004372384797193728,0.009776014033506402
1668678528.2710145,57671,1668678528,270723412,,-0.09350562426359275,-0.6129993493398439,0.07050632302267291,0.9955579643676633,0.09353957101987116,-0.0043723860043571715,0.009776015454246412
1668678528.2784097,57672,1668678528,278231423,,-0.09348169949798045,-0.612999349101929,0.0705554264639414,0.9955579643466761,0.09353957103577297,-0.00437238721777971,0.00977601689666858
1668678528.2863731,57673,1668678528,286164426,,-0.09345830999225505,-0.6129993485855684,0.07060701079540446,0.9955579643254329,0.09353957105169498,-0.004372388437928739,0.009776018361935661
1668678528.2939692,57674,1668678528,293816075,,-0.09343370293837235,-0.6129993478737544,0.07065991386590657,0.9955579643039234,0.09353957106763412,-0.004372389665174677,0.009776019850991507
1668678528.3025825,57675,1668678528,302374105,,-0.09340663342144187,-0.6129993470620376,0.07071325623581472,0.9955579642821347,0.09353957108358599,-0.004372390899973868,0.009776021364971936
1668678528.31028,57676,1668678528,310124751,,-0.0933761331432648,-0.6129993462238401,0.07076596456149792,0.9955579642600612,0.09353957109954741,-0.004372392142518081,0.009776022904409645
1668678528.3183115,57677,1668678528,318198126,,-0.09334081603799092,-0.6129993454833707,0.070816557737505,0.9955579642376827,0.09353957111551388,-0.004372393393542322,0.009776024471059465
1668678528.3263557,57678,1668678528,326205327,,-0.0933000898314735,-0.6129993448130943,0.0708644646396489,0.9955579642149848,0.09353957113148129,-0.00437239465357503,0.009776026066203392
1668678528.3342068,57679,1668678528,334095780,,-0.09325377529325661,-0.6129993441100499,0.0709095818826439,0.9955579641919567,0.09353957114744604,-0.004372395922997047,0.009776027690786247
1668678528.3424907,57680,1668678528,342288371,,-0.09320190508412178,-0.6129993432636494,0.07095207576053535,0.9955579641685913,0.09353957116340487,-0.004372397202062896,0.009776029345465643
1668678528.350946,57681,1668678528,350831444,,-0.09314465662498303,-0.6129993421724281,0.07099218110398177,0.9955579641448848,0.09353957117935495,-0.004372398490896116,0.009776031030602449
1668678528.3582053,57682,1668678528,358107460,,-0.0930824369476393,-0.6129993407411384,0.07103085012540505,0.9955579641208396,0.09353957119529428,-0.004372399789382985,0.00977603274602218
1668678528.3663456,57683,1668678528,366220716,,-0.09301571328435161,-0.6129993388370983,0.07106940849729602,0.995557964096464,0.093539571211221,-0.004372401097181293,0.009776034491035288
1668678528.3744109,57684,1668678528,374215660,,-0.09294599927553811,-0.6129993365097233,0.0711091586499387,0.9955579640717883,0.09353957122713544,-0.004372402413119387,0.009776036263088012
1668678528.3823557,57685,1668678528,382188308,,-0.09287667118191814,-0.6129993340541977,0.07115221731438348,0.9955579640469056,0.09353957124304454,-0.004372403733627511,0.009776038054235945
1668678528.390856,57686,1668678528,390666028,,-0.09280959496129387,-0.612999331693183,0.07119960358025855,0.995557964021896,0.09353957125895343,-0.004372405055624314,0.009776039857633837
1668678528.399186,57687,1668678528,398932678,,-0.09274550941449745,-0.6129993293953617,0.07125160440359236,0.9955579639967714,0.09353957127486094,-0.004372406378637141,0.009776041672298078
1668678528.4064617,57688,1668678528,406259154,,-0.09268628058952312,-0.6129992470193281,0.07130897488773508,0.9955579639715818,0.09353957129076948,-0.00437240770074336,0.009776043493981304
1668678528.4141188,57689,1668678528,413993869,,-0.09263315387818594,-0.6129989677585541,0.07137194187150275,0.9955579639463583,0.09353957130667923,-0.00437240902073787,0.009776045320045515
1668678528.4219978,57690,1668678528,421893495,,-0.09258637596498599,-0.612998255011623,0.07144024895049877,0.9955579639210982,0.09353957132258801,-0.00437241033870769,0.009776047150753963
1668678528.4303546,57691,1668678528,430210247,,-0.09254552653189746,-0.6129969348233392,0.0715133850548183,0.9955579638957834,0.09353957133849138,-0.004372411655323305,0.009776048987680608
1668678528.4383469,57692,1668678528,438222683,,-0.09250968449012532,-0.6129952144265195,0.07159062546011936,0.9955579638703872,0.09353957135438462,-0.004372412971595145,0.009776050833166558
1668678528.4462447,57693,1668678528,446125514,,-0.0924778772716031,-0.6129933684647264,0.0716711894390767,0.9955579638448856,0.09353957137026292,-0.004372414288410544,0.009776052689276891
1668678528.4539258,57694,1668678528,453845072,,-0.09244796482990704,-0.6129915373824449,0.07175367221870255,0.9955579638192538,0.09353957138612146,-0.004372415606697059,0.009776054558173377
1668678528.463062,57695,1668678528,462819034,,-0.09241808091450521,-0.6129897676757712,0.07183688135401212,0.9955579637934641,0.09353957140195537,-0.004372416927490056,0.009776056442264792
1668678528.470229,57696,1668678528,470034638,,-0.0923859192979025,-0.6129880813700129,0.07191924104238663,0.9955579637675002,0.09353957141776079,-0.004372418251394255,0.009776058342985349
1668678528.47815,57697,1668678528,478028434,,-0.09234828494873924,-0.6129865110127125,0.07199858506182467,0.9955579637413153,0.09353957143353095,-0.004372419580158127,0.009776060264351074
1668678528.486298,57698,1668678528,486123168,,-0.09230332931643695,-0.6129850693900634,0.07207343298179268,0.9955579637148713,0.09353957144925977,-0.004372420915238472,0.00977606220970126
1668678528.4943833,57699,1668678528,494156170,,-0.09224993590958834,-0.6129837590562938,0.07214269942057082,0.9955579636881263,0.09353957146494132,-0.004372422258200613,0.009776064182608535
1668678528.5022435,57700,1668678528,502113980,,-0.0921880314057712,-0.6129825754230454,0.07220624144053714,0.9955579636610516,0.0935395714805707,-0.004372423610144011,0.009776066185587552
1668678528.5103483,57701,1668678528,510227610,,-0.09211779658630917,-0.6129815123584816,0.07226407402587962,0.9955579636336289,0.09353957149614428,-0.00437242497174824,0.009776068220203401
1668678528.5186834,57702,1668678528,518395208,,-0.0920395567767928,-0.6129805649776107,0.07231634369935187,0.9955579636058417,0.09353957151165834,-0.00437242634364746,0.009776070287919061
1668678528.526774,57703,1668678528,526487791,,-0.0919539648047688,-0.6129797272659289,0.07236357270462679,0.9955579635776914,0.09353957152711119,-0.004372427725768202,0.009776072388603738
1668678528.534493,57704,1668678528,534247637,,-0.09186208960949539,-0.6129789928660989,0.0724066743918371,0.9955579635491955,0.09353957154250267,-0.004372429117456762,0.009776074520824601
1668678528.5419366,57705,1668678528,541806974,,-0.09176613596573627,-0.6129783555660294,0.07244748068694208,0.995557963520421,0.09353957155783708,-0.004372430516127681,0.009776076678809236
1668678528.5502503,57706,1668678528,550155375,,-0.09166753796981911,-0.6129778092838084,0.07248713937386761,0.9955579634914424,0.09353957157311917,-0.004372431918945949,0.009776078856227775
1668678528.5583572,57707,1668678528,558193754,,-0.09156701266215718,-0.6129773480372172,0.07252621668315876,0.9955579634622829,0.09353957158834934,-0.004372433325022124,0.009776081051122739
1668678528.5671427,57708,1668678528,566982710,,-0.09146571062617498,-0.61297696630262,0.0725657259879454,0.9955579634329977,0.09353957160353098,-0.004372434732231199,0.009776083258760416
1668678528.574139,57709,1668678528,574016821,,-0.09136426723501007,-0.612976658703673,0.07260630561616237,0.9955579634036223,0.09353957161866513,-0.004372436139219224,0.009776085476139966
1668678528.5818872,57710,1668678528,581794086,,-0.09126293938274418,-0.6129764200600827,0.0726481565823589,0.9955579633741739,0.0935395716337514,-0.004372437545328403,0.009776087701822596
1668678528.5908432,57711,1668678528,590123383,,-0.0911617015833327,-0.6129762454127545,0.07269120184323367,0.995557963344658,0.09353957164878843,-0.004372438950331799,0.00977608993533637
1668678528.598796,57712,1668678528,598511547,,-0.09105932579174415,-0.6129761299199336,0.0727344928933019,0.995557963315041,0.09353957166377111,-0.004372440355500779,0.00977609217957227
1668678528.6063511,57713,1668678528,606183913,,-0.09095413157366079,-0.6129760688532802,0.07277674860573191,0.9955579632852459,0.0935395716786908,-0.004372441763766352,0.009776094441145466
1668678528.6142173,57714,1668678528,614116873,,-0.09084450459865476,-0.6129760577685192,0.07281679094303108,0.9955579632552102,0.09353957169354006,-0.004372443177530815,0.009776096725477112
1668678528.622117,57715,1668678528,621929909,,-0.09072889655042943,-0.6129760923807017,0.07285313110826336,0.9955579632248501,0.09353957170830927,-0.004372444599967127,0.009776099039713762
1668678528.6305132,57716,1668678528,630406099,,-0.09060699715499715,-0.612976168828416,0.07288517467942246,0.9955579631941318,0.09353957172299436,-0.004372446032366959,0.009776101386769764
1668678528.6383588,57717,1668678528,638223558,,-0.0904788201982223,-0.6129762835285044,0.07291276664663043,0.9955579631630515,0.09353957173759297,-0.0043724474748875,0.009776103767009308
1668678528.646175,57718,1668678528,646017078,,-0.0903442153680602,-0.6129764330418407,0.07293549860772153,0.995557963131588,0.09353957175210219,-0.004372448928331281,0.009776106182241636
1668678528.6544216,57719,1668678528,654238320,,-0.09020328866722506,-0.6129766141825979,0.07295314077755333,0.9955579630997351,0.09353957176651964,-0.004372450392929918,0.009776108632991703
1668678528.6619895,57720,1668678528,661872856,,-0.09005627142744754,-0.6129768239934272,0.07296561015584828,0.9955579630674962,0.09353957178084499,-0.004372451868564969,0.009776111118996358
1668678528.6704571,57721,1668678528,670305800,,-0.08990347701449519,-0.6129770597223443,0.07297313506315252,0.9955579630348815,0.09353957179507721,-0.0043724533548572244,0.009776113639404928
1668678528.6784153,57722,1668678528,678186601,,-0.08974522522557975,-0.612977318815285,0.07297594906537334,0.9955579630019052,0.09353957180921647,-0.004372454851265829,0.009776116193002653
1668678528.6872714,57723,1668678528,686646761,,-0.08958180490943704,-0.6129775988826949,0.07297420115770133,0.995557962968581,0.09353957182326261,-0.004372456357277853,0.00977611877863581
1668678528.6942446,57724,1668678528,694039408,,-0.08941350774657111,-0.6129778977007773,0.07296799046503155,0.9955579629349244,0.09353957183721598,-0.0043724578722969185,0.009776121394962008
1668678528.7022102,57725,1668678528,702028651,,-0.08924062257510063,-0.6129782132004796,0.07295749248991759,0.9955579629009529,0.09353957185107657,-0.004372459395668354,0.00977612404050783
1668678528.7103014,57726,1668678528,710180992,,-0.08906342490054682,-0.61297854345196,0.07294270986709246,0.9955579628666847,0.09353957186484506,-0.004372460926703695,0.009776126713721724
1668678528.7185006,57727,1668678528,718249611,,-0.08888217203398978,-0.6129788866316916,0.07292346465028982,0.9955579628321379,0.09353957187852183,-0.00437246246471732,0.009776129413058485
1668678528.7264476,57728,1668678528,726127096,,-0.08869710876123905,-0.6129792410538082,0.07289987248474115,0.9955579627973312,0.09353957189210721,-0.004372464009012733,0.009776132136947212
1668678528.7340298,57729,1668678528,733874362,,-0.08850846656642375,-0.6129796051512276,0.07287201191812344,0.9955579627622827,0.09353957190560157,-0.004372465558891208,0.00977613488381068
1668678528.7426257,57730,1668678528,742512513,,-0.0883164638457887,-0.6129799774650199,0.07284004981318383,0.995557962727011,0.09353957191900532,-0.004372467113657396,0.009776137652079988
1668678528.7502604,57731,1668678528,750137434,,-0.08812130572734936,-0.6129803566638442,0.07280425399435604,0.9955579626915345,0.09353957193231906,-0.00437246867262495,0.009776140440204174
1668678528.7582488,57732,1668678528,758137330,,-0.0879224907551523,-0.612980949417135,0.0727638668786568,0.9955579626558281,0.09353957194553941,-0.004372470236753885,0.009776143250324732
1668678528.7663095,57733,1668678528,766136295,,-0.08771919446762258,-0.6129820550780705,0.07271778385188123,0.9955579626198025,0.09353957195865838,-0.004372471809455457,0.009776146090076644
1668678528.774192,57734,1668678528,774045579,,-0.0875101694942047,-0.6129842946880912,0.07266520324820029,0.9955579625833555,0.09353957197166687,-0.0043724733946420334,0.00977614896820959
1668678528.782178,57735,1668678528,782047614,,-0.08729329696131556,-0.612988486225268,0.07260536828885178,0.9955579625462647,0.09353957198454685,-0.0043724750008139095,0.009776151903751517
1668678528.790398,57736,1668678528,790209483,,-0.0870678257521463,-0.6129948250499372,0.07253840362511947,0.9955579625083876,0.09353957199728687,-0.004372476633428182,0.009776154908885502
1668678528.7983234,57737,1668678528,798093261,,-0.08683371235464261,-0.6130033191834956,0.07246470519599957,0.9955579624697173,0.09353957200988675,-0.004372478292768255,0.00977615798417412
1668678528.8063354,57738,1668678528,806156373,,-0.0865904945711109,-0.6130139843356784,0.0723844602036473,0.9955579624301684,0.09353957202234008,-0.004372479982123102,0.009776161136916534
1668678528.8141856,57739,1668678528,814072057,,-0.0863375081231129,-0.6130268980578527,0.0722976756548438,0.9955579623896579,0.09353957203464132,-0.004372481704680087,0.0097761643741702
1668678528.821937,57740,1668678528,821766984,,-0.08607408340759766,-0.6130422506953379,0.07220430915046602,0.9955579623480519,0.09353957204678118,-0.004372483465593112,0.009776167707391292
1668678528.8305364,57741,1668678528,830395469,,-0.08580058662742641,-0.6130599557943701,0.0721048123733952,0.9955579623053347,0.09353957205875979,-0.004372485265493704,0.009776171137875161
1668678528.8383272,57742,1668678528,838159846,,-0.0855171644315326,-0.6130800627597465,0.07199938641784301,0.9955579622615163,0.09353957207057918,-0.004372487104040848,0.00977617466472737
1668678528.8463392,57743,1668678528,846045713,,-0.08522358872272659,-0.6131027550566064,0.07188797441630877,0.9955579622165096,0.09353957208223482,-0.004372488984600803,0.009776178295363645
1668678528.8547297,57744,1668678528,854487599,,-0.0849199453514579,-0.6131281261040541,0.07177083668237166,0.9955579621702877,0.09353957209372644,-0.004372490908254633,0.009776182032057882
1668678528.8621824,57745,1668678528,862052001,,-0.08460671011369034,-0.6131561136154035,0.07164847803246643,0.9955579621228586,0.09353957210505721,-0.00437249287473362,0.009776185874048717
1668678528.870215,57746,1668678528,870055901,,-0.08428469052673372,-0.613186262209395,0.07152175412523813,0.9955579620743251,0.09353957211623637,-0.004372494880190969,0.009776189812543206
1668678528.8783042,57747,1668678528,878164972,,-0.08395459915460765,-0.6132180452377985,0.07139156843841704,0.9955579620247886,0.09353957212727324,-0.004372496920799169,0.009776193838796538
1668678528.8863144,57748,1668678528,886123397,,-0.08361716029030204,-0.6132510653204228,0.07125867365665267,0.995557961974356,0.09353957213817708,-0.004372498992548424,0.009776197943662229
1668678528.894292,57749,1668678528,894155993,,-0.08327345813511615,-0.6132847973913624,0.07112376636966128,0.995557961923181,0.0935395721489598,-0.004372501089625994,0.009776202113957643
1668678528.901944,57750,1668678528,901841474,,-0.0829247222804069,-0.6133187224763481,0.07098743198965062,0.9955579618714818,0.09353957215963762,-0.004372503203756346,0.00977620633099124
1668678528.9106646,57751,1668678528,910437265,,-0.08257173238312596,-0.6133526217430741,0.0708501076475534,0.9955579618194021,0.09353957217022055,-0.00437250532951742,0.009776210582494437
1668678528.9182384,57752,1668678528,918145371,,-0.08221431443735958,-0.6133868194720642,0.07071211539121955,0.9955579617669429,0.09353957218070975,-0.004372507466896904,0.009776214868346771
1668678528.9263854,57753,1668678528,926211325,,-0.0818519396028988,-0.6134218186674668,0.07057373876515508,0.9955579617139728,0.09353957219109757,-0.004372509620921834,0.009776219199728877
1668678528.9339511,57754,1668678528,933788920,,-0.08148445486128968,-0.6134578755300605,0.07043513877102452,0.9955579616604523,0.09353957220138295,-0.004372511793148513,0.009776223580017321
1668678528.942427,57755,1668678528,942182281,,-0.0811121008120115,-0.6134950185815563,0.07029647849308542,0.9955579616063928,0.09353957221156821,-0.004372513983173275,0.009776228008184359
1668678528.9502444,57756,1668678528,950132865,,-0.08073471389832934,-0.613533295492982,0.07015780113060772,0.9955579615518098,0.09353957222165557,-0.004372516190445983,0.009776232482868907
1668678528.9581501,57757,1668678528,958050871,,-0.08035174212325155,-0.6135728565955929,0.0700190227630694,0.9955579614965774,0.09353957223163939,-0.004372518419809091,0.009776237014806819
1668678528.9661806,57758,1668678528,966067302,,-0.0799630824490459,-0.6136137966093096,0.06988023690471247,0.9955579614406674,0.09353957224152004,-0.004372520672374261,0.009776241606344107
1668678528.9746888,57759,1668678528,974513798,,-0.07956956118519307,-0.6136556177738666,0.06974182387012476,0.9955579613841844,0.09353957225130537,-0.004372522944218995,0.009776246248530539
1668678528.9826348,57760,1668678528,982482651,,-0.07917258880095938,-0.6136974464886623,0.0696042874884204,0.9955579613274442,0.09353957226101427,-0.004372525223367036,0.009776250914359892
1668678528.990454,57761,1668678528,990281746,,-0.07877296360947113,-0.6137389510763616,0.06946791958848941,0.9955579612706323,0.09353957227065725,-0.004372527502803461,0.009776255587998174
1668678528.999302,57762,1668678528,999024628,,-0.07837050255645127,-0.6137805013581789,0.06933275460907184,0.995557961213747,0.09353957228023503,-0.004372529782617698,0.009776260269568971
1668678529.0071437,57763,1668678529,6973340,,-0.07796469420737046,-0.6138226632070161,0.06919874663260968,0.9955579611566443,0.09353957228974073,-0.004372532068303028,0.009776264971318846
1668678529.0150433,57764,1668678529,14861687,,-0.07755665203526191,-0.6138650213374015,0.06906661120884983,0.9955579610994622,0.09353957229918192,-0.0043725343546609004,0.009776269681491832
1668678529.0219848,57765,1668678529,21877404,,-0.07714850259710797,-0.6139066641648452,0.06893778366974146,0.9955579610426627,0.09353957230858066,-0.0043725366241412576,0.009776274360643258
1668678529.0310242,57766,1668678529,30779605,,-0.07674127438683993,-0.6139472631568437,0.0688129615005812,0.9955579609865107,0.0935395723179485,-0.00437253886668292,0.009776278986194192
1668678529.0382922,57767,1668678529,38137661,,-0.07633555514646875,-0.6139866606841204,0.06869244741727863,0.9955579609310962,0.09353957232728756,-0.00437254107886547,0.009776283550504453
1668678529.0468905,57768,1668678529,46757183,,-0.07593214876937561,-0.6140248071153307,0.06857684862511522,0.9955579608765814,0.0935395723366025,-0.0043725432545082986,0.009776288039753483
1668678529.0541265,57769,1668678529,54041689,,-0.07553303374443539,-0.6140613412018688,0.06846728821757138,0.9955579608232447,0.09353957234590256,-0.004372545383020373,0.009776292430260557
1668678529.0628672,57770,1668678529,62768414,,-0.07513975303036434,-0.6140958412753732,0.06836445172990524,0.9955579607714854,0.09353957235520037,-0.0043725474491964275,0.00977629668802758
1668678529.070671,57771,1668678529,70467881,,-0.074752938727288,-0.6141281471732535,0.06826851153111102,0.9955579607213424,0.0935395723644927,-0.004372549451515038,0.009776300809813468
1668678529.0781496,57772,1668678529,78056355,,-0.07437292399641401,-0.6141586722272364,0.06817944969472232,0.9955579606729066,0.09353957237377844,-0.004372551386474089,0.00977630478793016
1668678529.0862532,57773,1668678529,86153103,,-0.07399900501985117,-0.61418834623771,0.06809664914218562,0.9955579606259695,0.09353957238304537,-0.004372553261957322,0.009776308640234769
1668678529.094052,57774,1668678529,93937408,,-0.07363108747346334,-0.6142174572921314,0.0680196760690171,0.9955579605804458,0.09353957239228597,-0.004372555081147561,0.0097763123740089
1668678529.1029227,57775,1668678529,102705578,,-0.07326919363266715,-0.6142459779446585,0.06794820571295888,0.99555796053634,0.09353957240149684,-0.004372556843848339,0.009776315988937734
1668678529.1112404,57776,1668678529,111070782,,-0.07291268969920339,-0.6142743403596742,0.06788168524417125,0.9955579604935324,0.09353957241067025,-0.004372558554582444,0.009776319495285058
1668678529.1183195,57777,1668678529,118152742,,-0.07256081731360473,-0.6143031767506204,0.06781945905453993,0.9955579604518427,0.0935395724197972,-0.004372560220156479,0.009776322908414311
1668678529.1263719,57778,1668678529,126257636,,-0.07221300144587596,-0.6143329475792499,0.0677611651181506,0.9955579604111493,0.09353957242887113,-0.004372561845186595,0.009776326238750304
1668678529.1341283,57779,1668678529,133933791,,-0.0718700576423161,-0.614363355086578,0.06770717747873889,0.9955579603714984,0.0935395724378912,-0.004372563427893026,0.00977632948236398
1668678529.142533,57780,1668678529,142403895,,-0.07153289477456778,-0.6143938032390964,0.06765784097066087,0.9955579603331188,0.09353957244686127,-0.004372564959569719,0.009776332619797132
1668678529.1502867,57781,1668678529,150115063,,-0.07120177255953467,-0.614423970690114,0.0676131916632271,0.995557960296009,0.0935395724557782,-0.004372566440267094,0.009776335651254669
1668678529.1581793,57782,1668678529,158029435,,-0.07087654507008224,-0.6144540773119501,0.06757325839941049,0.9955579602601815,0.0935395724646394,-0.004372567869476417,0.00977633857568005
1668678529.1664348,57783,1668678529,166309774,,-0.0705562352608694,-0.6144848553748188,0.06753775484838229,0.9955579602254283,0.09353957247343656,-0.004372569255076661,0.009776341410818722
