Time,header.seq,header.stamp.secs,header.stamp.nsecs,header.frame_id,twist.linear.x,twist.linear.y,twist.linear.z,twist.angular.x,twist.angular.y,twist.angular.z
1668678526.6538887,57469,1668678526,653776046,,-5.2294040007934975e-06,2.4695876640659375e-09,-0.00035329222504873014,1.824293012145381e-06,-7.349567990847408e-07,-9.41708759713886e-09
1668678526.6621284,57470,1668678526,662028163,,-3.979220262966486e-06,2.3799100691582072e-09,-0.0003549195324697763,1.8185484540392408e-06,-7.294684185396556e-07,-9.35756434091475e-09
1668678526.670409,57471,1668678526,670187828,,-2.8199354493301413e-06,2.273090697690117e-09,-0.00035432533683964267,1.8126167079433918e-06,-7.23930224802685e-07,-9.297315668301119e-09
1668678526.6783085,57472,1668678526,678132424,,-1.7466588967958496e-06,2.191571386869962e-09,-0.00035615230656269416,1.806500018941278e-06,-7.183433219666108e-07,-9.236355048194595e-09
1668678526.6861558,57473,1668678526,686050927,,-7.547268152144063e-07,2.119201239373167e-09,-0.0003587583984340398,1.8002006379308539e-06,-7.127088115905248e-07,-9.174695934997802e-09
1668678526.6943083,57474,1668678526,694128691,,1.6033649701163015e-07,2.0854746143447024e-09,-0.0003654651152621528,1.7937208213006329e-06,-7.070277925818353e-07,-9.112351765842866e-09
1668678526.7023358,57475,1668678526,702234218,,1.0027885726568294e-06,2.063258553065667e-09,-0.0003734459603884071,1.787062830610844e-06,-7.013013610854079e-07,-9.049335959357101e-09
1668678526.7103007,57476,1668678526,710166978,,1.7766934364985924e-06,2.027566272157411e-09,-0.000380059548217598,1.7802289322470436e-06,-6.955306103602835e-07,-8.985661909994825e-09
1668678526.7186449,57477,1668678526,718462327,,2.4859468046863357e-06,1.9926313246707424e-09,-0.00038675221985167953,1.773221397123129e-06,-6.897166306651377e-07,-8.921342994099626e-09
1668678526.7265105,57478,1668678526,726318938,,3.1342665518366052e-06,1.9857504226123575e-09,-0.0003963164273118246,1.7660425003206927e-06,-6.83860509136219e-07,-8.856392560829225e-09
1668678526.7345603,57479,1668678526,734213595,,3.725181040713627e-06,1.9845566681622453e-09,-0.0004065433276004172,1.7586945207985935e-06,-6.779633296818864e-07,-8.790823931269615e-09
1668678526.742563,57480,1668678526,742402686,,4.262052107784839e-06,1.965755240578284e-09,-0.0004151602138828298,1.751179741050298e-06,-6.720261728662416e-07,-8.72465040882709e-09
1668678526.7502427,57481,1668678526,750065679,,4.7481220452406265e-06,2.0206826788137697e-09,-0.0004308174669680758,1.7435004467892662e-06,-6.660501157961244e-07,-8.657885264179442e-09
1668678526.7583313,57482,1668678526,758142996,,5.18633543612682e-06,1.8221592561316763e-09,-0.0004231647880658182,1.735658926644535e-06,-6.600362320135113e-07,-8.590541737803499e-09
1668678526.7668898,57483,1668678526,766661465,,5.579653285611836e-06,1.5190897714237995e-09,-0.00040407490945343593,1.7276574718417688e-06,-6.539855913899436e-07,-8.522633035858553e-09
1668678526.774463,57484,1668678526,774165354,,5.930896266284041e-06,1.2634467566391729e-09,-0.00038680856330598843,1.7194983758754115e-06,-6.478992600078513e-07,-8.45417234511192e-09
1668678526.7823348,57485,1668678526,782197794,,6.242691229764479e-06,1.0382063165473725e-09,-0.0003701434682487372,1.711183934211144e-06,-6.417783000634307e-07,-8.385172806348043e-09
1668678526.7906487,57486,1668678526,790529413,,6.517553307744593e-06,8.798801919187633e-10,-0.0003584443272206986,1.702716443975466e-06,-6.356237697609457e-07,-8.315647525296055e-09
1668678526.7988029,57487,1668678526,798543099,,6.7578496067068546e-06,7.576258149132648e-10,-0.00034927463139778134,1.6940982036558493e-06,-6.294367232074181e-07,-8.245609573353152e-09
1668678526.8069134,57488,1668678526,806635666,,6.965810422033935e-06,5.907202351576246e-10,-0.00033365829612625836,1.6853315127784145e-06,-6.232182103088625e-07,-8.175071985483948e-09
1668678526.8145921,57489,1668678526,814445809,,7.14359271239105e-06,4.186257051547443e-10,-0.0003151765544526833,1.6764186716240507e-06,-6.16969276670007e-07,-8.10404775354247e-09
1668678526.8221452,57490,1668678526,821952868,,7.29322703313518e-06,2.3259809013458205e-10,-0.00029204518174903997,1.6673619809184792e-06,-6.106909634981723e-07,-8.03254982812546e-09
1668678526.8303823,57491,1668678526,830120277,,7.416658877927881e-06,8.235536118564446e-11,-0.00027016540664968766,1.6581637415380746e-06,-6.043843074994193e-07,-7.960591126122835e-09
1668678526.8386278,57492,1668678526,838486660,,7.515708145103361e-06,-5.491880367016534e-11,-0.00024666610658297876,1.6488262542215804e-06,-5.980503407828127e-07,-7.888184516187678e-09
1668678526.8462906,57493,1668678526,846154647,,7.5921099373495574e-06,-1.6854724362252558e-10,-0.00022305148823741094,1.6393518192568068e-06,-5.916900907689071e-07,-7.81534281629848e-09
1668678526.8539052,57494,1668678526,853802676,,7.647491309379598e-06,-2.9418743030823373e-10,-0.00019261435411352604,1.6297427362144817e-06,-5.85304580088595e-07,-7.742078807032143e-09
1668678526.862705,57495,1668678526,862475315,,7.683422012136004e-06,-3.780147719971214e-10,-0.0001642022087237152,1.6200013036462301e-06,-5.788948264968842e-07,-7.668405214348887e-09
1668678526.8702986,57496,1668678526,870113122,,7.701360653488652e-06,-4.446474392174066e-10,-0.0001330524777785193,1.6101298187967543e-06,-5.724618427782228e-07,-7.594334719663467e-09
1668678526.8783042,57497,1668678526,878162916,,7.70269799610331e-06,-4.821426069089666e-10,-0.00010165244949522995,1.6001305773268376e-06,-5.66006636655908e-07,-7.519879959911246e-09
1668678526.8867881,57498,1668678526,886563253,,6.375862934705633e-06,-4.575010243233909e-10,-8.631643846380212e-05,1.5900058648596689e-06,-5.59530251865861e-07,-7.445053508467928e-09
1668678526.894335,57499,1668678526,894193181,,4.421379298958189e-06,-4.119417682900062e-10,-7.932290815373144e-05,1.5797579760685226e-06,-5.530336622590277e-07,-7.369867892658575e-09
1668678526.9028542,57500,1668678526,902539683,,3.5699033933661662e-06,-3.593885878059275e-10,-7.677999578316971e-05,1.5693892127761073e-06,-5.465178064477757e-07,-7.294335586632371e-09
1668678526.911688,57501,1668678526,911357627,,2.7786637795599178e-06,-3.1004060818971644e-10,-7.428655105564118e-05,1.558901854454106e-06,-5.399837039199054e-07,-7.218469009743089e-09
1668678526.918105,57502,1668678526,917997199,,2.5509423517254117e-06,-2.72544105771921e-10,-6.682455158203442e-05,1.548298189032465e-06,-5.334323209985813e-07,-7.142280527453725e-09
1668678526.926252,57503,1668678526,926102468,,2.6041505595168907e-06,-2.3946848507907813e-10,-5.718079816149569e-05,1.537580494533536e-06,-5.268646421577159e-07,-7.06578244632291e-09
1668678526.934426,57504,1668678526,934280602,,2.7897996296220133e-06,-1.926968061079135e-10,-5.7689710093533964e-05,1.5267510464239879e-06,-5.202816418943231e-07,-6.988987016299524e-09
1668678526.9419541,57505,1668678526,941829898,,3.0302903481220424e-06,-1.4103211544341602e-10,-6.371113717931472e-05,1.5158121170499387e-06,-5.13684286752194e-07,-6.911906428496689e-09
1668678526.9502592,57506,1668678526,950152333,,3.245801404898721e-06,-9.320554056931705e-11,-6.913111170817002e-05,1.5047659747829062e-06,-5.070735374478447e-07,-6.834552814403184e-09
1668678526.9590087,57507,1668678526,958786494,,3.4775698086097643e-06,-4.370666770207951e-11,-7.69956694361632e-05,1.493614884690371e-06,-5.004503452553388e-07,-6.756938235235395e-09
1668678526.9663768,57508,1668678526,966160109,,3.7051451678518157e-06,-4.9073684060434086e-11,-5.5617601171032666e-05,1.4823611068283806e-06,-4.938156572849829e-07,-6.679074702101779e-09
1668678526.9741447,57509,1668678526,974025440,,3.918538915808596e-06,-5.5153338622942436e-11,-2.0767352329436066e-05,1.4710068965378738e-06,-4.871704142920195e-07,-6.600974160821493e-09
1668678526.9820397,57510,1668678526,981906517,,4.113229718560515e-06,-3.095718356515753e-11,8.704025010749063e-06,1.45955450416713e-06,-4.805155507498405e-07,-6.52264848050385e-09
1668678526.9904292,57511,1668678526,990222705,,4.284430233681274e-06,1.1033027722201912e-11,3.58295954384229e-05,1.448006174781368e-06,-4.738519949584529e-07,-6.444109476164944e-09
1668678526.9984097,57512,1668678526,998167325,,4.436761846729567e-06,4.989942950048974e-11,4.842580179463945e-05,1.4363641479662865e-06,-4.671806686933218e-07,-6.3653688933413e-09
1668678527.0063894,57513,1668678527,6185943,,4.569948231136724e-06,7.913120929055008e-11,5.343305847250903e-05,1.4246306575021182e-06,-4.605024875493804e-07,-6.286438416444154e-09
1668678527.013917,57514,1668678527,13788311,,4.684463379363942e-06,9.58985107622639e-11,5.061193011264406e-05,1.412807931141816e-06,-4.5381836070893466e-07,-6.207329649907892e-09
1668678527.0229814,57515,1668678527,22761469,,4.780689764840881e-06,1.1153544865108556e-10,4.7913871892536624e-05,1.400898190385917e-06,-4.4712919090509815e-07,-6.12805413680106e-09
1668678527.0309021,57516,1668678527,30742118,,4.860341579743062e-06,1.2142754148807563e-10,4.1180250745270266e-05,1.3889036502407512e-06,-4.4043587431383784e-07,-6.0486233506075956e-09
1668678527.0389132,57517,1668678527,38719576,,4.92435577977594e-06,1.2992387164187408e-10,3.269075180992334e-05,1.3768265189972197e-06,-4.3373930055829235e-07,-5.969048682210481e-09
1668678527.0464869,57518,1668678527,46241821,,4.973734226813256e-06,1.5835167570286094e-10,4.6313163393092935e-05,1.3646689979757228e-06,-4.270403526074596e-07,-5.889341462568504e-09
1668678527.054801,57519,1668678527,54608142,,5.00947475177678e-06,2.036686974887826e-10,7.015465489542555e-05,1.3524332813274704e-06,-4.2033990673184943e-07,-5.80951294954151e-09
1668678527.0619147,57520,1668678527,61804443,,5.032553440656936e-06,2.6771512306076137e-10,9.804231998975608e-05,1.3401215557945216e-06,-4.136388324437182e-07,-5.72957432153003e-09
1668678527.07039,57521,1668678527,70186534,,5.043885516025243e-06,3.383414464335516e-10,0.00012353308137248026,1.3277360004923933e-06,-4.069379924348024e-07,-5.649536686937485e-09
1668678527.0783978,57522,1668678527,78245248,,5.044385143207703e-06,3.8371969198083846e-10,0.00013879268489054564,1.3152787866914136e-06,-4.002382425175553e-07,-5.5694110679207104e-09
1668678527.0870564,57523,1668678527,86638619,,5.034899569456808e-06,4.0958211375556794e-10,0.0001483626189613574,1.3027520776102986e-06,-3.9354043158046865e-07,-5.489208428823152e-09
1668678527.0940044,57524,1668678527,93810751,,5.01624290330213e-06,4.499587412060666e-10,0.0001618344297132146,1.2901580281869338e-06,-3.868454015298129e-07,-5.408939644024888e-09
1668678527.102409,57525,1668678527,102193461,,4.989164773484286e-06,4.84798447821271e-10,0.00017392254598474292,1.2774987848867794e-06,-3.801539872359199e-07,-5.328615514544471e-09
1668678527.110185,57526,1668678527,110057512,,4.954378532257725e-06,4.903291898249405e-10,0.0001795006479338409,1.264776485471583e-06,-3.734670164784644e-07,-5.248246758774087e-09
1668678527.1190004,57527,1668678527,118789088,,4.912564002101795e-06,4.790079814921876e-10,0.00018150627238889956,1.2519932588117548e-06,-3.667853099024531e-07,-5.1678440190609944e-09
1668678527.1262703,57528,1668678527,126148605,,4.864366426765479e-06,4.758471407155056e-10,0.00018528733751844198,1.2391512246849083e-06,-3.601096809701674e-07,-5.087417861112066e-09
1668678527.1343627,57529,1668678527,134216985,,4.810383012596348e-06,4.74842583807964e-10,0.00018960297610839862,1.226252493573544e-06,-3.5344093591270216e-07,-5.006978766488226e-09
1668678527.1418955,57530,1668678527,141775550,,4.751176916129137e-06,4.749665945326659e-10,0.00019423946929752643,1.2132991664680704e-06,-3.4677987368096854e-07,-4.926537128121108e-09
1668678527.1510434,57531,1668678527,150804271,,4.687275600578118e-06,4.709834222425621e-10,0.00019812645602934452,1.200293334667713e-06,-3.40127285899237e-07,-4.846103260024284e-09
1668678527.1584132,57532,1668678527,158267776,,4.619163983878659e-06,4.2763453162617977e-10,0.00019408177082551873,1.1872370796032873e-06,-3.3348395683365003e-07,-4.7656874059397796e-09
1668678527.1662836,57533,1668678527,166140097,,4.5473161625900716e-06,3.6884314770152353e-10,0.0001861315776297951,1.1741324726342017e-06,-3.268506633390162e-07,-4.685299709420869e-09
1668678527.1743782,57534,1668678527,174252049,,4.4721732603134675e-06,3.0820708498470585e-10,0.00017652870613810251,1.1609815748692318e-06,-3.2022817481667835e-07,-4.604950238545956e-09
1668678527.1833143,57535,1668678527,183112679,,4.394147228959863e-06,2.55884698564286e-10,0.000167336371298475,1.1477864369979337e-06,-3.1361725318858915e-07,-4.524648973645913e-09
1668678527.191189,57536,1668678527,190937770,,4.313629474322284e-06,2.394354423956803e-10,0.00016551779562249875,1.1345490990845638e-06,-3.070186528472553e-07,-4.4444058149722705e-09
1668678527.1983128,57537,1668678527,198133258,,4.230969652502504e-06,2.384598343634216e-10,0.00016722602799027844,1.1212715904077551e-06,-3.0043312061886767e-07,-4.3642305604405795e-09
1668678527.2061841,57538,1668678527,206074866,,4.146485950294522e-06,2.1067437859339873e-10,0.00016253341705284473,1.107955929287184e-06,-2.938613957358155e-07,-4.2841329432666264e-09
1668678527.2145925,57539,1668678527,214389846,,4.0604942227908e-06,1.7307455997808617e-10,0.0001547483197419293,1.0946041229077167e-06,-2.8730420979427667e-07,-4.204122594892648e-09
1668678527.222039,57540,1668678527,221916678,,3.973276297737577e-06,1.0629327905900411e-10,0.00013780934221818553,1.0812181671520512e-06,-2.807622867248623e-07,-4.124209076021771e-09
1668678527.230354,57541,1668678527,230164515,,3.88511570244945e-06,5.5233795351682965e-11,0.0001219369341455897,1.0678000464338119e-06,-2.7423634276356205e-07,-4.0444018315041914e-09
1668678527.2386117,57542,1668678527,238432096,,3.79625560393369e-06,3.5607451738333427e-12,0.00010207052365000518,1.0543517335342844e-06,-2.67727086413925e-07,-3.964710244183058e-09
1668678527.246899,57543,1668678527,246668218,,3.706930575905586e-06,-3.6882345834270064e-11,8.091747755362801e-05,1.0408751894412283e-06,-2.6123521842006047e-07,-3.8851435924166174e-09
1668678527.253998,57544,1668678527,253868509,,3.6173645026144225e-06,-3.506775938683959e-11,7.520592204310694e-05,1.0273723631893251e-06,-2.5476143174059573e-07,-3.8057110746159115e-09
1668678527.2623138,57545,1668678527,262169942,,3.5277401964987692e-06,-3.192378012584726e-11,6.979730583493116e-05,1.0138451917232116e-06,-2.4830641152393094e-07,-3.7264217891641674e-09
1668678527.270258,57546,1668678527,270068564,,3.4382368306279127e-06,-3.402465853571433e-11,6.078381307171557e-05,1.0002955997234415e-06,-2.418708350781043e-07,-3.6472847504807773e-09
1668678527.279172,57547,1668678527,278795412,,3.3490231756602325e-06,-3.5791598690903716e-11,5.029425232979472e-05,9.86725499467353e-07,-2.3545537184939411e-07,-3.568308880241802e-09
1668678527.2862523,57548,1668678527,286093410,,3.260255980579484e-06,-2.6610387594961006e-11,4.676608750868774e-05,9.731367906791994e-07,-2.290606833964595e-07,-3.489503008117736e-09
1668678527.294068,57549,1668678527,293907885,,3.1720728676153686e-06,-1.3791766095656194e-11,4.673210942058608e-05,9.59531360395508e-07,-2.2268742336869313e-07,-3.4108758688046584e-09
1668678527.3023005,57550,1668678527,302196873,,3.0846001241863317e-06,-2.0573107989853058e-12,4.6608631697387756e-05,9.459110828089233e-07,-2.1633623748153024e-07,-3.332436111011251e-09
1668678527.3102648,57551,1668678527,310121866,,2.9979533639980046e-06,6.30801921086784e-12,4.4336931701940544e-05,9.322778191486246e-07,-2.100077635085584e-07,-3.254192287656934e-09
1668678527.3183863,57552,1668678527,318215355,,2.9122451258390708e-06,3.157487565824667e-11,5.672170270791684e-05,9.186334175289668e-07,-2.0370263124966266e-07,-3.1761528580673748e-09
1668678527.3269248,57553,1668678527,326622541,,2.8275693740613763e-06,6.956090438590396e-11,7.570321595932092e-05,9.049797128213157e-07,-1.9742146252144824e-07,-3.0983261917624197e-09
1668678527.33428,57554,1668678527,333957924,,2.7440084475941493e-06,1.1011448641368908e-10,9.324900738705377e-05,8.913185265321026e-07,-1.9116487113928934e-07,-3.0207205563918037e-09
1668678527.3428695,57555,1668678527,342679097,,2.6616383253671194e-06,1.507220889412087e-10,0.00010922449780075241,8.776516666684514e-07,-1.849334628998146e-07,-2.943344134874862e-09
1668678527.3502452,57556,1668678527,350077158,,2.5805120173442558e-06,1.4656074886298373e-10,0.00010850551618119248,8.639809276115991e-07,-1.787278355679414e-07,-2.86620501151173e-09
1668678527.3583875,57557,1668678527,358260876,,2.5006980637046966e-06,1.2096128859248909e-10,9.958546600285562e-05,8.503080900003131e-07,-1.7254857886743791e-07,-2.789311181558206e-09
1668678527.3663435,57558,1668678527,366216709,,2.4222815429414626e-06,1.6680712838537648e-10,0.00011715838019298607,8.36634920612956e-07,-1.663962744683432e-07,-2.7126705363865784e-09
1668678527.3741026,57559,1668678527,373924975,,2.3452992051155147e-06,2.564216020909819e-10,0.000146852834454715,8.229631722475586e-07,-1.6027149597026482e-07,-2.636290875726947e-09
1668678527.3823245,57560,1668678527,382188305,,2.2697769445937994e-06,3.4936864053141587e-10,0.00017391133933786324,8.092945836029289e-07,-1.5417480889859616e-07,-2.560179909568389e-09
1668678527.390396,57561,1668678527,390247901,,2.1957463606642475e-06,4.393594820561325e-10,0.00019823153056745726,7.956308791919277e-07,-1.481067706967035e-07,-2.4843452445200336e-09
1668678527.3984354,57562,1668678527,398246969,,2.123201278012019e-06,4.265701184896025e-10,0.00020136065898790852,7.819737692017239e-07,-1.4206793071821026e-07,-2.408794399188522e-09
1668678527.4063308,57563,1668678527,406137756,,2.0521818857428105e-06,3.6126304497022674e-10,0.00019385485435002546,7.683249494096966e-07,-1.360588302176842e-07,-2.333534789328672e-09
1668678527.41402,57564,1668678527,413882619,,1.9827240790823137e-06,2.953032742249506e-10,0.00018495096935984537,7.546861010727549e-07,-1.3008000234884651e-07,-2.258573727968418e-09
1668678527.4223006,57565,1668678527,422139523,,1.9148444557866186e-06,2.3751804814242663e-10,0.0001763857775131387,7.410588908299383e-07,-1.2413197215817434e-07,-2.183918452831075e-09
1668678527.430519,57566,1668678527,430305690,,1.8485617551698096e-06,2.1511146940043975e-10,0.00017464626665630306,7.27444970605488e-07,-1.1821525658630548e-07,-2.109576091316459e-09
1668678527.4388654,57567,1668678527,438698019,,1.783874644377379e-06,2.081412523390404e-10,0.00017612473789833236,7.138459775149604e-07,-1.1233036446207729e-07,-2.035553670934214e-09
1668678527.446457,57568,1668678527,446219470,,1.7207870793050944e-06,2.224492958003294e-10,0.00018233865553122754,7.002635337635522e-07,-1.0647779650102701e-07,-1.961858136895416e-09
1668678527.45394,57569,1668678527,453826301,,1.6592932350459914e-06,2.4500918556612117e-10,0.00019045551257192852,6.866992465627889e-07,-1.0065804530500273e-07,-1.8884963205271365e-09
1668678527.4622104,57570,1668678527,462089820,,1.5993839713605572e-06,2.6197894483387185e-10,0.000197555330985548,6.731547080530703e-07,-9.487159537185667e-08,-1.8154749687170046e-09
1668678527.470914,57571,1668678527,470556724,,1.5410424431629205e-06,2.4521288726277883e-10,0.0001980058533281651,6.59631495216099e-07,-8.911892309091189e-08,-1.74280072503284e-09
1668678527.478391,57572,1668678527,478215260,,1.484251915862238e-06,1.7431816211524118e-10,0.0001871028056438749,6.461311697793317e-07,-8.340049674681941e-08,-1.670480135752682e-09
1668678527.4862175,57573,1668678527,486115447,,1.42901378668087e-06,8.841984922992113e-11,0.00017094983970593423,6.326552781441111e-07,-7.771677652198116e-08,-1.5985196543858273e-09
1668678527.4943829,57574,1668678527,494281435,,1.3753312699350003e-06,3.807351188895542e-11,0.00016033987732730825,6.192053513251173e-07,-7.206821450649696e-08,-1.5269256267997788e-09
1668678527.5032294,57575,1668678527,502940326,,1.3231790699048293e-06,-3.5160764690985265e-12,0.00015025196005473326,6.057829048489226e-07,-6.645525469985722e-08,-1.4557043148071484e-09
1668678527.5108597,57576,1668678527,510763067,,1.2725379820622163e-06,-4.03467307927795e-11,0.00013985018988315188,5.923894387029759e-07,-6.08783330234373e-08,-1.3848618801118412e-09
1668678527.5189743,57577,1668678527,518800810,,1.2233890526845363e-06,-7.11221496877147e-11,0.0001295447178010202,5.790264372701877e-07,-5.5337877329661054e-08,-1.3144043797384666e-09
1668678527.5269842,57578,1668678527,526834026,,1.1757073836549814e-06,-1.0774424583832252e-10,0.00011556475655301404,5.656953692429907e-07,-4.98343074025329e-08,-1.244337773162237e-09
1668678527.535215,57579,1668678527,534917794,,1.1294744530868047e-06,-1.3991062495879297e-10,0.00010022634781839099,5.523976875757345e-07,-4.436803497521718e-08,-1.1746679378725642e-09
1668678527.542313,57580,1668678527,542176639,,1.0846624937852984e-06,-1.8098214777652798e-10,7.677225092943447e-05,5.391348294168905e-07,-3.893946373857548e-08,-1.1054006382007633e-09
1668678527.550805,57581,1668678527,550615784,,1.0412572885503046e-06,-2.0204545156632828e-10,5.501991116716066e-05,5.259082160472605e-07,-3.354898935273873e-08,-1.0365415376460773e-09
1668678527.5590937,57582,1668678527,558929386,,9.99230874653832e-07,-2.1171636612610164e-10,3.0699813832679245e-05,5.127192528329573e-07,-2.819699946456314e-08,-9.680962130920655e-10
1668678527.5672696,57583,1668678527,567076469,,9.585590535480689e-07,-2.0550614709759126e-10,6.036876110096087e-06,4.995693291764453e-07,-2.2883873717154875e-08,-9.000701479123912e-10
1668678527.5742977,57584,1668678527,574118737,,9.192146704774203e-07,-1.8570672517509308e-10,-1.0342844443892812e-05,4.86459818448792e-07,-1.7609983768620707e-08,-8.324687204916189e-10
1668678527.5821798,57585,1668678527,582039946,,8.811686514164066e-07,-1.5869211833361594e-10,-2.973859908378052e-05,4.7339207795185597e-07,-1.2375693302598645e-08,-7.652972099242642e-10
1668678527.5903757,57586,1668678527,590270735,,8.443932343621067e-07,-1.2572481480392865e-10,-4.754315879028206e-05,4.6036744886570017e-07,-7.181358046573231e-09,-6.985608016102931e-10
1668678527.598412,57587,1668678527,598183428,,1.0035499929210845e-06,-8.594660361880086e-11,-6.615186567877246e-05,4.473872561147255e-07,-2.0273241017215097e-09,-6.322645907201224e-10
1668678527.6064568,57588,1668678527,606275155,,1.7322127410783858e-06,-6.196446187412081e-11,-7.315533437413595e-05,4.344528080974086e-07,3.0860716935915373e-09,-5.664135701133882e-10
1668678527.6142077,57589,1668678527,614007304,,3.373319303790556e-06,-4.9671331316604524e-11,-7.418395812551865e-05,4.215653959456617e-07,8.158500078490295e-09,-5.010126349300767e-10
1668678527.6218722,57590,1668678527,621765614,,6.240898710860615e-06,-6.248265371288414e-11,-6.121367143567052e-05,4.0872629216346807e-07,1.3189639853955048e-08,-4.3606658081916667e-10
1668678527.6312242,57591,1668678527,630974316,,1.0621754611414844e-05,-6.84070560401903e-11,-4.91474627558821e-05,3.9593674882179935e-07,1.817917853016613e-08,-3.7158011776622997e-10
1668678527.6387768,57592,1668678527,638609594,,1.6777025507516782e-05,-5.963002639027673e-11,-4.58238161228168e-05,3.831979955037381e-07,2.3126813040782733e-08,-3.075578520567125e-10
1668678527.6461987,57593,1668678527,645971528,,2.4943697115681432e-05,-4.4585216974503227e-11,-4.683474146362434e-05,3.7051123710772236e-07,2.8032250505341103e-08,-2.440043009833905e-10
1668678527.6549053,57594,1668678527,654688924,,3.5336042353934374e-05,-4.2154217947043e-11,-3.481479752436873e-05,3.5787765167977e-07,3.289520899003277e-08,-1.8092388032891777e-10
1668678527.6624644,57595,1668678527,662240340,,-2.3550644029984016e-05,-6.802244455141414e-11,4.702511972157873e-05,3.4529929038554734e-07,3.771465878127153e-08,-1.183208107500503e-10
1668678527.6702337,57596,1668678527,670125207,,-7.403923382624324e-05,1.2433851487107303e-10,0.0001223058548877602,3.3277479414264316e-07,4.2491712368234466e-08,-5.619957911583498e-11
1668678527.6783788,57597,1668678527,678182350,,-0.00015420606030180806,7.181229729443173e-10,0.00022881388421030647,3.203035408585931e-07,4.722647667302618e-08,5.435522772980969e-12
1668678527.6861978,57598,1668678527,686044082,,-0.0003154388965937249,2.415514311962941e-09,0.00037650432191951074,3.0787521779752243e-07,5.192231460296859e-08,6.657935617757071e-11
1668678527.6944084,57599,1668678527,694221236,,-0.0005072416383752889,5.52003249235788e-09,0.0005382541137744928,2.9548284445080786e-07,5.658205412016002e-08,1.2722716478431872e-10
1668678527.702639,57600,1668678527,702443141,,-0.0006776330549034674,9.295190113158014e-09,0.0006861618704032346,2.8313712172164684e-07,6.120248178988823e-08,1.8737602441865064e-10
1668678527.7102304,57601,1668678527,710063053,,-0.0008275045813557037,1.3447087446429285e-08,0.0008272360326440488,2.708454425915546e-07,6.578119996585765e-08,2.470227941468728e-10
1668678527.7182767,57602,1668678527,718103112,,-0.0008704787235511225,1.4985640588644065e-08,0.0009138007067617016,2.586598592305699e-07,7.030106422053819e-08,3.0616878325152863e-10
1668678527.7264078,57603,1668678527,726236072,,-0.0008556918045618706,1.4791659533094679e-08,0.0009696394068569176,2.4656692229368196e-07,7.476647588995565e-08,3.648090423497008e-10
1668678527.7340436,57604,1668678527,733855973,,-0.0007785278583754532,1.228211885590026e-08,0.0009737190981865168,2.3456877223123582e-07,7.917681981944074e-08,4.2294023730286845e-10
1668678527.7423708,57605,1668678527,742183924,,-0.0006987243199151963,9.96813972972063e-09,0.0009755556417261923,2.2263339620964554e-07,8.354281868656448e-08,4.805557559956625e-10
1668678527.7502153,57606,1668678527,750086846,,-0.0005871355185043956,4.998794998339668e-09,0.0008723394720911286,2.107723903352918e-07,8.786078261536337e-08,5.376533495759367e-10
1668678527.7586594,57607,1668678527,758403884,,-0.0004598184880766238,-1.8880398769368288e-10,0.0007210670663576577,1.9897583083106374e-07,9.213414422694778e-08,5.942287479134348e-10
1668678527.7663114,57608,1668678527,766115032,,-0.00032513436194296,-4.790654388741772e-09,0.0005250411555582226,1.872393787944216e-07,9.636448394291925e-08,6.502783254360919e-10
1668678527.7745783,57609,1668678527,774446855,,-0.00018738094936505642,-7.821633627819614e-09,0.0003142227235942609,1.7556171436003547e-07,1.0055238004829188e-07,7.057988426020269e-10
1668678527.7820954,57610,1668678527,781916812,,-4.8714885710054e-05,-9.118644966759854e-09,9.185846399220452e-05,1.6394299646778076e-07,1.0469792091325494e-07,7.607873034082713e-10
1668678527.7905455,57611,1668678527,790237720,,8.862487065063973e-05,-8.655239475324093e-09,-0.00011311674969808662,1.5238408166005696e-07,1.0880096210702348e-07,8.152408677059193e-10
1668678527.7985263,57612,1668678527,798266365,,0.00022606817120533404,-6.608738390263677e-09,-0.0003387138898213886,1.4088614483538363e-07,1.1286126253077424e-07,8.691568287029321e-10
1668678527.8071787,57613,1668678527,806969924,,0.0003631557162478959,-3.005313871380136e-09,-0.0005654076408268071,1.2945023627145934e-07,1.1687862025223587e-07,9.225325618440056e-10
1668678527.8144827,57614,1668678527,814321370,,0.0004997326839910472,1.5251402049890342e-09,-0.0007646100640733271,1.1807745674005114e-07,1.2085281875254275e-07,9.753655366012692e-10
1668678527.8223839,57615,1668678527,822236391,,0.0006356203795257334,6.699464551700737e-09,-0.0009465642529401701,1.0676894852427696e-07,1.2478362915127486e-07,1.0276533309212799e-09
1668678527.830369,57616,1668678527,830170718,,0.0007711720022412817,1.1390549186889554e-08,-0.0010803926006242978,9.552566266715565e-08,1.286708896853749e-07,1.0793935812433014e-09
1668678527.8381796,57617,1668678527,838036397,,0.0009064507888616905,1.565061229025367e-08,-0.0011846523071293554,8.43485690884875e-08,1.3251443313445563e-07,1.1305840319931343e-09
1668678527.8463037,57618,1668678527,846153552,,0.001041554347134437,1.7347526833363816e-08,-0.001197855136955647,7.323858001724069e-08,1.3631411328974088e-07,1.1812225006718052e-09
1668678527.8541527,57619,1668678527,854011224,,0.0011765949602940214,1.7836143824876965e-08,-0.001165050325998031,6.21965509300138e-08,1.4006980455109815e-07,1.2313069019248557e-09
1668678527.8623395,57620,1668678527,862065870,,0.0013116732671033127,1.8641720242577126e-08,-0.001132539369063179,5.1223294582324606e-08,1.4378139712514781e-07,1.2808352269425005e-09
1668678527.870181,57621,1668678527,870066717,,0.0014469213579429204,1.8456011952127442e-08,-0.001055172510208072,4.031954905138349e-08,1.4744880782956138e-07,1.3298055569037348e-09
1668678527.8782258,57622,1668678527,878111495,,0.0015824406017919117,1.824244946550245e-08,-0.0009583278257962129,2.9486023740024847e-08,1.5107196446467345e-07,1.3782160638436958e-09
1668678527.8865721,57623,1668678527,886319736,,0.001718326688399392,1.843943357758543e-08,-0.0008547746877395483,1.8723386111884846e-08,1.546508102954515e-07,1.4260649969927153e-09
1668678527.8941176,57624,1668678527,893958886,,0.0018546686585879278,1.96873014214471e-08,-0.0007736287906749923,8.032265292888969e-09,1.581853028082819e-07,1.4733506962204268e-09
1668678527.902204,57625,1668678527,902035376,,0.001991546904340244,2.1428887563586623e-08,-0.0006973684311067133,-2.5867434281875057e-09,1.6167541217234477e-07,1.5200715881326377e-09
1668678527.9104388,57626,1668678527,910192995,,0.0021290378567977745,2.4229283804415436e-08,-0.0006603711379288876,-1.3133080157718026e-08,1.6512112173617177e-07,1.5662261834692437e-09
1668678527.9190526,57627,1668678527,918678472,,0.002267208623422731,2.7548505515225447e-08,-0.0006433120689512317,-2.3606212589732457e-08,1.6852242537039532e-07,1.6118130771042294e-09
1668678527.9263277,57628,1668678527,926038059,,0.002406119970275577,3.1348364540147214e-08,-0.0006474340144533721,-3.4005635879390684e-08,1.7187932739339267e-07,1.6568309593213704e-09
1668678527.934122,57629,1668678527,933865041,,0.0025458263573594625,3.5387352886698234e-08,-0.0006611256833651478,-4.433087048037198e-08,1.7519184182926471e-07,1.7012785962985943e-09
1668678527.9423797,57630,1668678527,942235036,,0.0026863762478838244,3.9433604560506524e-08,-0.0006724314021601332,-5.45814600702643e-08,1.7845999166981956e-07,1.7451548418173646e-09
1668678527.9511185,57631,1668678527,950928836,,0.0028278130210853884,4.4052041915015004e-08,-0.0007104634828343655,-6.475697022792235e-08,1.8168380841232295e-07,1.7884586285890625e-09
1668678527.9589748,57632,1668678527,958732918,,0.002970174899645789,5.050838495955383e-08,-0.0008319507695618698,-7.485698624103799e-08,1.8486333128573025e-07,1.8311889843011797e-09
1668678527.9670444,57633,1668678527,966949817,,0.003113494533673117,5.811677514179401e-08,-0.0009886651659847747,-8.488111185545543e-08,1.879986067991569e-07,1.8733450181732114e-09
1668678527.9750047,57634,1668678527,974790176,,0.003257801680856656,7.113726336265681e-08,-0.0013055606165651638,-9.48289678689339e-08,1.9108968826092641e-07,1.9149259157524856e-09
1668678527.9825556,57635,1668678527,982306680,,0.0034031198351253933,8.808738543431095e-08,-0.0016721029645401747,-1.047001908873103e-07,1.941366353155888e-07,1.9559309588634832e-09
1668678527.9910069,57636,1668678527,990886219,,0.003549467915204029,1.0583166925497858e-07,-0.0020063845890269743,-1.1449443212542234e-07,1.9713951351704316e-07,1.996359496117539e-09
1668678527.9990845,57637,1668678527,998780922,,0.0036968627384726892,1.2595493489139605e-07,-0.002351171171506295,-1.2421135636700637e-07,2.0009839394834867e-07,2.0362109793420347e-09
1668678528.0068586,57638,1668678528,6653347,,0.0038453143002419917,1.4029966613113424e-07,-0.0025831105131746647,-1.3385064092437827e-07,2.0301335285061563e-07,2.0754849245491203e-09
1668678528.0141609,57639,1668678528,13947847,,0.003994832719256027,1.5046186037196092e-07,-0.0027487955855304558,-1.4341197475728197e-07,2.05884471290806e-07,2.1141809492322694e-09
1668678528.022323,57640,1668678528,22124192,,0.0041454255923509455,1.594095415387145e-07,-0.002895967182416398,-1.5289505761798932e-07,2.0871183484797882e-07,2.1522987342023625e-09
1668678528.0303528,57641,1668678528,30140476,,0.0042970954993753335,1.6356099396363142e-07,-0.0029799824462069567,-1.6229959929895863e-07,2.1149553333465023e-07,2.18983806001688e-09
1668678528.0383556,57642,1668678528,38203575,,0.004449844087517766,1.6408619688546397e-07,-0.003016711906261868,-1.71625318900822e-07,2.1423566052034904e-07,2.226798772285432e-09
1668678528.0464475,57643,1668678528,46234721,,0.004603670824165357,1.6269446776379085e-07,-0.003026191408094593,-1.808719442290336e-07,2.1693231390274167e-07,2.2631808033538037e-09
1668678528.0541413,57644,1668678528,54005813,,0.0047585729620323106,1.6098907030491765e-07,-0.003027066321415506,-1.900392111687797e-07,2.1958559446712896e-07,2.2989841662324206e-09
1668678528.0623271,57645,1668678528,62181331,,0.004914545283107384,1.5920644031672585e-07,-0.00302190106033025,-1.9912686318154294e-07,2.2219560647971596e-07,2.3342089476574568e-09
1668678528.0703356,57646,1668678528,70116538,,0.005071577393022412,1.478346420113484e-07,-0.00288890121594627,-2.0813465080176145e-07,2.2476245731714822e-07,2.3688553358464093e-09
1668678528.0784261,57647,1668678528,78004494,,0.00522966280825993,1.3367011524017855e-07,-0.00269600744896307,-2.170623312204139e-07,2.2728625726563625e-07,2.402923570191118e-09
1668678528.086457,57648,1668678528,86314603,,0.005388791673036577,1.181395777961036e-07,-0.0024485700937280697,-2.2590966790251302e-07,2.2976711938944177e-07,2.4364139716154254e-09
1668678528.0942657,57649,1668678528,93941501,,0.005548953362160649,1.0448967140299553e-07,-0.002181737460437933,-2.3467643022688614e-07,2.3220515935968222e-07,2.469326966861307e-09
1668678528.1026537,57650,1668678528,102460679,,0.005710135642453878,9.495783145135782e-08,-0.0019316838554255973,-2.4336239319918014e-07,2.3460049534382342e-07,2.501663036447166e-09
1668678528.1103063,57651,1668678528,110188199,,0.005872323973045488,8.836836829921543e-08,-0.0016868023431719915,-2.519673371631655e-07,2.369532478796411e-07,2.5334227302803436e-09
1668678528.1185753,57652,1668678528,118385260,,0.006035502722599586,8.334856343980411e-08,-0.001422129003482821,-2.6049104759719773e-07,2.392635397759351e-07,2.5646066919432497e-09
1668678528.1262376,57653,1668678528,126128063,,0.0061996561416593505,8.08536355537266e-08,-0.0011566105669567816,-2.6893331489875915e-07,2.4153149600765977e-07,2.5952156396114034e-09
1668678528.134187,57654,1668678528,134068031,,0.006364767726288031,8.201184913737879e-08,-0.0009335435931059281,-2.772939342151812e-07,2.437572436417106e-07,2.625250357379816e-09
1668678528.1422846,57655,1668678528,142101566,,0.006530819298315894,8.5156920073506e-08,-0.0007262600010480497,-2.855727053343161e-07,2.4594091175872586e-07,2.654711698732437e-09
1668678528.150326,57656,1668678528,150178921,,0.0066977925447991886,9.006734301788152e-08,-0.0005432733080402937,-2.9376943253884734e-07,2.4808263138789916e-07,2.683600607358838e-09
1668678528.1582847,57657,1668678528,158119685,,0.006865668488504775,9.617509841904943e-08,-0.0003786088665637626,-3.0188392454489645e-07,2.501825354598165e-07,2.711918089398635e-09
1668678528.1662345,57658,1668678528,166024004,,0.006964639653263613,9.289286065453057e-08,-0.00018050560782284205,-3.096264670950777e-07,2.5214312744201053e-07,2.739681001159844e-09
1668678528.1745164,57659,1668678528,174212072,,0.007033190530125651,8.653858154393374e-08,2.6478322448411762e-05,-3.1714645031985197e-07,2.540149581050819e-07,2.766880899743307e-09
1668678528.1820042,57660,1668678528,181845320,,0.007112405117589728,8.311016941133434e-08,0.00025961358659247794,-3.246140773606492e-07,2.5585560397333525e-07,2.7935095018444267e-09
1668678528.1907961,57661,1668678528,190547970,,0.00720017035230838,8.237259529574245e-08,0.0004738163169846408,-3.320212697237036e-07,2.5766253881345184e-07,2.8195686063714476e-09
1668678528.1982403,57662,1668678528,198079449,,0.007148812577759649,6.388537815767414e-08,0.0007750114926586549,-3.387331028749239e-07,2.592219072996497e-07,2.845089134770329e-09
1668678528.2066143,57663,1668678528,206392534,,0.007039194929677405,4.149863935997644e-08,0.0011063772263014437,-3.4510313228074845e-07,2.606530869371515e-07,2.870052974793258e-09
1668678528.2144215,57664,1668678528,214182187,,0.006615889081767449,-1.273679685300742e-08,0.001633829480203501,-3.501007827458048e-07,2.6160901412761064e-07,2.8945037755523373e-09
1668678528.221835,57665,1668678528,221721292,,0.006010265071922874,-6.674774517502909e-08,0.002323702931436916,-3.5443763148629705e-07,2.6232995465228317e-07,2.9184069154364334e-09
1668678528.230283,57666,1668678528,230089853,,0.005471388665189116,-9.30614794880925e-08,0.0029544867931583403,-3.5913724979920735e-07,2.6316099029153987e-07,2.941721604157732e-09
1668678528.2392123,57667,1668678528,238957597,,0.004872062369237772,-1.0247221762890059e-07,0.003639292734386092,-3.6374254796177444e-07,2.639484862825372e-07,2.964469287235205e-09
1668678528.246729,57668,1668678528,246480024,,0.004327581866878925,-8.95745190515306e-08,0.004295454892089875,-3.686257558095353e-07,2.6481786221809085e-07,2.986638701976685e-09
1668678528.2541273,57669,1668678528,253955803,,0.0038418325811901636,-6.083310652876817e-08,0.0049085755338143045,-3.7373942174019083e-07,2.657532218973413e-07,3.0082350777060896e-09
1668678528.2622588,57670,1668678528,262074612,,0.003419160122357872,-2.3054006935280775e-08,0.005463569686303349,-3.790386634409224e-07,2.66739523102844e-07,3.029263089503187e-09
1668678528.2710164,57671,1668678528,270723412,,0.0030567017159068804,1.8643849394508013e-08,0.005960664899646452,-3.8446745815223955e-07,2.6775799989260587e-07,3.049727418519277e-09
1668678528.278417,57672,1668678528,278231423,,0.0029244961754874045,5.6241023403907315e-08,0.006315199984705698,-3.9028053199587537e-07,2.6889367348610237e-07,3.069622481546852e-09
1668678528.2863784,57673,1668678528,286164426,,0.0029228850387302096,8.684647357428256e-08,0.006580886049992341,-3.962329046862132e-07,2.700645537434906e-07,3.088959022595761e-09
1668678528.2939727,57674,1668678528,293816075,,0.003228878589598065,1.002310376497599e-07,0.00664488086404884,-4.026438035036796e-07,2.7137739616849964e-07,3.107729872921239e-09
1668678528.302594,57675,1668678528,302374105,,0.0035385003743740235,1.1154863706518458e-07,0.006690710635417284,-4.090156624327924e-07,2.7266648970984393e-07,3.125953110943991e-09
1668678528.31029,57676,1668678528,310124751,,0.00408656324802083,9.983262093103255e-08,0.006486365699584273,-4.158870907202864e-07,2.7411239913462766e-07,3.143615769606034e-09
1668678528.318341,57677,1668678528,318198126,,0.004742704450672669,8.66118678912129e-08,0.006161921655508838,-4.231200655754552e-07,2.7566973809789994e-07,3.1607259283819578e-09
1668678528.3263652,57678,1668678528,326205327,,0.005438837942403945,8.641840725296474e-08,0.005814797285055629,-4.306227339888677e-07,2.773082265752284e-07,3.1772903856530643e-09
1668678528.3342154,57679,1668678528,334095780,,0.00613978726109251,9.91846967152823e-08,0.005464507326146196,-4.383172445131283e-07,2.790020422734432e-07,3.1933155807128966e-09
1668678528.342502,57680,1668678528,342288371,,0.006827756341225174,1.2791293500358138e-07,0.005158956869794886,-4.4613701624631916e-07,2.807290293229032e-07,3.208807603308217e-09
1668678528.3509562,57681,1668678528,350831444,,0.007484350057868536,1.6342861205042384e-07,0.004867374336123042,-4.539842341460653e-07,2.824564607676434e-07,3.2237729968159767e-09
1668678528.3582141,57682,1668678528,358107460,,0.00807056412890837,2.2114668218119303e-07,0.004799878090827081,-4.6163682575870607e-07,2.841097099066047e-07,3.238219975151835e-09
1668678528.3663573,57683,1668678528,366220716,,0.00861034800793812,2.8537643572540263e-07,0.004839712664240517,-4.691410495774118e-07,2.8570444150256835e-07,3.2521504864102546e-09
1668678528.3744109,57684,1668678528,374215660,,0.008818155944783015,3.1819352435195695e-07,0.005097825820826116,-4.7494284297995494e-07,2.8671716520244474e-07,3.2655885426335907e-09
1668678528.3823676,57685,1668678528,382188308,,0.008513878166877372,3.0286369512990437e-07,0.005666845133587249,-4.779751203302419e-07,2.867882258864745e-07,3.278536881215488e-09
1668678528.3908925,57686,1668678528,390666028,,0.00825518725560858,2.9759580187587556e-07,0.006179726400080404,-4.812038817116006e-07,2.8691688361975887e-07,3.2909527065277944e-09
1668678528.3992014,57687,1668678528,398932678,,0.007766214503035282,2.851298676753499e-07,0.006820487726675362,-4.832829420898307e-07,2.866500492486996e-07,3.3028494730857894e-09
1668678528.4064746,57688,1668678528,406259154,,0.007041009792978766,2.031510825681119e-05,0.00752214416187,-4.843564981714415e-07,2.860368139799552e-07,3.3142225578514095e-09
1668678528.4141262,57689,1668678528,413993869,,0.0062406872768994105,4.951076646669635e-05,0.00821961420669134,-4.85373851974368e-07,2.8539727005568e-07,3.325067915449509e-09
1668678528.422009,57690,1668678528,421893495,,0.0054538080408497,0.0001286905926123654,0.008857166232197901,-4.867005990717192e-07,2.8485475932224047e-07,3.3353897040122593e-09
1668678528.430365,57691,1668678528,430210247,,0.004758566493074556,0.0002013761139178633,0.009426870162013629,-4.886246877416588e-07,2.845060937624918e-07,3.345194272627583e-09
1668678528.4383543,57692,1668678528,438222683,,0.004201958679735456,0.00022874358108398906,0.009883241570370791,-4.911730573895713e-07,2.843600205411291e-07,3.3544884188094204e-09
1668678528.4462528,57693,1668678528,446125514,,0.00374985889641519,0.0002327669735784539,0.010257763098370506,-4.940841766553098e-07,2.843285897047884e-07,3.3632773337177735e-09
1668678528.4539337,57694,1668678528,453845072,,0.0037282548706273253,0.00022501214294671238,0.010362934362288193,-4.979459715709382e-07,2.8460774636293216e-07,3.3715683188037526e-09
1668678528.463068,57695,1668678528,462819034,,0.003742726317020943,0.0002174214965309273,0.01043935122236529,-5.017923572095629e-07,2.8487463558968826e-07,3.3793622995423322e-09
1668678528.4702377,57696,1668678528,470034638,,0.004297666820607068,0.00020414408530130488,0.010150562045592535,-5.067983957174498e-07,2.855220827010878e-07,3.386670162190686e-09
1668678528.4781578,57697,1668678528,478028434,,0.005110903214341609,0.00018843099067462194,0.009685429564868675,-5.126142697341768e-07,2.8643486951925035e-07,3.39349675096412e-09
1668678528.4863741,57698,1668678528,486123168,,0.006127981571802359,0.0001719600415486832,0.009026533718534622,-5.194106883552171e-07,2.876716799834621e-07,3.3998511870386716e-09
1668678528.4943988,57699,1668678528,494156170,,0.00722034511296727,0.00015561771238802572,0.008290059375797274,-5.270175164544906e-07,2.8917655732970684e-07,3.405741529072248e-09
1668678528.5022516,57700,1668678528,502113980,,0.008255757954504004,0.00014029719816508582,0.0075954317205027275,-5.349477745554711e-07,2.9078626284542546e-07,3.4111720843832405e-09
1668678528.510358,57701,1668678528,510227610,,0.009302923920054568,0.00012548558327939494,0.006862702063879703,-5.434568413119838e-07,2.9258683818892675e-07,3.4161555129835763e-09
1668678528.5187085,57702,1668678528,518395208,,0.010257008478364747,0.00011138577133379201,0.006204706625085755,-5.519376454106439e-07,2.9437410149584214e-07,3.4206921357970987e-09
1668678528.5267813,57703,1668678528,526487791,,0.011140966775627684,9.807552785095493e-05,0.00560253715574545,-5.603754868030761e-07,2.961430919058358e-07,3.424788529160505e-09
1668678528.534493,57704,1668678528,534247637,,0.011827819336517066,8.555770261295438e-05,0.005172879896305382,-5.677742077034905e-07,2.975580456290351e-07,3.4284271289986012e-09
1668678528.541945,57705,1668678528,541806974,,0.012160586832015069,7.378762366414624e-05,0.005028692221089819,-5.727536612259911e-07,2.9815333564043884e-07,3.4315659445949276e-09
1668678528.5502603,57706,1668678528,550155375,,0.012488907413029998,6.280385146804704e-05,0.004885977935097291,-5.77654054685796e-07,2.9871762084764976e-07,3.4342581868573863e-09
1668678528.5583773,57707,1668678528,558193754,,0.012642418537016389,5.252027452367289e-05,0.0048833490290377864,-5.811846415906862e-07,2.9881579850739087e-07,3.4364631314176552e-09
1668678528.567163,57708,1668678528,566982710,,0.012683092212661761,4.292093099944314e-05,0.004993977618236366,-5.837686153419637e-07,2.9859049070042e-07,3.4381869191968395e-09
1668678528.5741482,57709,1668678528,574016821,,0.012677758473884396,3.398450143443952e-05,0.005150930261633489,-5.859074266890149e-07,2.982108252821752e-07,3.4394447463725886e-09
1668678528.5818949,57710,1668678528,581794086,,0.012654207776336837,2.5680967214588174e-05,0.005311812268921667,-5.878144683868036e-07,2.9774888058998724e-07,3.4402459318794154e-09
1668678528.5908482,57711,1668678528,590123383,,0.012655244671969797,1.798670134317315e-05,0.005449503767133507,-5.898159308835441e-07,2.973148065990973e-07,3.440608388471933e-09
1668678528.5988238,57712,1668678528,598511547,,0.012938699492200641,1.0906896789165858e-05,0.005373257304514968,-5.938812799823523e-07,2.9757297066008125e-07,3.4406411886234167e-09
1668678528.6063597,57713,1668678528,606183913,,0.013359848142406311,4.3883537772533295e-06,0.0051906683395335825,-5.989734199134242e-07,2.981742883578645e-07,3.4403132946614345e-09
1668678528.6142278,57714,1668678528,614116873,,0.014046882999167185,-1.5700517177371284e-06,0.0048199119393206044,-6.062434222176591e-07,2.995075453186987e-07,3.439710797442652e-09
1668678528.6221268,57715,1668678528,621929909,,0.01485511290190021,-7.025776430155056e-06,0.0042651252567042774,-6.14720143649538e-07,3.0124606656303614e-07,3.438803557881398e-09
1668678528.6305213,57716,1668678528,630406099,,0.015619721142289988,-1.2025345179377793e-05,0.0037457646608768393,-6.230432516896348e-07,3.0293148625443363e-07,3.4375212919213194e-09
1668678528.6383715,57717,1668678528,638223558,,0.016424502464199516,-1.6579910614841058e-05,0.0031522253192962533,-6.319630359743046e-07,3.048171823080573e-07,3.4359247703952267e-09
1668678528.6461833,57718,1668678528,646017078,,0.01722668992475123,-2.072197297414315e-05,0.00253076452884893,-6.410965437214048e-07,3.0677434362279873e-07,3.4340010210409666e-09
1668678528.6544394,57719,1668678528,654238320,,0.018004971050833138,-2.4482211996931237e-05,0.0018797791462842727,-6.502104086566324e-07,3.0872451111730367e-07,3.4317427406727052e-09
1668678528.6619995,57720,1668678528,661872856,,0.018749326015223125,-2.7885855301361272e-05,0.0012375681142746161,-6.591588371801928e-07,3.106187071244895e-07,3.429145866568062e-09
1668678528.670477,57721,1668678528,670305800,,0.01944926588184992,-3.0960100759367614e-05,0.0006436623959361935,-6.677752873316875e-07,3.1240089891023965e-07,3.4262012081620608e-09
1668678528.6784487,57722,1668678528,678186601,,0.02011367126969361,-3.372525322473974e-05,5.984300611773801e-05,-6.761108781181476e-07,3.140884860343201e-07,3.42291721355803e-09
1668678528.6872714,57723,1668678528,686646761,,0.02074139891796242,-3.620306676088175e-05,-0.0004968142297307974,-6.841098369228776e-07,3.156627922189757e-07,3.4192919051712067e-09
1668678528.694262,57724,1668678528,694039408,,0.021332884231607955,-3.8412650341178e-05,-0.0010558520958499037,-6.917374877082828e-07,3.1711224268455174e-07,3.4153240513479233e-09
1668678528.702214,57725,1668678528,702028651,,0.021888402094496936,-4.037449021894552e-05,-0.0015686345384054745,-6.989603699302405e-07,3.1842565671367194e-07,3.4110113969476608e-09
1668678528.7103093,57726,1668678528,710180992,,0.022411011517827643,-4.2100051662138685e-05,-0.0021270122692363586,-7.057852042824679e-07,3.196054060937816e-07,3.406355399138139e-09
1668678528.718517,57727,1668678528,718249611,,0.022902201391567994,-4.3606817023186745e-05,-0.0026842820358054962,-7.122032549708945e-07,3.206486394298708e-07,3.401355343213286e-09
1668678528.7264516,57728,1668678528,726127096,,0.023363614063895168,-4.491187239181634e-05,-0.0032137490614441806,-7.182116633851991e-07,3.2155448113013133e-07,3.3960107226338465e-09
1668678528.7340565,57729,1668678528,733874362,,0.0237969332196063,-4.602592160039836e-05,-0.0037513812381694237,-7.238117123674597e-07,3.2232344728368775e-07,3.3903212806607463e-09
1668678528.7426424,57730,1668678528,742512513,,0.024203746054074268,-4.696855966171258e-05,-0.004239133959808083,-7.290066364895749e-07,3.2295670748881244e-07,3.3842867119826536e-09
1668678528.7502706,57731,1668678528,750137434,,0.02458578348048305,-4.774884505704952e-05,-0.00470980941600788,-7.338046641018918e-07,3.2345711329056885e-07,3.3779073774220514e-09
1668678528.758257,57732,1668678528,758137330,,0.025117967875674704,-0.00010031995790688376,-0.005386951988473676,-7.41070483934402e-07,3.24792310465072e-07,3.3716487657375893e-09
1668678528.766319,57733,1668678528,766136295,,0.025706117337040077,-0.00017595701433804843,-0.006133784165811497,-7.493478480000539e-07,3.264715816415041e-07,3.365324172110995e-09
1668678528.7742023,57734,1668678528,774045579,,0.026550158965414825,-0.00038375007252362255,-0.007011341671560478,-7.624340670411714e-07,3.2977822479165943e-07,3.359638831024192e-09
1668678528.7821887,57735,1668678528,782047614,,0.0276680187961057,-0.0006638754619955471,-0.007947370797692213,-7.807371555797714e-07,3.3485229321858576e-07,3.3547895156305074e-09
1668678528.7904084,57736,1668678528,790209483,,0.02869982877634678,-0.000920579890423179,-0.008793769838637952,-7.980659259143466e-07,3.396049598141477e-07,3.349721965084651e-09
1668678528.798336,57737,1668678528,798093261,,0.029828572966811188,-0.0012026724209123927,-0.009630812192793159,-8.17803818321328e-07,3.451792290183565e-07,3.345113637476249e-09
1668678528.806351,57738,1668678528,806156373,,0.030975925017045724,-0.001463319815292453,-0.010430410989972525,-8.384048298157418e-07,3.5105437150252314e-07,3.340722969091825e-09
1668678528.8141894,57739,1668678528,814072057,,0.032270750364006846,-0.001764767423186229,-0.011265700154180555,-8.627982526091611e-07,3.5822087050873044e-07,3.3372382010621315e-09
1668678528.821942,57740,1668678528,821766984,,0.03358549782343372,-0.002073030725030313,-0.012075900622764651,-8.885216466610838e-07,3.658492135920257e-07,3.3342297603433657e-09
1668678528.830549,57741,1668678528,830395469,,0.034788764737586866,-0.0023529012526115017,-0.012798270980482472,-9.125838662869096e-07,3.729302586773838e-07,3.3310543351428024e-09
1668678528.8383403,57742,1668678528,838159846,,0.03606686584004456,-0.002673462875485617,-0.013558194954671343,-9.393000972536731e-07,3.8092161261274286e-07,3.328764194843181e-09
1668678528.8463478,57743,1668678528,846045713,,0.03732714921443536,-0.0029992265986664075,-0.014294783882544116,-9.66480292335177e-07,3.890854855036034e-07,3.3269065696783784e-09
1668678528.8547444,57744,1668678528,854487599,,0.0385837897952864,-0.0033431430620115663,-0.014989630975009823,-9.94512488783491e-07,3.975539506109304e-07,3.3256348647148215e-09
1668678528.8622038,57745,1668678528,862052001,,0.03972511106857324,-0.0036533693682444194,-0.015600015862143846,-1.0202411916813872e-06,4.052623145669662e-07,3.32412433690088e-09
1668678528.8702252,57746,1668678528,870055901,,0.040779856890756666,-0.0038834410414852116,-0.016080947123311772,-1.043736947915774e-06,4.1223388418023393e-07,3.322348243739448e-09
1668678528.8783164,57747,1668678528,878164972,,0.04174304370010615,-0.004062006202726435,-0.016465462591452804,-1.0648938087814389e-06,4.1843226800467037e-07,3.320223734837313e-09
1668678528.886326,57748,1668678528,886123397,,0.04261671605329012,-0.004192734266701474,-0.016758222591393947,-1.0836105006673024e-06,4.2382248242683017e-07,3.317659189039368e-09
1668678528.8943038,57749,1668678528,894155993,,0.04330884318825274,-0.004240058893057023,-0.016968588701636724,-1.0969404302662309e-06,4.274082932142348e-07,3.313614105326934e-09
1668678528.9019523,57750,1668678528,901841474,,0.0438751269083776,-0.0042410286596444614,-0.017114996696534657,-1.1064924541347209e-06,4.2973022798911166e-07,3.3084534140082056e-09
1668678528.910678,57751,1668678528,910437265,,0.04437235008054965,-0.004233628780271738,-0.017216081250713226,-1.1140496540788932e-06,4.313885111906224e-07,3.3026801432578523e-09
1668678528.9182487,57752,1668678528,918145371,,0.04498216104000619,-0.00431561757741821,-0.0172819816316894,-1.1255102472181077e-06,4.3437441223396697e-07,3.2984042441785988e-09
1668678528.9263985,57753,1668678528,926211325,,0.04561158126396643,-0.004433993721500142,-0.017312177560831504,-1.1378759945566367e-06,4.376780498916745e-07,3.294649789098436e-09
1668678528.9339776,57754,1668678528,933788920,,0.046259646339845154,-0.004580027854147988,-0.01733782564297586,-1.1510661841651528e-06,4.4127310422055824e-07,3.2914375669435003e-09
1668678528.9424496,57755,1668678528,942182281,,0.04682890237436102,-0.004705567337383603,-0.017327249575031557,-1.161808348682544e-06,4.4405516346868006e-07,3.2874797051274385e-09
1668678528.950253,57756,1668678528,950132865,,0.047517873308903884,-0.004863450614506574,-0.01734209693496486,-1.176397284686245e-06,4.4814907692474794e-07,3.2853534615018276e-09
1668678528.9581635,57757,1668678528,958050871,,0.04822512042431297,-0.005026607136607857,-0.017352501413164273,-1.1916580487509026e-06,4.5248546813743927e-07,3.2838507746379975e-09
1668678528.966201,57758,1668678528,966067302,,0.048939854334498545,-0.005208176244281371,-0.017343971842150693,-1.2074080800630448e-06,4.5700355390536525e-07,3.2829377411003335e-09
1668678528.9747555,57759,1668678528,974513798,,0.04944047293950719,-0.0052469677788110625,-0.01725929081702253,-1.2152054749158848e-06,4.5885285248530375e-07,3.278724680644274e-09
1668678528.982646,57760,1668678528,982482651,,0.04980260973133087,-0.005210112363446828,-0.017124806775263783,-1.2178798371013672e-06,4.589837115183317e-07,3.2722385356898087e-09
1668678528.9904723,57761,1668678528,990281746,,0.05010367181241473,-0.005165958360208186,-0.016967171453906336,-1.2184689814812412e-06,4.584186625857748e-07,3.2647687470133135e-09
1668678528.9993174,57762,1668678528,999024628,,0.05051160657057666,-0.005221500974079712,-0.016824081855449546,-1.2233264069812623e-06,4.5930229370673946e-07,3.259471637040434e-09
1668678529.0071523,57763,1668678529,6973340,,0.05094050941839395,-0.005318843737715564,-0.016677923436037207,-1.2291913074541968e-06,4.6053664416625777e-07,3.2548385930919466e-09
1668678529.015053,57764,1668678529,14861687,,0.05107001034690557,-0.005270690762163206,-0.016355943536940473,-1.2238899543762097e-06,4.5801099450657606e-07,3.244357144049914e-09
1668678529.0219927,57765,1668678529,21877404,,0.05096729355053923,-0.005140117372537119,-0.01585095599757699,-1.2102001915789955e-06,4.526552838618556e-07,3.2290714824245725e-09
1668678529.0310419,57766,1668678529,30779605,,0.05083970477235876,-0.005009737006389703,-0.015354600768837488,-1.195686838945803e-06,4.470183431319087e-07,3.2129189864171792e-09
1668678529.0382965,57767,1668678529,38137661,,0.0505900369538235,-0.0048397992719479,-0.014773936191820318,-1.1768740282868968e-06,4.3992561244376137e-07,3.1938366118478e-09
1668678529.0469131,57768,1668678529,46757183,,0.05026149689581478,-0.004696995074391827,-0.014125782305106919,-1.1558867438542057e-06,4.3209171605063275e-07,3.1729120580914483e-09
1668678529.0541341,57769,1668678529,54041689,,0.04951716000737515,-0.0044368661233315605,-0.013264343874374494,-1.1208364942620576e-06,4.1949913732173584e-07,3.1427519336935106e-09
1668678529.0628853,57770,1668678529,62768414,,0.048802927428415965,-0.004188468417266256,-0.012444800769658768,-1.0873695715648505e-06,4.0742284761045335e-07,3.112588187192955e-09
1668678529.070684,57771,1668678529,70467881,,0.047900544476271206,-0.003888380035850386,-0.011540272929809602,-1.048234019418665e-06,3.9341444272125194e-07,3.0778399690012392e-09
1668678529.0781574,57772,1668678529,78056355,,0.04710308566571873,-0.003743208914225482,-0.01072521184772319,-1.014392031062697e-06,3.811737892555917e-07,3.0454872512741815e-09
1668678529.086262,57773,1668678529,86153103,,0.04637663158708938,-0.0036755840998499187,-0.009974950880895632,-9.838760224156057e-07,3.7004055735410414e-07,3.014447524929409e-09
1668678529.094061,57774,1668678529,93937408,,0.04560272952360229,-0.0036024721215843283,-0.00926833924107141,-9.523917119557595e-07,3.5856653397099356e-07,2.98193142400649e-09
1668678529.1029418,57775,1668678529,102705578,,0.044870706446201544,-0.0035279601620049486,-0.008599269060445378,-9.225820044904886e-07,3.476444769144778e-07,2.94975692483046e-09
1668678529.1112518,57776,1668678529,111070782,,0.04425528516135418,-0.003562866730252592,-0.00803086603184828,-8.974027800560816e-07,3.382748695703649e-07,2.920104602566198e-09
1668678529.1183372,57777,1668678529,118152742,,0.04371283362546362,-0.0036464244818154336,-0.007525697500018536,-8.749349964149193e-07,3.2981271640619356e-07,2.8917771788261604e-09
1668678529.1264472,57778,1668678529,126257636,,0.04324117367660267,-0.003796451107452709,-0.007047802349663872,-8.551625345616198e-07,3.2225468308546765e-07,2.864875878194617e-09
1668678529.1341486,57779,1668678529,133933791,,0.04249477877511691,-0.003805671552449496,-0.006449122007238897,-8.269729416961712e-07,3.1184694393774325e-07,2.831183384954805e-09
1668678529.1425447,57780,1668678529,142403895,,0.04179593797166913,-0.0038065905299126514,-0.0058850173174009104,-8.004194796552952e-07,3.019820585532622e-07,2.798049514307621e-09
1668678529.1503062,57781,1668678529,150115063,,0.040984597031843054,-0.0037355213204641885,-0.0052773203363844145,-7.707684803499198e-07,2.910613396936608e-07,2.761881223722895e-09
1668678529.1581852,57782,1668678529,158029435,,0.04032228978160008,-0.0037913364883303867,-0.004706006524334926,-7.464497639101796e-07,2.8193268952498435e-07,2.7292042931170712e-09
1668678529.1664438,57783,1668678529,166309774,,0.03975519126743546,-0.003903350160768522,-0.004169891037498552,-7.25297436564938e-07,2.738676905535923e-07,2.6984920548089875e-09
1668678529.1738977,57784,1668678529,173793661,,0.03910343681660282,-0.0039614880538577256,-0.003547432593689355,-7.018731290772099e-07,2.650300154143602e-07,2.665460893669369e-09
1668678529.1821816,57785,1668678529,182038531,,0.03850016072455187,-0.004007158138535398,-0.002967152879081505,-6.798775745833806e-07,2.56669637267639e-07,2.633078532987554e-09
1668678529.1903763,57786,1668678529,190204591,,0.03779807789122734,-0.00402254883323223,-0.0022306744960647173,-6.555711083961564e-07,2.475232631466654e-07,2.5982883899988707e-09
1668678529.1988013,57787,1668678529,198420794,,0.03707508726890487,-0.004018691727997702,-0.0014441603515589208,-6.310326780101065e-07,2.382926506268833e-07,2.5627749089540686e-09
1668678529.2063575,57788,1668678529,206229274,,0.03638825928469236,-0.004032692959916042,-0.0006464172494013661,-6.078863192678324e-07,2.295270821377291e-07,2.5279278392797977e-09
1668678529.2146106,57789,1668678529,214414847,,0.03563101053801642,-0.00398519278758146,0.00012253653897520365,-5.83101199306765e-07,2.202027304162163e-07,2.491178596741861e-09
1668678529.2239397,57790,1668678529,223561429,,0.03493913819395743,-0.003933514212628275,0.0008304952191738262,-5.602312410652854e-07,2.1152076269334574e-07,2.455597294948042e-09
1668678529.231217,57791,1668678529,230770408,,0.034241158136603875,-0.0038504166095436583,0.0014983559014950297,-5.37436110405545e-07,2.0286014905238937e-07,2.4196221831696008e-09
1668678529.2382996,57792,1668678529,238128501,,0.033717202387113336,-0.003835944930845957,0.0020752602654627427,-5.192516041062421e-07,1.9575527034272101e-07,2.3873301599475205e-09
1668678529.2461946,57793,1668678529,246044384,,0.03330324308524535,-0.0038517550868341238,0.0025838549911362746,-5.038412635480325e-07,1.895877341632525e-07,2.3572031410123984e-09
1668678529.253965,57794,1668678529,253789443,,0.0331268981650198,-0.0039715942094964785,0.0029551478162312176,-4.942462911854974e-07,1.8538786302835578e-07,2.332115688064018e-09
1668678529.2629726,57795,1668678529,262761749,,0.03297664921372299,-0.004074111618980507,0.0032912743728258356,-4.851142726037421e-07,1.8134834393977034e-07,2.307287236269495e-09
1668678529.2710845,57796,1668678529,270847742,,0.03302949347958629,-0.004236244910024443,0.0035529612739708142,-4.806410214185856e-07,1.7888879134606017e-07,2.2866616308792054e-09
