Time,header.seq,header.stamp.secs,header.stamp.nsecs,header.frame_id,wrench.force.x,wrench.force.y,wrench.force.z,wrench.torque.x,wrench.torque.y,wrench.torque.z
1668678526.6539826,57469,1668678526,653776046,,-1.0615852942355774e-07,-6.131818664476984e-182,2.124683756629585,5e-324,-5e-324,0.0
1668678526.66222,57470,1668678526,662028163,,-5.616612207634182e-08,-3.244209179696675e-182,2.126424768937188,5e-324,-5e-324,0.0
1668678526.6704535,57471,1668678526,670187828,,-2.9716248767048995e-08,-1.7164390823559842e-182,2.1225833092258157,5e-324,-5e-324,0.0
1668678526.6783512,57472,1668678526,678132424,,-1.5722207767609073e-08,-9.08129827717987e-183,2.1205507717038126,5e-324,-5e-324,0.0
1668678526.6862473,57473,1668678526,686050927,,-8.318271226816573e-09,-4.804713388715887e-183,2.1142829683405004,5e-324,-5e-324,0.0
1668678526.6943457,57474,1668678526,694128691,,-4.401012709260678e-09,-2.542067229056445e-183,2.1111267494588812,5e-324,-5e-324,0.0
1668678526.7024422,57475,1668678526,702234218,,-4.401012709260678e-09,-2.542067229056445e-183,2.1111267494588812,5e-324,-5e-324,0.0
1668678526.7103565,57476,1668678526,710166978,,-2.3284781583740875e-09,-1.344951358018419e-183,2.1094375513682886,5e-324,-5e-324,0.0
1668678526.718692,57477,1668678526,718462327,,-1.2319461206318549e-09,-7.115839167270994e-184,2.1042334660198314,5e-324,-5e-324,0.0
1668678526.726531,57478,1668678526,726318938,,-6.517953534078408e-10,-3.764832590605444e-184,2.1014832445082563,5e-324,-5e-324,0.0
1668678526.7346272,57479,1668678526,734213595,,-6.517953534078408e-10,-3.764832590605444e-184,2.1014832445082563,5e-324,-5e-324,0.0
1668678526.7426069,57480,1668678526,742402686,,-3.448504570201144e-10,-1.9918893755324684e-184,2.090808008715241,5e-324,-5e-324,0.0
1668678526.750282,57481,1668678526,750065679,,-1.82452723980329e-10,-1.0538644651185063e-184,2.117336786220678,5e-324,-5e-324,0.0
1668678526.75838,57482,1668678526,758142996,,-9.653168731599054e-11,-5.575763014161485e-185,2.1313457313730044,5e-324,-5e-324,0.0
1668678526.7669659,57483,1668678526,766661465,,-5.107277355353062e-11,-2.9500124749528605e-185,2.1299554054905365,5e-324,-5e-324,0.0
1668678526.7745452,57484,1668678526,774165354,,-5.107277355353062e-11,-2.9500124749528605e-185,2.1299554054905365,5e-324,-5e-324,0.0
1668678526.7824488,57485,1668678526,782197794,,-2.7021471093856336e-11,-1.560786134610537e-185,2.1244812227634724,5e-324,-5e-324,0.0
1668678526.7907586,57486,1668678526,790529413,,-1.4296460702507474e-11,-8.257773072744134e-186,2.1215910588060103,5e-324,-5e-324,0.0
1668678526.798831,57487,1668678526,798543099,,-7.563940094468461e-12,-4.3690044784997885e-186,2.1296938102294245,5e-324,-5e-324,0.0
1668678526.8069668,57488,1668678526,806635666,,-4.001912847049821e-12,-2.311543313796588e-186,2.1339952310316974,5e-324,-5e-324,0.0
1668678526.8147023,57489,1668678526,814445809,,-2.117323277995612e-12,-1.2229862701794367e-186,2.1408555152555366,5e-324,-5e-324,0.0
1668678526.8221884,57490,1668678526,821952868,,-2.117323277995612e-12,-1.2229862701794367e-186,2.1408555152555366,5e-324,-5e-324,0.0
1668678526.8304307,57491,1668678526,830120277,,-1.1202287593161752e-12,-6.470548953680688e-187,2.144374758746485,5e-324,-5e-324,0.0
1668678526.838695,57492,1668678526,838486660,,-5.926881767374863e-13,-3.4234238587024664e-187,2.1462316397461247,5e-324,-5e-324,0.0
1668678526.8463278,57493,1668678526,846154647,,-3.135781615344694e-13,-1.811257591933774e-187,2.1565421464164354,5e-324,-5e-324,0.0
1668678526.854002,57494,1668678526,853802676,,-3.135781615344694e-13,-1.811257591933774e-187,2.1565421464164354,5e-324,-5e-324,0.0
1668678526.8627489,57495,1668678526,862475315,,-1.6590724642528294e-13,-9.582961969486172e-188,2.162365426648102,5e-324,-5e-324,0.0
1668678526.8703558,57496,1668678526,870113122,,-8.777784231442377e-14,-5.070132515528804e-188,2.1654267836921433,5e-324,-5e-324,0.0
1668678526.8783543,57497,1668678526,878162916,,-0.0016411155029711444,-2.682494598942959e-188,2.148197382430009,5e-324,-5e-324,0.0
1668678526.8868656,57498,1668678526,886563253,,-0.0025410119647054454,-1.4192483630987785e-188,2.139071131853349,5e-324,-5e-324,0.0
1668678526.894453,57499,1668678526,894193181,,-0.0013443930410684491,-7.508928133358727e-189,2.134002995180201,5e-324,-5e-324,0.0
1668678526.90296,57500,1668678526,902539683,,-0.0013443930410684491,-7.508928133358727e-189,2.134002995180201,5e-324,-5e-324,0.0
1668678526.9117308,57501,1668678526,911357627,,-0.0007112885236188906,-3.972807239237373e-189,2.14027678839955,5e-324,-5e-324,0.0
1668678526.9182582,57502,1668678526,917997199,,-0.0003763269731222759,-2.1019241468059017e-189,2.1435762078991383,5e-324,-5e-324,0.0
1668678526.926368,57503,1668678526,926102468,,-0.00019910625013156469,-1.112081420737096e-189,2.1316968623352386,5e-324,-5e-324,0.0
1668678526.9344888,57504,1668678526,934280602,,-0.00010534269843201574,-5.88377600698852e-190,2.1246137026714798,5e-324,-5e-324,0.0
1668678526.9420314,57505,1668678526,941829898,,-0.00010534269843201574,-5.88377600698852e-190,2.1246137026714798,5e-324,-5e-324,0.0
1668678526.9503572,57506,1668678526,950152333,,-5.573448400341988e-05,-3.1129753141157735e-190,2.1208521956048987,5e-324,-5e-324,0.0
1668678526.9590945,57507,1668678526,958786494,,-2.9487878641462546e-05,-1.6470061563839383e-190,2.156438881658187,5e-324,-5e-324,0.0
1668678526.966415,57508,1668678526,966160109,,-1.560138220208997e-05,-8.71394407423081e-191,2.175253417958407,5e-324,-5e-324,0.0
1668678526.9742224,57509,1668678526,974025440,,-8.254345101429015e-06,-4.610354432161657e-191,2.171920670088351,5e-324,-5e-324,0.0
1668678526.9821243,57510,1668678526,981906517,,-8.254345101429015e-06,-4.610354432161657e-191,2.171920670088351,5e-324,-5e-324,0.0
1668678526.9904892,57511,1668678526,990222705,,-4.367190814949581e-06,-2.439236218305529e-191,2.156526426568483,5e-324,-5e-324,0.0
1668678526.998464,57512,1668678526,998167325,,-2.310583744660509e-06,-1.2905457522283684e-191,2.1484037391479784,5e-324,-5e-324,0.0
1668678527.0064359,57513,1668678527,6185943,,-1.2224785834440387e-06,-6.827991180582209e-192,2.139244566724596,5e-324,-5e-324,0.0
1668678527.013989,57514,1668678527,13788311,,-1.2224785834440387e-06,-6.827991180582209e-192,2.139244566724596,5e-324,-5e-324,0.0
1668678527.0230951,57515,1668678527,22761469,,-6.467862895828178e-07,-3.612538608693862e-192,2.1340517793791802,5e-324,-5e-324,0.0
1668678527.0309482,57516,1668678527,30742118,,-3.4220027251009797e-07,-1.9113140093703224e-192,2.1312934127727114,5e-324,-5e-324,0.0
1668678527.0389678,57517,1668678527,38719576,,-1.810505701682644e-07,-1.011233826989068e-192,2.158175418744036,5e-324,-5e-324,0.0
1668678527.0465622,57518,1668678527,46241821,,-9.578983885024915e-08,-5.350213768295704e-193,2.1724089061162033,5e-324,-5e-324,0.0
1668678527.0549164,57519,1668678527,54608142,,-5.068027799320939e-08,-2.830679374293752e-193,2.1799943560527115,5e-324,-5e-324,0.0
1668678527.0619903,57520,1668678527,61804443,,-5.068027799320939e-08,-2.830679374293752e-193,2.1799943560527115,5e-324,-5e-324,0.0
1668678527.0704165,57521,1668678527,70186534,,-2.681381040304676e-08,-1.4976496392600227e-193,2.1700276673397507,5e-324,-5e-324,0.0
1668678527.0784538,57522,1668678527,78245248,,-1.418659203935058e-08,-7.923731886926572e-194,2.1647649626140253,5e-324,-5e-324,0.0
1668678527.0871243,57523,1668678527,86638619,,-7.505811022968106e-09,-4.192270700036278e-194,2.1709533251046267,5e-324,-5e-324,0.0
1668678527.0940452,57524,1668678527,93810751,,-7.505811022968106e-09,-4.192270700036278e-194,2.1709533251046267,5e-324,-5e-324,0.0
1668678527.1024725,57525,1668678527,102193461,,-3.971158045303774e-09,-2.2180373936402384e-194,2.1644385760023486,5e-324,-5e-324,0.0
1668678527.1103454,57526,1668678527,110057512,,-2.101051594894105e-09,-1.1735143628830573e-194,2.160966523648267,5e-324,-5e-324,0.0
1668678527.119078,57527,1668678527,118789088,,-1.1116197728840028e-09,-6.208804070848758e-195,2.163831463521257,5e-324,-5e-324,0.0
1668678527.126341,57528,1668678527,126148605,,-5.881333530645459e-10,-3.284940449768454e-195,2.165329999470451,5e-324,-5e-324,0.0
1668678527.1344037,57529,1668678527,134216985,,-3.111683054085441e-10,-1.7379890934535223e-195,2.166624826750155,5e-324,-5e-324,0.0
1668678527.1419685,57530,1668678527,141775550,,-3.111683054085441e-10,-1.7379890934535223e-195,2.166624826750155,5e-324,-5e-324,0.0
1668678527.1511426,57531,1668678527,150804271,,-1.6463224502793782e-10,-9.195314603576177e-196,2.1575826891405554,5e-324,-5e-324,0.0
1668678527.1585557,57532,1668678527,158267776,,-8.71032673695781e-11,-4.865036896792383e-196,2.152779888213013,5e-324,-5e-324,0.0
1668678527.1664264,57533,1668678527,166140097,,-4.608440579285493e-11,-2.5739830584965785e-196,2.1503877814008523,5e-324,-5e-324,0.0
1668678527.174475,57534,1668678527,174252049,,-4.608440579285493e-11,-2.5739830584965785e-196,2.1503877814008523,5e-324,-5e-324,0.0
1668678527.1835203,57535,1668678527,183112679,,-2.4382236412204613e-11,-1.3618373151076517e-196,2.15910968189341,5e-324,-5e-324,0.0
1668678527.1912537,57536,1668678527,190937770,,-1.2900100201634987e-11,-7.205179018943735e-197,2.1637466998671337,5e-324,-5e-324,0.0
1668678527.198357,57537,1668678527,198133258,,-6.825156741115209e-12,-3.812100323519423e-197,2.1563267115911513,5e-324,-5e-324,0.0
1668678527.2063096,57538,1668678527,206074866,,-3.6110389696729938e-12,-2.0168976840643812e-197,2.152398401020678,5e-324,-5e-324,0.0
1668678527.2146494,57539,1668678527,214389846,,-1.9105205836439685e-12,-1.067095806185054e-197,2.140568722458578,5e-324,-5e-324,0.0
1668678527.222127,57540,1668678527,221916678,,-1.9105205836439685e-12,-1.067095806185054e-197,2.140568722458578,5e-324,-5e-324,0.0
1668678527.2304006,57541,1668678527,230164515,,-1.0108140430447452e-12,-5.645767103480805e-198,2.1343092168379814,5e-324,-5e-324,0.0
1668678527.2386928,57542,1668678527,238432096,,-5.347992784603621e-13,-2.9870500850997045e-198,2.130990453982922,5e-324,-5e-324,0.0
1668678527.247027,57543,1668678527,246668218,,-2.8295043011097464e-13,-1.580381912210504e-198,2.1484026029299788,5e-324,-5e-324,0.0
1668678527.2540824,57544,1668678527,253868509,,-2.8295043011097464e-13,-1.580381912210504e-198,2.1484026029299788,5e-324,-5e-324,0.0
1668678527.262361,57545,1668678527,262169942,,-1.4970279341152748e-13,-8.361449983383059e-199,2.1435344192367243,5e-324,-5e-324,0.0
1668678527.2703102,57546,1668678527,270068564,,-7.920442582972853e-14,-4.423857631148601e-199,2.140948976193611,5e-324,-5e-324,0.0
1668678527.2792323,57547,1668678527,278795412,,-4.1905304023097173e-14,-2.340564899576597e-199,2.1487387078529903,5e-324,-5e-324,0.0
1668678527.2862854,57548,1668678527,286093410,,-2.2171166407333365e-14,-1.238340947176378e-199,2.152873287445497,5e-324,-5e-324,0.0
1668678527.2941613,57549,1668678527,293907885,,-2.2171166407333365e-14,-1.238340947176378e-199,2.152873287445497,5e-324,-5e-324,0.0
1668678527.3024464,57550,1668678527,302196873,,-1.1730272129531176e-14,-6.551787142202694e-200,2.150290740811367,5e-324,-5e-324,0.0
1668678527.3103383,57551,1668678527,310121866,,-6.206226668676455e-15,-3.466405181433331e-200,2.168496279171857,5e-324,-5e-324,0.0
1668678527.3184326,57552,1668678527,318215355,,-3.283576803476107e-15,-1.833998055960668e-200,2.17810527275698,5e-324,-5e-324,0.0
1668678527.3269832,57553,1668678527,326622541,,-1.737267618461915e-15,-9.703276718149577e-201,2.178372034317782,5e-324,-5e-324,0.0
1668678527.334354,57554,1668678527,333957924,,-1.737267618461915e-15,-9.703276718149577e-201,2.178372034317782,5e-324,-5e-324,0.0
1668678527.342929,57555,1668678527,342679097,,-9.191497439503383e-16,-5.133788379053921e-201,2.1593511326407646,5e-324,-5e-324,0.0
1668678527.3502834,57556,1668678527,350077158,,-4.863017319990951e-16,-2.716173503700218e-201,2.1492963412787818,5e-324,-5e-324,0.0
1668678527.3584793,57557,1668678527,358260876,,-2.5729145452288486e-16,-1.437067124212607e-201,2.1817770711490363,5e-324,-5e-324,0.0
1668678527.3664224,57558,1668678527,366216709,,-1.3612719884498562e-16,-7.603203244120234e-202,2.1989534920265528,5e-324,-5e-324,0.0
1668678527.3741663,57559,1668678527,373924975,,-1.3612719884498562e-16,-7.603203244120234e-202,2.1989534920265528,5e-324,-5e-324,0.0
1668678527.382375,57560,1668678527,382188305,,-7.202188001053119e-17,-4.0226861082132685e-202,2.1986319133834344,5e-324,-5e-324,0.0
1668678527.3904464,57561,1668678527,390247901,,-3.810517842329366e-17,-2.128313949482542e-202,2.175033943004645,5e-324,-5e-324,0.0
1668678527.3985214,57562,1668678527,398246969,,-2.0160604283847208e-17,-1.126043679697871e-202,2.162545856823747,5e-324,-5e-324,0.0
1668678527.40644,57563,1668678527,406137756,,-1.0666528327850997e-17,-5.957647220682853e-203,2.1605349319943503,5e-324,-5e-324,0.0
1668678527.4140978,57564,1668678527,413882619,,-1.0666528327850997e-17,-5.957647220682853e-203,2.1605349319943503,5e-324,-5e-324,0.0
1668678527.422346,57565,1668678527,422139523,,-5.643423429525117e-18,-3.152058933951249e-203,2.1686559898614686,5e-324,-5e-324,0.0
1668678527.4305744,57566,1668678527,430305690,,-2.9858100992199353e-18,-1.667684432305661e-203,2.1729372932431463,5e-324,-5e-324,0.0
1668678527.4389775,57567,1668678527,438698019,,-1.5797258631989527e-18,-8.823348243265015e-204,2.1794369010921155,5e-324,-5e-324,0.0
1668678527.4465022,57568,1668678527,446219470,,-8.357978973651582e-19,-4.668237750129627e-204,2.182878907299453,5e-324,-5e-324,0.0
1668678527.4540303,57569,1668678527,453826301,,-8.357978973651582e-19,-4.668237750129627e-204,2.182878907299453,5e-324,-5e-324,0.0
1668678527.4622788,57570,1668678527,462089820,,-4.422021196927395e-19,-2.4698609973112867e-204,2.1757556512082186,5e-324,-5e-324,0.0
1668678527.471019,57571,1668678527,470556724,,-2.3395932829838137e-19,-1.3067486431834184e-204,2.162096439200645,5e-324,-5e-324,0.0
1668678527.4784422,57572,1668678527,478215260,,-1.2378268863989916e-19,-6.913717080923199e-205,2.1549185370096775,5e-324,-5e-324,0.0
1668678527.486308,57573,1668678527,486115447,,-6.549067360708535e-20,-3.657894280158051e-205,2.160673422527416,5e-324,-5e-324,0.0
1668678527.49448,57574,1668678527,494281435,,-6.549067360708535e-20,-3.657894280158051e-205,2.160673422527416,5e-324,-5e-324,0.0
1668678527.5032756,57575,1668678527,502940326,,-3.4649662054014337e-20,-1.9353106886211072e-205,2.1596552375613274,5e-324,-5e-324,0.0
1668678527.5110154,57576,1668678527,510763067,,-1.8332367256755622e-20,-1.023929937452777e-205,2.1590930941421966,5e-324,-5e-324,0.0
1668678527.5190074,57577,1668678527,518800810,,-9.69924868856346e-21,-5.417386071272346e-206,2.153801570557957,5e-324,-5e-324,0.0
1668678527.5271196,57578,1668678527,526834026,,-5.131657237988862e-21,-2.86621874912893e-206,2.15100770592147,5e-324,-5e-324,0.0
1668678527.5352695,57579,1668678527,534917794,,-2.7150459642564072e-21,-1.5164527338050241e-206,2.1395953037987074,5e-324,-5e-324,0.0
1668678527.542412,57580,1668678527,542176639,,-2.7150459642564072e-21,-1.5164527338050241e-206,2.1395953037987074,5e-324,-5e-324,0.0
1668678527.550845,57581,1668678527,550615784,,-1.43647056811494e-21,-8.023214887431777e-207,2.1343728541743916,5e-324,-5e-324,0.0
1668678527.5591285,57582,1668678527,558929386,,-7.600046998193611e-22,-4.2449049479034695e-207,2.13161797162993,5e-324,-5e-324,0.0
1668678527.567322,57583,1668678527,567076469,,-4.021016208536057e-22,-2.245885006141633e-207,2.139550986981293,5e-324,-5e-324,0.0
1668678527.574339,57584,1668678527,574118737,,-2.127430442621296e-22,-1.1882479166707844e-207,2.1341376608747673,5e-324,-5e-324,0.0
1668678527.582251,57585,1668678527,582039946,,-2.127430442621296e-22,-1.1882479166707844e-207,2.1341376608747673,5e-324,-5e-324,0.0
1668678527.5904732,57586,1668678527,590270735,,-1.1255762358241333e-22,-6.2867560343088115e-208,2.131256738617909,5e-324,-5e-324,0.0
1668678527.5984468,57587,1668678527,598183428,,-5.9551740788808e-23,-3.3261831037460654e-208,2.1437622470892883,5e-324,-5e-324,0.0
1668678527.6065063,57588,1668678527,606275155,,-3.150750449507083e-23,-1.7598096664271416e-208,2.1503587100123873,5e-324,-5e-324,0.0
1668678527.614265,57589,1668678527,614007304,,-1.6669921422237893e-23,-9.310762412816465e-209,2.167572841405393,5e-324,-5e-324,0.0
1668678527.6219826,57590,1668678527,621765614,,-1.6669921422237893e-23,-9.310762412816465e-209,2.167572841405393,5e-324,-5e-324,0.0
1668678527.6312783,57591,1668678527,630974316,,-8.819685490072994e-24,-4.926117770674546e-209,2.157715192921068,5e-324,-5e-324,0.0
1668678527.6388586,57592,1668678527,638609594,,-4.666299868698567e-24,-2.6062995933772315e-209,2.1525122522032385,5e-324,-5e-324,0.0
1668678527.6463585,57593,1668678527,645971528,,-2.468835707251059e-24,-1.3789352765531155e-209,2.168585514439873,5e-324,-5e-324,0.0
1668678527.6549456,57594,1668678527,654688924,,-0.08962206608938503,-7.295640538617858e-210,2.2569618157702047,5e-324,-5e-324,0.0
1668678527.662553,57595,1668678527,662240340,,-0.08962206608938503,-7.295640538617858e-210,2.2569618157702047,5e-324,-5e-324,0.0
1668678527.670315,57596,1668678527,670125207,,-0.1369991382863423,-3.859961506081176e-210,2.3037326422049924,5e-324,-5e-324,0.0
1668678527.6784184,57597,1668678527,678182350,,-0.25222645486317463,-2.0422199736352553e-210,2.3662940337815375,5e-324,-5e-324,0.0
1668678527.6862464,57598,1668678527,686044082,,-0.31322436589389313,-1.0804932676515331e-210,2.399383178138815,5e-324,-5e-324,0.0
1668678527.6944852,57599,1668678527,694221236,,-0.31322436589389313,-1.0804932676515331e-210,2.399383178138815,5e-324,-5e-324,0.0
1668678527.702691,57600,1668678527,702443141,,-0.31313051468770947,-5.716650098971166e-211,2.4071413235779366,5e-324,-5e-324,0.0
1668678527.7103093,57601,1668678527,710063053,,-0.20389378153297133,-3.0245527049971967e-211,2.3549781722964744,5e-324,-5e-324,0.0
1668678527.7183332,57602,1668678527,718103112,,-0.1461118060098306,-1.600223716150167e-211,2.3273740030911116,5e-324,-5e-324,0.0
1668678527.7264686,57603,1668678527,726236072,,-0.07730451408572168,-8.466428564787809e-212,2.2705817962481687,5e-324,-5e-324,0.0
1668678527.7340991,57604,1668678527,733855973,,-0.07730451408572168,-8.466428564787809e-212,2.2705817962481687,5e-324,-5e-324,0.0
1668678527.742427,57605,1668678527,742183924,,-0.0409001028816759,-4.479399468913282e-212,2.141853817918361,5e-324,-5e-324,0.0
1668678527.7503126,57606,1668678527,750086846,,-0.02163933679056197,-2.3699508533682968e-212,2.0737404002820945,5e-324,-5e-324,0.0
1668678527.758698,57607,1668678527,758403884,,-0.011448892881517896,-1.2538884032023475e-212,2.004635760481366,5e-324,-5e-324,0.0
1668678527.7663662,57608,1668678527,766115032,,-0.006057355152845565,-6.634045281786284e-213,1.968078450455468,5e-324,-5e-324,0.0
1668678527.7746162,57609,1668678527,774446855,,-0.003204812188166804,-3.509926137636398e-213,1.933598563792153,5e-324,-5e-324,0.0
1668678527.7821865,57610,1668678527,781916812,,-0.003204812188166804,-3.509926137636398e-213,1.933598563792153,5e-324,-5e-324,0.0
1668678527.7907104,57611,1668678527,790237720,,-0.0016955950084250177,-1.857024028082303e-213,1.8872969052838737,5e-324,-5e-324,0.0
1668678527.7985795,57612,1668678527,798266365,,-0.0008971016907672205,-9.825102026783063e-214,1.862808814539497,5e-324,-5e-324,0.0
1668678527.807224,57613,1668678527,806969924,,-0.0004746365963444007,-5.198243446337267e-214,1.8733885530904355,5e-324,-5e-324,0.0
1668678527.8145447,57614,1668678527,814321370,,-0.0004746365963444007,-5.198243446337267e-214,1.8733885530904355,5e-324,-5e-324,0.0
1668678527.8224308,57615,1668678527,822236391,,-0.00025111969011755333,-2.75027524943024e-214,1.913240873822494,5e-324,-5e-324,0.0
1668678527.830416,57616,1668678527,830170718,,-0.000132861855260268,-1.4551096011015504e-214,1.9343199560850823,5e-324,-5e-324,0.0
1668678527.8382134,57617,1668678527,838036397,,-7.029425918348768e-05,-7.698661985401469e-215,2.0349235237812966,5e-324,-5e-324,0.0
1668678527.8463528,57618,1668678527,846153552,,-3.719113258260379e-05,-4.073191209830341e-215,2.0881760126396594,5e-324,-5e-324,0.0
1668678527.8542671,57619,1668678527,854011224,,-3.719113258260379e-05,-4.073191209830341e-215,2.0881760126396594,5e-324,-5e-324,0.0
1668678527.862383,57620,1668678527,862065870,,-1.967700291379877e-05,-2.155035077952442e-215,2.1446649064606875,5e-324,-5e-324,0.0
1668678527.870326,57621,1668678527,870066717,,-1.0410665574910495e-05,-1.1401812357831661e-215,2.174051930627412,5e-324,-5e-324,0.0
1668678527.8783221,57622,1668678527,878111495,,-5.508052124982007e-06,-6.032445892561555e-216,2.1896396358460573,5e-324,-5e-324,0.0
1668678527.8866088,57623,1668678527,886319736,,-2.9141881461099224e-06,-3.1916332513301696e-216,2.1697503071416095,5e-324,-5e-324,0.0
1668678527.8941667,57624,1668678527,893958886,,-2.9141881461099224e-06,-3.1916332513301696e-216,2.1697503071416095,5e-324,-5e-324,0.0
1668678527.9022565,57625,1668678527,902035376,,-1.5418322772236526e-06,-1.6886223254081922e-216,2.1264835456700277,5e-324,-5e-324,0.0
1668678527.9104984,57626,1668678527,910192995,,-8.157492419499414e-07,-8.934125989189328e-217,2.1035863725931416,5e-324,-5e-324,0.0
1668678527.9192247,57627,1668678527,918678472,,-4.315948210269415e-07,-4.726847797148102e-217,2.0772085090002914,5e-324,-5e-324,0.0
1668678527.926365,57628,1668678527,926038059,,-2.283472419686397e-07,-2.5008702725302905e-217,2.0632427198305328,5e-324,-5e-324,0.0
1668678527.9341943,57629,1668678527,933865041,,-2.283472419686397e-07,-2.5008702725302905e-217,2.0632427198305328,5e-324,-5e-324,0.0
1668678527.942438,57630,1668678527,942235036,,-1.2081345830475012e-07,-1.32315496255226e-217,2.0270597430536563,5e-324,-5e-324,0.0
1668678527.9512036,57631,1668678527,950928836,,-6.391971972912262e-08,-7.000519275857271e-218,1.9172314231632877,5e-324,-5e-324,0.0
1668678527.959037,57632,1668678527,958732918,,-3.3818505219372114e-08,-3.703819395206598e-218,1.8591464619033182,5e-324,-5e-324,0.0
1668678527.9671412,57633,1668678527,966949817,,-1.7892620620356367e-08,-1.9596086478354358e-218,1.6410010208276895,5e-324,-5e-324,0.0
1668678527.9750595,57634,1668678527,974790176,,-9.466588501984233e-09,-1.0367854484592728e-218,1.5444222816281317,5e-324,-5e-324,0.0
1668678527.9826088,57635,1668678527,982306680,,-9.466588501984233e-09,-1.0367854484592728e-218,1.5444222816281317,5e-324,-5e-324,0.0
1668678527.9911554,57636,1668678527,990886219,,-5.008561896402362e-09,-5.485401727147131e-219,1.493326355655031,5e-324,-5e-324,0.0
1668678527.9991748,57637,1668678527,998780922,,-2.6499189507218536e-09,-2.902204323267054e-219,1.5945365781834417,5e-324,-5e-324,0.0
1668678528.007049,57638,1668678528,6653347,,-1.4020133105350552e-09,-1.535491902499279e-219,1.6480785977541492,5e-324,-5e-324,0.0
1668678528.0142121,57639,1668678528,13947847,,-1.4020133105350552e-09,-1.535491902499279e-219,1.6480785977541492,5e-324,-5e-324,0.0
1668678528.0224254,57640,1668678528,22124192,,-7.417741295000788e-10,-8.123946903871736e-220,1.705349432257344,5e-324,-5e-324,0.0
1668678528.030394,57641,1668678528,30140476,,-3.92456230665609e-10,-4.2982000223839124e-220,1.7488123642496882,5e-324,-5e-324,0.0
1668678528.038399,57642,1668678528,38203575,,-2.0763988236157718e-10,-2.2740822473392113e-220,1.7718095923307335,5e-324,-5e-324,0.0
1668678528.0464964,57643,1668678528,46234721,,-1.0985765386883365e-10,-1.203166451242796e-220,1.774167499848633,5e-324,-5e-324,0.0
1668678528.0542219,57644,1668678528,54005813,,-1.0985765386883365e-10,-1.203166451242796e-220,1.774167499848633,5e-324,-5e-324,0.0
1668678528.0624373,57645,1668678528,62181331,,-5.8123246730358e-11,-6.365686690048075e-221,1.92702428038712,5e-324,-5e-324,0.0
1668678528.0703743,57646,1668678528,70116538,,-3.075171998950262e-11,-3.36794356208973e-221,2.0079064393314776,5e-324,-5e-324,0.0
1668678528.0785313,57647,1668678528,78004494,,-1.6270052612509152e-11,-1.7819041981998638e-221,2.0884914851248224,5e-324,-5e-324,0.0
1668678528.0865355,57648,1668678528,86314603,,-8.608123776627084e-12,-9.427659677266602e-222,2.131137003058723,5e-324,-5e-324,0.0
1668678528.0942945,57649,1668678528,93941501,,-8.608123776627084e-12,-9.427659677266602e-222,2.131137003058723,5e-324,-5e-324,0.0
1668678528.1027064,57650,1668678528,102460679,,-4.554367261035238e-12,-4.987965519142318e-222,2.144605448708899,5e-324,-5e-324,0.0
1668678528.1103976,57651,1668678528,110188199,,-2.4096146485148523e-12,-2.6390218645828544e-222,2.189372489763695,5e-324,-5e-324,0.0
1668678528.1186185,57652,1668678528,118385260,,-1.2748736370060674e-12,-1.396247904084129e-222,2.213062939970227,5e-324,-5e-324,0.0
1668678528.1263783,57653,1668678528,126128063,,-6.745073496854865e-13,-7.3872378089125e-223,2.1833698270226805,5e-324,-5e-324,0.0
1668678528.134334,57654,1668678528,134068031,,-6.745073496854865e-13,-7.3872378089125e-223,2.1833698270226805,5e-324,-5e-324,0.0
1668678528.1423469,57655,1668678528,142101566,,-3.568668702320761e-13,-3.908423589091973e-223,2.171680041399545,5e-324,-5e-324,0.0
1668678528.1504028,57656,1668678528,150178921,,-1.8881034154575315e-13,-2.0678601862986967e-223,2.165510235600135,5e-324,-5e-324,0.0
1668678528.1583352,57657,1668678528,158119685,,-0.087236489583571,-1.0940589351710253e-223,2.222638970354315,5e-324,-5e-324,0.0
1668678528.1662765,57658,1668678528,166024004,,-0.13340708600360884,-5.788423035360184e-224,2.252860632179873,5e-324,-5e-324,0.0
1668678528.1746774,57659,1668678528,174212072,,-0.13153583164051286,-3.062526172874838e-224,2.306058501972558,5e-324,-5e-324,0.0
1668678528.1820862,57660,1668678528,181845320,,-0.13153583164051286,-3.062526172874838e-224,2.306058501972558,5e-324,-5e-324,0.0
1668678528.190857,57661,1668678528,190547970,,-0.31554897706698976,-1.620314635307195e-224,2.437123577972688,5e-324,-5e-324,0.0
1668678528.1983151,57662,1668678528,198079449,,-0.4128268834676466,-8.572725159524656e-225,2.5064950438815554,5e-324,-5e-324,0.0
1668678528.2066634,57663,1668678528,206392534,,-0.8359005932695258,-4.5356386382829765e-225,2.7870570128450165,5e-324,-5e-324,0.0
1668678528.21449,57664,1668678528,214182187,,-1.1272637038123654,-2.3997057498372128e-225,3.04620210305527,5e-324,-5e-324,0.0
1668678528.2219036,57665,1668678528,221721292,,-1.1272637038123654,-2.3997057498372128e-225,3.04620210305527,5e-324,-5e-324,0.0
1668678528.230335,57666,1668678528,230089853,,-1.2814790189124208,-1.269631058611355e-225,3.183309265125966,5e-324,-5e-324,0.0
1668678528.2393377,57667,1668678528,238957597,,-1.299495195167181,-6.717336177987403e-226,3.2241102052964044,5e-324,-5e-324,0.0
1668678528.2468314,57668,1668678528,246480024,,-1.3090555079594464,-3.553993502447141e-226,3.2457041040200862,5e-324,-5e-324,0.0
1668678528.254164,57669,1668678528,253955803,,-1.3090555079594464,-3.553993502447141e-226,3.2457041040200862,5e-324,-5e-324,0.0
1668678528.2623022,57670,1668678528,262074612,,-1.3079214070986427,-1.8803390928725056e-226,3.241617175850967,5e-324,-5e-324,0.0
1668678528.2711785,57671,1668678528,270723412,,-1.0896527311962174,-9.948456860571269e-227,3.1272185796662244,5e-324,-5e-324,0.0
1668678528.2785149,57672,1668678528,278231423,,-0.9740205162117648,-5.2635077514371615e-227,3.066750643556638,5e-324,-5e-324,0.0
1668678528.286431,57673,1668678528,286164426,,-0.6246952467275593,-2.784805144930609e-227,2.8571189824960936,5e-324,-5e-324,0.0
1668678528.2940578,57674,1668678528,293816075,,-0.6246952467275593,-2.784805144930609e-227,2.8571189824960936,5e-324,-5e-324,0.0
1668678528.3029807,57675,1668678528,302374105,,-0.3305123919738892,-1.4733786025325997e-227,2.565440343626223,5e-324,-5e-324,0.0
1668678528.3103404,57676,1668678528,310124751,,-0.17486677195087194,-7.795319217765266e-228,2.4111337722838435,5e-324,-5e-324,0.0
1668678528.3184035,57677,1668678528,318198126,,-0.09251812844262122,-4.124330406482604e-228,2.3659326723770127,5e-324,-5e-324,0.0
1668678528.3264048,57678,1668678528,326205327,,-0.04894928862145486,-2.182091692033794e-228,2.342027438750514,5e-324,-5e-324,0.0
1668678528.3343182,57679,1668678528,334095780,,-0.025897982340104132,-1.1544962898604738e-228,2.3768255965986613,5e-324,-5e-324,0.0
1668678528.3425627,57680,1668678528,342288371,,-0.025897982340104132,-1.1544962898604738e-228,2.3768255965986613,5e-324,-5e-324,0.0
1668678528.3510435,57681,1668678528,350831444,,-0.07661724578063199,-6.108183666926115e-229,2.640129802853746,5e-324,-5e-324,0.0
1668678528.358299,57682,1668678528,358107460,,-0.10337127340586275,-3.2317044269940474e-229,2.7794595804038096,5e-324,-5e-324,0.0
1668678528.3665977,57683,1668678528,366220716,,-0.4907992749046112,-1.709823095203148e-229,3.0681663094685527,5e-324,-5e-324,0.0
1668678528.3744564,57684,1668678528,374215660,,-1.1361254413608428,-9.046294557356369e-230,3.494845721503969,5e-324,-5e-324,0.0
1668678528.3824744,57685,1668678528,382188308,,-1.1361254413608428,-9.046294557356369e-230,3.494845721503969,5e-324,-5e-324,0.0
1668678528.390932,57686,1668678528,390666028,,-1.477587487288841,-4.786193697350451e-230,3.7205775718530347,5e-324,-5e-324,0.0
1668678528.401437,57687,1668678528,398932678,,-1.8509016066436594,0.02506180172438875,3.876790901012298,5e-324,-5e-324,0.0
1668678528.4065368,57688,1668678528,406259154,,-2.048407315162928,0.038531033376938084,3.9594004180175313,5e-324,-5e-324,0.0
1668678528.4141634,57689,1668678528,413993869,,-2.1450618477743593,0.10400147964611459,3.9736638474287087,5e-324,-5e-324,0.0
1668678528.4220922,57690,1668678528,421893495,,-2.1450618477743593,0.10400147964611459,3.9736638474287087,5e-324,-5e-324,0.0
1668678528.4304588,57691,1668678528,430210247,,-2.079447474161543,0.05502487490776779,3.9115101767298093,5e-324,-5e-324,0.0
1668678528.4384465,57692,1668678528,438222683,,-2.0446386350741785,0.02911244021640809,3.8786437445363804,5e-324,-5e-324,0.0
1668678528.4463537,57693,1668678528,446125514,,-1.593577843041109,0.015402746063022665,3.60426693307136,5e-324,-5e-324,0.0
1668678528.4540045,57694,1668678528,453845072,,-1.593577843041109,0.015402746063022665,3.60426693307136,5e-324,-5e-324,0.0
1668678528.4631236,57695,1668678528,462819034,,-0.959909342668097,0.008149251128328521,3.1810877326670854,5e-324,-5e-324,0.0
1668678528.4702797,57696,1668678528,470034638,,-0.6247031873858807,0.004311587925999423,2.9571815455621087,5e-324,-5e-324,0.0
1668678528.4782114,57697,1668678528,478028434,,-0.3305165931999901,0.0022811654900414054,2.6929330139888554,5e-324,-5e-324,0.0
1668678528.486409,57698,1668678528,486123168,,-0.17486899472636944,0.0012069140377671012,2.5531398153478415,5e-324,-5e-324,0.0
1668678528.494459,57699,1668678528,494156170,,-0.17486899472636944,0.0012069140377671012,2.5531398153478415,5e-324,-5e-324,0.0
1668678528.5023468,57700,1668678528,502113980,,-0.09251930446380971,0.0006385514338693806,2.455629581950744,5e-324,-5e-324,0.0
1668678528.5104141,57701,1668678528,510227610,,-0.13794830097385857,0.0003378433930978316,2.4935885911391313,5e-324,-5e-324,0.0
1668678528.5187814,57702,1668678528,518395208,,-0.16198741924659468,0.0001787454419579357,2.5136739221268414,5e-324,-5e-324,0.0
1668678528.5268474,57703,1668678528,526487791,,-0.34997393219586753,9.457024666895231e-05,2.683643354123859,5e-324,-5e-324,0.0
1668678528.5345962,57704,1668678528,534247637,,-0.7524348291580967,5.003501883494838e-05,3.0107874805041983,5e-324,-5e-324,0.0
1668678528.5420065,57705,1668678528,541806974,,-0.7524348291580967,5.003501883494838e-05,3.0107874805041983,5e-324,-5e-324,0.0
1668678528.5503383,57706,1668678528,550155375,,-0.9654964115064616,2.6472418101829346e-05,3.1838417943533126,5e-324,-5e-324,0.0
1668678528.5584571,57707,1668678528,558193754,,-1.1184403126230884,1.4005968948862993e-05,3.337192193512717,5e-324,-5e-324,0.0
1668678528.5672145,57708,1668678528,566982710,,-1.199349118928209,7.410247354130389e-06,3.4183363223360894,5e-324,-5e-324,0.0
1668678528.57424,57709,1668678528,574016821,,-1.2505375006278197,3.920597428845091e-06,3.4514501919122966,5e-324,-5e-324,0.0
1668678528.5819979,57710,1668678528,581794086,,-1.2505375006278197,3.920597428845091e-06,3.4514501919122966,5e-324,-5e-324,0.0
1668678528.590964,57711,1668678528,590123383,,-0.9262599959426359,2.074301094753479e-06,3.211072801435442,5e-324,-5e-324,0.0
1668678528.5988996,57712,1668678528,598511547,,-0.7547694351882073,1.0974666768995347e-06,3.083867111690024,5e-324,-5e-324,0.0
1668678528.6064136,57713,1668678528,606183913,,-0.40885277714233675,5.806452640608807e-07,2.8434291902851645,5e-324,-5e-324,0.0
1668678528.6143286,57714,1668678528,614116873,,-0.21631493123464438,3.072065236903712e-07,2.5886581823317654,5e-324,-5e-324,0.0
1668678528.6222208,57715,1668678528,621929909,,-0.21631493123464438,3.072065236903712e-07,2.5886581823317654,5e-324,-5e-324,0.0
1668678528.6306262,57716,1668678528,630406099,,-0.11444742971321152,1.625361542396517e-07,2.4538714115188602,5e-324,-5e-324,0.0
1668678528.638416,57717,1668678528,638223558,,-0.06055159527454164,8.59942722493815e-08,2.3681149054953945,5e-324,-5e-324,0.0
1668678528.6462178,57718,1668678528,646017078,,-0.032036505314969446,4.5497661085281695e-08,2.2760634511114617,5e-324,-5e-324,0.0
1668678528.6545248,57719,1668678528,654238320,,-0.016949804016601688,2.407180280830907e-08,2.2273649913564846,5e-324,-5e-324,0.0
1668678528.6620927,57720,1668678528,661872856,,-0.016949804016601688,2.407180280830907e-08,2.2273649913564846,5e-324,-5e-324,0.0
1668678528.6705215,57721,1668678528,670305800,,-0.008967765159671277,1.273585667087328e-08,2.1828972711566967,5e-324,-5e-324,0.0
1668678528.6784942,57722,1668678528,678186601,,-0.004744645535738637,6.738259133837651e-09,2.1593321155488856,5e-324,-5e-324,0.0
1668678528.6873221,57723,1668678528,686646761,,-0.0025102866610558928,3.5650633740708726e-09,2.1001475543360275,5e-324,-5e-324,0.0
1668678528.6943107,57724,1668678528,694039408,,-0.0025102866610558928,3.5650633740708726e-09,2.1001475543360275,5e-324,-5e-324,0.0
1668678528.702268,57725,1668678528,702028651,,-0.001328136964755183,1.8861959162889948e-09,1.988633000955382,5e-324,-5e-324,0.0
1668678528.7104056,57726,1668678528,710180992,,-0.0007026877943920347,9.979444013537341e-10,1.92962012280483,5e-324,-5e-324,0.0
1668678528.7185955,57727,1668678528,718249611,,-0.0003717765181534267,5.279902366412908e-10,1.902713261510053,5e-324,-5e-324,0.0
1668678528.7265062,57728,1668678528,726127096,,-0.00019669870539002493,2.793479171889371e-10,1.8322845388494273,5e-324,-5e-324,0.0
1668678528.734095,57729,1668678528,733874362,,-0.00019669870539002493,2.793479171889371e-10,1.8322845388494273,5e-324,-5e-324,0.0
1668678528.742741,57730,1668678528,742512513,,-0.00010406891993685536,1.4779678377047966e-10,1.795003330333794,5e-324,-5e-324,0.0
1668678528.750377,57731,1668678528,750137434,,0.21665394828982645,-0.0650712334709918,1.4787959327981444,5e-324,-5e-324,0.0
1668678528.7583349,57732,1668678528,758137330,,0.331384399704291,-0.0994129983383904,1.311510280599116,5e-324,-5e-324,0.0
1668678528.7663767,57733,1668678528,766136295,,0.7024937879735945,-0.2727243904967137,1.059199401835642,5e-324,-5e-324,0.0
1668678528.7742567,57734,1668678528,774045579,,1.1229421011026621,-0.38484425078431816,0.882139026861915,5e-324,-5e-324,0.0
1668678528.782282,57735,1668678528,782047614,,1.1229421011026621,-0.38484425078431816,0.882139026861915,5e-324,-5e-324,0.0
1668678528.7904634,57736,1668678528,790209483,,1.3452419868981285,-0.4443162985945358,0.7885551803846054,5e-324,-5e-324,0.0
1668678528.7983785,57737,1668678528,798093261,,1.4815659581116383,-0.4483925368083541,0.7289413712439299,5e-324,-5e-324,0.0
1668678528.8063934,57738,1668678528,806156373,,1.7831446607618688,-0.5289211256557429,0.5796309843816626,5e-324,-5e-324,0.0
1668678528.8142958,57739,1668678528,814072057,,1.9426109039828456,-0.5716329631155981,0.5007168501555215,5e-324,-5e-324,0.0
1668678528.8219814,57740,1668678528,821766984,,1.9426109039828456,-0.5716329631155981,0.5007168501555215,5e-324,-5e-324,0.0
1668678528.8306005,57741,1668678528,830395469,,2.1669521018592715,-0.6560690803766918,0.35086962198568294,5e-324,-5e-324,0.0
1668678528.838431,57742,1668678528,838159846,,2.2856000331726287,-0.7008538223629498,0.2715567702059104,5e-324,-5e-324,0.0
1668678528.8464434,57743,1668678528,846045713,,2.4228573445180457,-0.7631436677650352,0.21574648427081988,5e-324,-5e-324,0.0
1668678528.854813,57744,1668678528,854487599,,2.4228573445180457,-0.7631436677650352,0.21574648427081988,5e-324,-5e-324,0.0
1668678528.8622303,57745,1668678528,862052001,,2.4498207495868587,-0.7024983188831284,0.27881857526168907,5e-324,-5e-324,0.0
1668678528.8702767,57746,1668678528,870055901,,2.4641326948904174,-0.6703100441788588,0.31219318403606877,5e-324,-5e-324,0.0
1668678528.8783739,57747,1668678528,878164972,,2.4738858742258594,-0.6380560796614849,0.34831657198411814,5e-324,-5e-324,0.0
1668678528.8863988,57748,1668678528,886123397,,2.3615018447184988,-0.5568448696624425,0.38107131155769036,5e-324,-5e-324,0.0
1668678528.8943682,57749,1668678528,894155993,,2.302040414963646,-0.5138781332612737,0.3984042938781741,5e-324,-5e-324,0.0
1668678528.9020674,57750,1668678528,901841474,,2.302040414963646,-0.5138781332612737,0.3984042938781741,5e-324,-5e-324,0.0
1668678528.9107435,57751,1668678528,910437265,,2.522964260074302,-0.6354219023841691,0.3899737177917434,5e-324,-5e-324,0.0
1668678528.9183285,57752,1668678528,918145371,,2.639892163712756,-0.6996515502296652,0.385496694363404,5e-324,-5e-324,0.0
1668678528.9264412,57753,1668678528,926211325,,2.75866064495843,-0.756873469610926,0.3455188295732262,5e-324,-5e-324,0.0
1668678528.934019,57754,1668678528,933788920,,2.75866064495843,-0.756873469610926,0.3455188295732262,5e-324,-5e-324,0.0
1668678528.9425082,57755,1668678528,942182281,,2.9999298455489347,-0.821463127460939,0.272059748212671,5e-324,-5e-324,0.0
1668678528.9502964,57756,1668678528,950132865,,3.1275108444046475,-0.8556706268580307,0.23338752956145775,5e-324,-5e-324,0.0
1668678528.9582446,57757,1668678528,958050871,,3.2446984411624977,-0.9072035487093257,0.21324853025382784,5e-324,-5e-324,0.0
1668678528.966246,57758,1668678528,966067302,,3.0871341253558677,-0.7592346396992501,0.26649675950011736,5e-324,-5e-324,0.0
1668678528.9748433,57759,1668678528,974513798,,3.003682019767613,-0.6812636162371892,0.2945499150111379,5e-324,-5e-324,0.0
1668678528.9827538,57760,1668678528,982482651,,3.003682019767613,-0.6812636162371892,0.2945499150111379,5e-324,-5e-324,0.0
1668678528.9905205,57761,1668678528,990281746,,3.207757261964445,-0.8143921703278836,0.2501194836130191,5e-324,-5e-324,0.0
1668678528.999387,57762,1668678528,999024628,,3.3156401434019727,-0.8850270819106362,0.2266140409173351,5e-324,-5e-324,0.0
1668678529.0072253,57763,1668678529,6973340,,3.025995232018838,-0.7254394336740073,0.41970218407992155,5e-324,-5e-324,0.0
1668678529.0151424,57764,1668678529,14861687,,2.7905671632824376,-0.6302809565550397,0.6399468114057821,5e-324,-5e-324,0.0
1668678529.0220652,57765,1668678529,21877404,,2.7905671632824376,-0.6302809565550397,0.6399468114057821,5e-324,-5e-324,0.0
1668678529.0310767,57766,1668678529,30779605,,2.665907982422838,-0.5801287541799376,0.7565024442879278,5e-324,-5e-324,0.0
1668678529.038684,57767,1668678529,38137661,,2.5820641337875285,-0.6090740741356182,0.8618020346277112,5e-324,-5e-324,0.0
1668678529.0469859,57768,1668678529,46757183,,2.068204827655287,-0.45931808209447383,1.1576075114666575,5e-324,-5e-324,0.0
1668678529.0542383,57769,1668678529,54041689,,2.068204827655287,-0.45931808209447383,1.1576075114666575,5e-324,-5e-324,0.0
1668678529.0629673,57770,1668678529,62768414,,1.7962430157354894,-0.3802798696896847,1.3141011178710067,5e-324,-5e-324,0.0
1668678529.0707657,57771,1668678529,70467881,,1.8691386190125963,-0.5540581951341688,1.2631566215382004,5e-324,-5e-324,0.0
1668678529.0782418,57772,1668678529,78056355,,1.9076939110365903,-0.6460147308402788,1.2362079540822908,5e-324,-5e-324,0.0
1668678529.0863483,57773,1668678529,86153103,,1.803062606780486,-0.6415311703973674,1.2311410750405078,5e-324,-5e-324,0.0
1668678529.0941556,57774,1668678529,93937408,,1.803062606780486,-0.6415311703973674,1.2311410750405078,5e-324,-5e-324,0.0
1668678529.1029663,57775,1668678529,102705578,,1.8982469060862266,-0.779817470766327,1.150180326016657,5e-324,-5e-324,0.0
1668678529.1113021,57776,1668678529,111070782,,1.948526941224225,-0.8529758725351244,1.107467794117361,5e-324,-5e-324,0.0
1668678529.118387,57777,1668678529,118152742,,2.001507701310927,-0.9533999545910723,1.1047121106332738,5e-324,-5e-324,0.0
1668678529.1266313,57778,1668678529,126257636,,1.6281915258237576,-0.801278791633593,1.2855111657135296,5e-324,-5e-324,0.0
1668678529.1342256,57779,1668678529,133933791,,1.6281915258237576,-0.801278791633593,1.2855111657135296,5e-324,-5e-324,0.0
1668678529.1426353,57780,1668678529,142403895,,1.4307308121974716,-0.7206750692868381,1.381199727753374,5e-324,-5e-324,0.0
1668678529.1503386,57781,1668678529,150115063,,1.5464508823517327,-0.8816480733180923,1.3827292234873692,5e-324,-5e-324,0.0
1668678529.1582375,57782,1668678529,158029435,,1.6076187790696836,-0.9668756254485049,1.3835502853302404,5e-324,-5e-324,0.0
1668678529.1665099,57783,1668678529,166309774,,1.4516409135739723,-0.9201472336874679,1.5341437437247873,5e-324,-5e-324,0.0
1668678529.1740093,57784,1668678529,173793661,,1.4516409135739723,-0.9201472336874679,1.5341437437247873,5e-324,-5e-324,0.0
1668678529.1822534,57785,1668678529,182038531,,1.2704281833861537,-0.8966060287295851,1.7793864947724305,5e-324,-5e-324,0.0
1668678529.1904457,57786,1668678529,190204591,,1.1746574665831528,-0.8839937862071268,1.9091641780504398,5e-324,-5e-324,0.0
1668678529.1988728,57787,1668678529,198420794,,1.145915793357307,-0.9159100062886012,1.9973141112894357,5e-324,-5e-324,0.0
1668678529.2064793,57788,1668678529,206229274,,0.985467975662804,-0.8503310846099374,2.0385163778845623,5e-324,-5e-324,0.0
1668678529.214665,57789,1668678529,214414847,,0.985467975662804,-0.8503310846099374,2.0385163778845623,5e-324,-5e-324,0.0
1668678529.223978,57790,1668678529,223561429,,0.9004636005420263,-0.8156730223805292,2.060360818904585,5e-324,-5e-324,0.0
1668678529.2312722,57791,1668678529,230770408,,1.0377926460991946,-0.9029069574750039,2.0163190705923486,5e-324,-5e-324,0.0
1668678529.238337,57792,1668678529,238128501,,1.11059460800185,-0.9488906654266234,1.9930255275631161,5e-324,-5e-324,0.0
1668678529.246323,57793,1668678529,246044384,,1.3522814076682566,-1.0901795750831997,1.8779993347606982,5e-324,-5e-324,0.0
1668678529.25402,57794,1668678529,253789443,,1.3522814076682566,-1.0901795750831997,1.8779993347606982,5e-324,-5e-324,0.0
1668678529.263078,57795,1668678529,262761749,,1.5752493901156224,-1.1850312575672723,1.826262864337447,5e-324,-5e-324,0.0
1668678529.2711198,57796,1668678529,270847742,,1.6930640802143757,-1.2354320977322433,1.7988665421504408,5e-324,-5e-324,0.0
1668678529.278934,57797,1668678529,278650206,,1.7477724321046901,-1.2969583914653346,1.785155334416501,5e-324,-5e-324,0.0
1668678529.2865353,57798,1668678529,286305217,,1.9618718491958789,-1.4319465608396345,1.6139007633614106,5e-324,-5e-324,0.0
1668678529.2944465,57799,1668678529,294161360,,2.0752946315187986,-1.5031349107496235,1.5233449784855493,5e-324,-5e-324,0.0
1668678529.3025043,57800,1668678529,302158255,,2.0752946315187986,-1.5031349107496235,1.5233449784855493,5e-324,-5e-324,0.0
1668678529.310385,57801,1668678529,310180780,,1.8714797737761084,-1.4059554743736005,1.6298728726253626,5e-324,-5e-324,0.0
1668678529.3183646,57802,1668678529,318103041,,1.763697265467136,-1.354517810021435,1.6862035361381114,5e-324,-5e-324,0.0
1668678529.3263748,57803,1668678529,326119208,,1.9220239694250165,-1.455389424744172,1.6559311378872617,5e-324,-5e-324,0.0
1668678529.3342655,57804,1668678529,334073677,,1.9220239694250165,-1.455389424744172,1.6559311378872617,5e-324,-5e-324,0.0
1668678529.3424792,57805,1668678529,342264947,,1.8827094120291408,-1.4642712125791006,1.6821931765760372,5e-324,-5e-324,0.0
1668678529.3505466,57806,1668678529,350293865,,1.8620237046512407,-1.4688667334978067,1.696062269821008,5e-324,-5e-324,0.0
1668678529.3585646,57807,1668678529,358343335,,1.8249153860901508,-1.4329112548454241,1.7027858733040442,5e-324,-5e-324,0.0
1668678529.3665342,57808,1668678529,366291141,,1.9054519040022517,-1.538838320129394,1.6942616344097012,5e-324,-5e-324,0.0
1668678529.374152,57809,1668678529,373951184,,1.9054519040022517,-1.538838320129394,1.6942616344097012,5e-324,-5e-324,0.0
1668678529.3823419,57810,1668678529,382149528,,1.9482860610597847,-1.5948860677395469,1.6894975055837964,5e-324,-5e-324,0.0
1668678529.3904932,57811,1668678529,390147266,,1.8402819159536286,-1.5140926954226064,1.732854131660496,5e-324,-5e-324,0.0
1668678529.3982444,57812,1668678529,398068748,,1.783082247117622,-1.4713469691682874,1.7558487240816771,5e-324,-5e-324,0.0
1668678529.4068284,57813,1668678529,406610412,,1.907421148315976,-1.5355934858607316,1.7077147791936877,5e-324,-5e-324,0.0
1668678529.4143305,57814,1668678529,414110700,,1.9892682179424792,-1.5989742103114346,1.7436848953075654,5e-324,-5e-324,0.0
1668678529.423254,57815,1668678529,422926605,,1.9892682179424792,-1.5989742103114346,1.7436848953075654,5e-324,-5e-324,0.0
1668678529.431001,57816,1668678529,430719281,,2.0324239316670596,-1.6325996399716067,1.7627910683050767,5e-324,-5e-324,0.0
1668678529.4388478,57817,1668678529,438603738,,2.0177717126163977,-1.628540323377857,1.772753036688325,5e-324,-5e-324,0.0
1668678529.4463577,57818,1668678529,446120473,,1.9016181447880434,-1.5601951467086725,1.8104897207574435,5e-324,-5e-324,0.0
1668678529.4546068,57819,1668678529,454392503,,1.9016181447880434,-1.5601951467086725,1.8104897207574435,5e-324,-5e-324,0.0
1668678529.462341,57820,1668678529,462160947,,1.8403245258615726,-1.5238978135656165,1.8304189141433962,5e-324,-5e-324,0.0
1668678529.4702773,57821,1668678529,470005335,,1.8192636565043363,-1.5413394049500653,1.8181783092309738,5e-324,-5e-324,0.0
1668678529.478297,57822,1668678529,478111452,,1.8082315621170695,-1.550683101096916,1.8114859652099704,5e-324,-5e-324,0.0
1668678529.4864974,57823,1668678529,486227969,,1.8351324570113081,-1.5784974326057128,1.780224472346549,5e-324,-5e-324,0.0
1668678529.4951284,57824,1668678529,494765117,,1.83404482131272,-1.5857549825295756,1.8199178111028396,5e-324,-5e-324,0.0
1668678529.5023885,57825,1668678529,502152294,,1.83404482131272,-1.5857549825295756,1.8199178111028396,5e-324,-5e-324,0.0
1668678529.5109348,57826,1668678529,510763683,,1.8335566523810052,-1.5895021366498212,1.8409162619336363,5e-324,-5e-324,0.0
1668678529.5185835,57827,1668678529,518235711,,1.7693437563774093,-1.6323826244362236,1.8485035853814238,5e-324,-5e-324,0.0
1668678529.5264816,57828,1668678529,526239202,,1.438812434079809,-1.5736331074527445,2.0367088292277216,5e-324,-5e-324,0.0
1668678529.5343263,57829,1668678529,534103158,,1.2640396945907337,-1.542530706840202,2.136232742533777,5e-324,-5e-324,0.0
1668678529.5419717,57830,1668678529,541803567,,1.2640396945907337,-1.542530706840202,2.136232742533777,5e-324,-5e-324,0.0
1668678529.5505967,57831,1668678529,550248163,,1.3178722962929719,-1.7204777025062747,2.1023326225449335,5e-324,-5e-324,0.0
1668678529.5583286,57832,1668678529,558114728,,1.3463440849080388,-1.8146618146267843,2.0843698615991735,5e-324,-5e-324,0.0
1668678529.5662951,57833,1668678529,566059553,,1.289479365289465,-1.839494751004353,2.079846739875609,5e-324,-5e-324,0.0
1668678529.574576,57834,1668678529,574272325,,1.2941717164995605,-1.9619461839741636,2.0415750889917965,5e-324,-5e-324,0.0
1668678529.582393,57835,1668678529,582106547,,1.2941717164995605,-1.9619461839741636,2.0415750889917965,5e-324,-5e-324,0.0
1668678529.5905037,57836,1668678529,590224416,,1.296505305581623,-2.026772185042484,2.021399679686549,5e-324,-5e-324,0.0
1668678529.5985096,57837,1668678529,598287766,,1.257400380091041,-2.126398435056185,1.998255870063239,5e-324,-5e-324,0.0
1668678529.6062992,57838,1668678529,606087694,,1.0364969778534523,-2.105260400525137,2.0706605803128233,5e-324,-5e-324,0.0
1668678529.6147237,57839,1668678529,614171081,,0.9197351786946297,-2.0942054653102846,2.108778157744794,5e-324,-5e-324,0.0
1668678529.6222095,57840,1668678529,621983118,,0.9197351786946297,-2.0942054653102846,2.108778157744794,5e-324,-5e-324,0.0
1668678529.6304488,57841,1668678529,630178193,,0.851902982470095,-2.209509226915619,2.112845600226877,5e-324,-5e-324,0.0
1668678529.6382763,57842,1668678529,638099870,,0.8159885623496123,-2.270566972496699,2.1149554924850196,5e-324,-5e-324,0.0
1668678529.6479845,57843,1668678529,646734362,,0.6573545542268577,-2.2398636517357096,2.271363854976926,5e-324,-5e-324,0.0
1668678529.654271,57844,1668678529,654070429,,0.6811456855362038,-2.3614149362981216,2.3607588974679135,5e-324,-5e-324,0.0
1668678529.6621273,57845,1668678529,661870056,,0.6811456855362038,-2.3614149362981216,2.3607588974679135,5e-324,-5e-324,0.0
1668678529.670517,57846,1668678529,670226769,,0.693492827656464,-2.425630759738438,2.408269593509776,5e-324,-5e-324,0.0
1668678529.6790977,57847,1668678529,678774584,,0.7108326418922231,-2.491921943207645,2.3961381118156364,5e-324,-5e-324,0.0
1668678529.6864815,57848,1668678529,686132836,,0.5118486272845381,-2.3047517902181074,2.537273018351928,5e-324,-5e-324,0.0
1668678529.6944425,57849,1668678529,694232763,,0.40673544435230813,-2.205878545668688,2.6117576618161698,5e-324,-5e-324,0.0
1668678529.70201,57850,1668678529,701839953,,0.40673544435230813,-2.205878545668688,2.6117576618161698,5e-324,-5e-324,0.0
1668678529.7104642,57851,1668678529,710195526,,0.3748275020794187,-2.200779523858227,2.70383002156095,5e-324,-5e-324,0.0
1668678529.7185545,57852,1668678529,718363826,,0.3579705085642555,-2.198115904040023,2.7525060778385573,5e-324,-5e-324,0.0
1668678529.7264638,57853,1668678529,726214068,,0.18939425209566288,-2.090435853062134,2.890739698974624,5e-324,-5e-324,0.0
1668678529.734701,57854,1668678529,734441462,,0.10020429579728025,-2.137536522925725,2.9185129200554707,5e-324,-5e-324,0.0
1668678529.742581,57855,1668678529,742244012,,0.10020429579728025,-2.137536522925725,2.9185129200554707,5e-324,-5e-324,0.0
1668678529.7503698,57856,1668678529,750172681,,0.05301586919943688,-2.1624597284537272,2.9332113004795763,5e-324,-5e-324,0.0
1668678529.7584481,57857,1668678529,758221943,,0.0686809720600688,-2.203673765037014,2.950663457355698,5e-324,-5e-324,0.0
1668678529.7666228,57858,1668678529,766311938,,0.03633757816723877,-2.0670126928672223,3.127970385978191,5e-324,-5e-324,0.0
1668678529.7745113,57859,1668678529,774030906,,0.019225406214480198,-1.9945955176140986,3.221875378509861,5e-324,-5e-324,0.0
1668678529.7819731,57860,1668678529,781776381,,0.019225406214480198,-1.9945955176140986,3.221875378509861,5e-324,-5e-324,0.0
1668678529.7903724,57861,1668678529,790178345,,0.010171735783014082,-2.0832052927472393,3.230807782482652,5e-324,-5e-324,0.0
1668678529.79881,57862,1668678529,798368541,,0.005381639674355587,-2.129966775904756,3.2356355015049214,5e-324,-5e-324,0.0
1668678529.8071806,57863,1668678529,806848101,,0.0028473061237947427,-2.061803351215142,3.336070091886681,5e-324,-5e-324,0.0
1668678529.8151352,57864,1668678529,814908268,,0.0015064464834446236,-2.00968892588351,3.393778129825334,5e-324,-5e-324,0.0
1668678529.8229742,57865,1668678529,822674021,,0.0015064464834446236,-2.00968892588351,3.393778129825334,5e-324,-5e-324,0.0
1668678529.8303585,57866,1668678529,830134935,,0.0007970274037335187,-1.9822075898202898,3.4242414314162177,5e-324,-5e-324,0.0
1668678529.838528,57867,1668678529,838258384,,0.0004216895118966535,-2.018219589046143,3.474076105163995,5e-324,-5e-324,0.0
1668678529.8463774,57868,1668678529,846121645,,0.00022310656272377252,-1.8263610435017528,3.653441326374943,5e-324,-5e-324,0.0
1668678529.8544776,57869,1668678529,854139419,,0.00011804073121604158,-1.7245549800307707,3.7485001176865085,5e-324,-5e-324,0.0
1668678529.8620753,57870,1668678529,861847708,,0.00011804073121604158,-1.7245549800307707,3.7485001176865085,5e-324,-5e-324,0.0
1668678529.8706157,57871,1668678529,870137193,,6.245273135810413e-05,-1.7472382559946489,3.728250459298485,5e-324,-5e-324,0.0
1668678529.8783288,57872,1668678529,878078018,,3.30423542272794e-05,-1.759116196946421,3.7176078278803404,5e-324,-5e-324,0.0
1668678529.886547,57873,1668678529,886332699,,1.7481976354575124e-05,-1.729966272899536,3.7539554022934416,5e-324,-5e-324,0.0
1668678529.8945522,57874,1668678529,894341575,,9.24932573386698e-06,-1.703800042105065,3.739576237157207,5e-324,-5e-324,0.0
1668678529.9025962,57875,1668678529,902135224,,9.24932573386698e-06,-1.703800042105065,3.739576237157207,5e-324,-5e-324,0.0
1668678529.911173,57876,1668678529,910819747,,4.893612987228705e-06,-1.690077572677251,3.7318747499863862,5e-324,-5e-324,0.0
1668678529.9184418,57877,1668678529,918188588,,2.589102033793488e-06,-1.733045903249292,3.723924824697182,5e-324,-5e-324,0.0
1668678529.9263759,57878,1668678529,926158479,,1.3698364294209948e-06,-1.6916866636265548,3.6948399142835666,5e-324,-5e-324,0.0
1668678529.9345877,57879,1668678529,934346863,,1.3698364294209948e-06,-1.6916866636265548,3.6948399142835666,5e-324,-5e-324,0.0
1668678529.943349,57880,1668678529,943009928,,7.247500557633602e-07,-1.6695946534007504,3.67956769626523,5e-324,-5e-324,0.0
1668678529.951113,57881,1668678529,950071635,,3.8344917104519754e-07,-1.6463321709970227,3.6994736062578513,5e-324,-5e-324,0.0
1668678529.9583428,57882,1668678529,958160307,,2.0287444699867307e-07,-1.6341560890335038,3.7098982311482125,5e-324,-5e-324,0.0
1668678529.9665425,57883,1668678529,966278341,,1.0733636777158678e-07,-1.6748544907160943,3.678538889627029,5e-324,-5e-324,0.0
1668678529.9742627,57884,1668678529,974090769,,5.678929020801072e-08,-1.6568881895497447,3.642442708172143,5e-324,-5e-324,0.0
1668678529.9822595,57885,1668678529,982058449,,5.678929020801072e-08,-1.6568881895497447,3.642442708172143,5e-324,-5e-324,0.0
1668678529.9903483,57886,1668678529,990171096,,3.004595319633467e-08,-1.6474170782440845,3.623306464044017,5e-324,-5e-324,0.0
1668678529.9991944,57887,1668678529,998165402,,1.5896647064431705e-08,-1.6263629209271588,3.636324598577759,5e-324,-5e-324,0.0
1668678530.0063758,57888,1668678530,6189670,,0.00376176739569251,-1.7884609640698117,3.55097844818713,5e-324,-5e-324,0.0
1668678530.0142634,57889,1668678530,14103521,,0.006003401777012869,-1.8746476718044134,3.5054838642859347,5e-324,-5e-324,0.0
1668678530.0219746,57890,1668678530,21761055,,0.006003401777012869,-1.8746476718044134,3.5054838642859347,5e-324,-5e-324,0.0
1668678530.0306637,57891,1668678530,30338747,,0.0031762666543325964,-1.9106660908757873,3.467507251899911,5e-324,-5e-324,0.0
1668678530.0385509,57892,1668678530,38244119,,0.0016804921999481826,-1.9300112112283405,3.4472439496635436,5e-324,-5e-324,0.0
1668678530.0464728,57893,1668678530,46175850,,0.22734454596271528,-2.097284398654973,3.2780648324483375,5e-324,-5e-324,0.0
1668678530.0547907,57894,1668678530,54514648,,0.5254469392681779,-2.250286042208092,3.0613564462059077,5e-324,-5e-324,0.0
1668678530.0621865,57895,1668678530,61918835,,0.5254469392681779,-2.250286042208092,3.0613564462059077,5e-324,-5e-324,0.0
1668678530.0703156,57896,1668678530,70063869,,0.6831231138981484,-2.33116850541075,2.946782222768366,5e-324,-5e-324,0.0
1668678530.078364,57897,1668678530,78174085,,0.7225566931032228,-2.3679346399517973,2.881613002878892,5e-324,-5e-324,0.0
1668678530.0864768,57898,1668678530,86267705,,1.2011921274981834,-2.7164672457329897,2.6577190311827765,5e-324,-5e-324,0.0
1668678530.0962772,57899,1668678530,94443294,,1.4546783202313185,-2.900796730996314,2.539146089212908,5e-324,-5e-324,0.0
1668678530.102302,57900,1668678530,102073888,,1.4546783202313185,-2.900796730996314,2.539146089212908,5e-324,-5e-324,0.0
1668678530.110476,57901,1668678530,110209782,,1.7560711753165368,-3.102632318257329,2.373968183471495,5e-324,-5e-324,0.0
1668678530.1185596,57902,1668678530,118383085,,1.9158274564824245,-3.2093936765977507,2.2863233096818814,5e-324,-5e-324,0.0
1668678530.126777,57903,1668678530,126455863,,2.213058971289784,-3.30933289941847,2.1171836554483727,5e-324,-5e-324,0.0
1668678530.1342916,57904,1668678530,134029337,,2.213058971289784,-3.30933289941847,2.1171836554483727,5e-324,-5e-324,0.0
1668678530.1424882,57905,1668678530,142293748,,2.348513119069701,-3.393923867206345,2.0848930823130125,5e-324,-5e-324,0.0
1668678530.1505477,57906,1668678530,150336173,,2.419949772086581,-3.4389559808335983,2.067664174441374,5e-324,-5e-324,0.0
1668678530.159249,57907,1668678530,158898067,,2.4027656336234413,-3.4488056446846596,2.0866757417850867,5e-324,-5e-324,0.0
1668678530.166644,57908,1668678530,166394025,,2.3866078110314803,-3.516748260015511,2.1454161858983856,5e-324,-5e-324,0.0
1668678530.1745863,57909,1668678530,174343063,,2.378442595312624,-3.552643329301925,2.1761662544068807,5e-324,-5e-324,0.0
1668678530.18201,57910,1668678530,181795059,,2.378442595312624,-3.552643329301925,2.1761662544068807,5e-324,-5e-324,0.0
1668678530.1909568,57911,1668678530,190704888,,2.2546738289302968,-3.544699494837733,2.268507757569775,5e-324,-5e-324,0.0
1668678530.1984582,57912,1668678530,198211485,,2.1891288810200407,-3.540793963452063,2.317020503028689,5e-324,-5e-324,0.0
1668678530.2064183,57913,1668678530,206176856,,2.096000972459014,-3.481807140702395,2.379964866918387,5e-324,-5e-324,0.0
1668678530.2145271,57914,1668678530,214274907,,2.115063968832929,-3.5038047494398414,2.4793573878798756,5e-324,-5e-324,0.0
1668678530.22227,57915,1668678530,221951821,,2.115063968832929,-3.5038047494398414,2.4793573878798756,5e-324,-5e-324,0.0
1668678530.2302902,57916,1668678530,230084839,,2.124997357430794,-3.515175758117892,2.5324140553649306,5e-324,-5e-324,0.0
1668678530.2383313,57917,1668678530,238102771,,2.1501719013273575,-3.4980576792520206,2.5876329280054753,5e-324,-5e-324,0.0
1668678530.246743,57918,1668678530,246500973,,2.0670981708911955,-3.3339844216048453,2.656902426002432,5e-324,-5e-324,0.0
1668678530.25431,57919,1668678530,254069393,,2.023428036494129,-3.2469932328441926,2.693530615687038,5e-324,-5e-324,0.0
1668678530.262087,57920,1668678530,261858050,,2.023428036494129,-3.2469932328441926,2.693530615687038,5e-324,-5e-324,0.0
1668678530.2703276,57921,1668678530,270158562,,2.2968111919028695,-3.3346970610877262,2.562966993607631,5e-324,-5e-324,0.0
1668678530.278331,57922,1668678530,278111200,,2.4416679717045406,-3.3809770838279984,2.4938194635875353,5e-324,-5e-324,0.0
1668678530.2864645,57923,1668678530,286169387,,2.386173616807713,-3.3383472201019617,2.4995986199662257,5e-324,-5e-324,0.0
1668678530.294454,57924,1668678530,294246008,,2.41698989029831,-3.251080961534802,2.542955670046699,5e-324,-5e-324,0.0
1668678530.3021588,57925,1668678530,301941063,,2.41698989029831,-3.251080961534802,2.542955670046699,5e-324,-5e-324,0.0
1668678530.310256,57926,1668678530,310065458,,2.433261453725167,-3.2045335906497296,2.566361798762335,5e-324,-5e-324,0.0
1668678530.318425,57927,1668678530,318179691,,2.515672338793825,-3.213373037936993,2.6024323008539203,5e-324,-5e-324,0.0
1668678530.3263168,57928,1668678530,326082218,,2.226184600690322,-2.942885814833744,2.7779404219109045,5e-324,-5e-324,0.0
1668678530.3343034,57929,1668678530,334089587,,2.073112732997589,-2.7997823877059895,2.870727524459742,5e-324,-5e-324,0.0
1668678530.3422132,57930,1668678530,342002977,,2.073112732997589,-2.7997823877059895,2.870727524459742,5e-324,-5e-324,0.0
1668678530.3506014,57931,1668678530,350042774,,1.9301794125153928,-2.6251762414717987,2.9372522469052775,5e-324,-5e-324,0.0
1668678530.3584597,57932,1668678530,358269957,,1.8546817732318794,-2.532674966009158,2.9724660081441536,5e-324,-5e-324,0.0
1668678530.36664,57933,1668678530,366357164,,1.9261386735690804,-2.3685883804666594,2.8983564101783994,5e-324,-5e-324,0.0
1668678530.3740036,57934,1668678530,373792690,,1.9261386735690804,-2.3685883804666594,2.8983564101783994,5e-324,-5e-324,0.0
