Time,header.seq,header.stamp.secs,header.stamp.nsecs,header.frame_id,pose.position.x,pose.position.y,pose.position.z,pose.orientation.x,pose.orientation.y,pose.orientation.z,pose.orientation.w
1668680398.0242448,8032,1668680398,23893450,,-0.09879818042605681,-0.6160097982720759,0.07088206676343935,0.9955612156868732,0.0935231652621386,-0.004347595385041371,0.009611544818283819
1668680398.0315654,8033,1668680398,31484237,,-0.09879818042605673,-0.616009798272076,0.0708820667634393,0.9955612156868727,0.09352316526213804,-0.004347595385067759,0.009611544818335727
1668680398.0399146,8034,1668680398,39638245,,-0.09879818042605695,-0.6160097982720761,0.07088206676343932,0.9955612156868721,0.09352316526213741,-0.004347595385094076,0.009611544818387505
1668680398.0488799,8035,1668680398,48722902,,-0.09879818042605691,-0.6160097982720758,0.07088206676343929,0.9955612156868715,0.09352316526213678,-0.004347595385120335,0.009611544818439169
1668680398.0566907,8036,1668680398,56454760,,-0.09879818042605705,-0.616009798272076,0.07088206676343922,0.995561215686871,0.09352316526213617,-0.004347595385146526,0.009611544818490686
1668680398.063363,8037,1668680398,63232055,,-0.09879818042605701,-0.6160097982720757,0.07088206676343926,0.9955612156868704,0.09352316526213553,-0.004347595385172643,0.009611544818542006
1668680398.0717034,8038,1668680398,71603457,,-0.09879818042605722,-0.6160097982720758,0.07088206676343914,0.9955612156868698,0.09352316526213492,-0.004347595385198729,0.009611544818593295
1668680398.079803,8039,1668680398,79587158,,-0.09879818042605722,-0.6160097982720759,0.07088206676343918,0.9955612156868693,0.09352316526213424,-0.004347595385224836,0.009611544818644619
1668680398.0880404,8040,1668680398,87804334,,-0.09879818042605738,-0.6160097982720758,0.07088206676343921,0.9955612156868687,0.09352316526213364,-0.004347595385250824,0.009611544818695712
1668680398.0955322,8041,1668680398,95429733,,-0.09879818042605744,-0.6160097982720758,0.07088206676343915,0.9955612156868682,0.09352316526213296,-0.004347595385276757,0.009611544818746631
1668680398.1038938,8042,1668680398,103760485,,-0.09879818042605758,-0.6160097982720757,0.07088206676343926,0.9955612156868676,0.09352316526213238,-0.004347595385302623,0.009611544818797434
1668680398.1118302,8043,1668680398,111656487,,-0.09879818042605758,-0.6160097982720757,0.07088206676343911,0.9955612156868671,0.09352316526213171,-0.004347595385328329,0.009611544818847878
1668680398.1204987,8044,1668680398,120263294,,-0.09879818042605774,-0.6160097982720757,0.07088206676343908,0.9955612156868665,0.09352316526213106,-0.004347595385354058,0.009611544818898383
1668680398.1276536,8045,1668680398,127562363,,-0.09879818042605767,-0.6160097982720756,0.07088206676343893,0.9955612156868661,0.09352316526213045,-0.0043475953853795305,0.0096115448189486
1668680398.1357281,8046,1668680398,135603686,,-0.09879818042605776,-0.6160097982720757,0.07088206676343894,0.9955612156868655,0.0935231652621298,-0.004347595385404955,0.009611544818998681
1668680398.1436696,8047,1668680398,143515545,,-0.09879818042605774,-0.6160097982720757,0.07088206676343906,0.9955612156868651,0.09352316526212923,-0.00434759538543041,0.009611544819048858
1668680398.1530209,8048,1668680398,152815214,,-0.09879818042605781,-0.6160097982720755,0.07088206676343912,0.9955612156868645,0.09352316526212853,-0.004347595385455696,0.009611544819098643
1668680398.1602175,8049,1668680398,160013730,,-0.09879818042605776,-0.6160097982720756,0.07088206676343915,0.995561215686864,0.09352316526212798,-0.0043475953854809,0.009611544819148277
1668680398.1677516,8050,1668680398,167591904,,-0.09879818042605795,-0.6160097982720757,0.07088206676343911,0.9955612156868634,0.09352316526212727,-0.004347595385506048,0.009611544819197751
1668680398.1753473,8051,1668680398,175228743,,-0.09879818042605781,-0.6160097982720754,0.07088206676343917,0.9955612156868628,0.09352316526212674,-0.004347595385531032,0.009611544819246915
1668680398.1840928,8052,1668680398,183717216,,-0.0987981804260579,-0.6160097982720757,0.0708820667634392,0.9955612156868624,0.09352316526212606,-0.004347595385555993,0.009611544819295983
1668680398.191913,8053,1668680398,191739501,,-0.09879818042605791,-0.6160097982720755,0.07088206676343929,0.9955612156868617,0.09352316526212542,-0.004347595385580795,0.00961154481934471
1668680398.1998646,8054,1668680398,199680533,,-0.09879818042605798,-0.6160097982720756,0.07088206676343924,0.9955612156868613,0.09352316526212474,-0.004347595385605558,0.009611544819393364
1668680398.2076635,8055,1668680398,207525659,,-0.09879818042605798,-0.6160097982720755,0.07088206676343929,0.9955612156868607,0.0935231652621242,-0.004347595385630265,0.009611544819441889
1668680398.2162077,8056,1668680398,215954347,,-0.09879818042605802,-0.6160097982720756,0.07088206676343929,0.9955612156868603,0.09352316526212352,-0.004347595385654774,0.009611544819490002
1668680398.2234116,8057,1668680398,223281124,,-0.09879818042605795,-0.6160097982720757,0.07088206676343933,0.9955612156868597,0.09352316526212294,-0.004347595385679166,0.009611544819538095
1668680398.2316346,8058,1668680398,231508882,,-0.09879818042605797,-0.6160097982720755,0.07088206676343943,0.9955612156868592,0.09352316526212226,-0.0043475953857033825,0.009611544819585807
1668680398.2396615,8059,1668680398,239527917,,-0.09879818042605788,-0.6160097982720756,0.07088206676343935,0.9955612156868587,0.09352316526212169,-0.0043475953857275255,0.009611544819633394
1668680398.2480483,8060,1668680398,247850176,,-0.09879818042605794,-0.6160097982720757,0.07088206676343928,0.9955612156868582,0.09352316526212102,-0.004347595385751555,0.009611544819680693
1668680398.2556446,8061,1668680398,255552079,,-0.09879818042605785,-0.6160097982720757,0.07088206676343939,0.9955612156868577,0.09352316526212046,-0.004347595385775545,0.009611544819727903
1668680398.2634823,8062,1668680398,263382314,,-0.09879818042605785,-0.6160097982720756,0.07088206676343929,0.9955612156868573,0.09352316526211976,-0.004347595385799293,0.009611544819774632
1668680398.271565,8063,1668680398,271469529,,-0.09879818042605779,-0.6160097982720758,0.07088206676343943,0.9955612156868567,0.09352316526211917,-0.004347595385823029,0.009611544819821283
1668680398.279939,8064,1668680398,279759815,,-0.09879818042605772,-0.6160097982720757,0.07088206676343933,0.9955612156868563,0.09352316526211854,-0.004347595385846556,0.009611544819867503
1668680398.28769,8065,1668680398,287535691,,-0.09879818042605772,-0.6160097982720757,0.07088206676343929,0.9955612156868557,0.09352316526211793,-0.004347595385870022,0.009611544819913612
1668680398.295841,8066,1668680398,295660875,,-0.09879818042605784,-0.6160097982720754,0.07088206676343922,0.9955612156868553,0.09352316526211717,-0.00434759538589331,0.009611544819959277
1668680398.303852,8067,1668680398,303689285,,-0.0987981804260578,-0.6160097982720757,0.07088206676343929,0.9955612156868547,0.09352316526211668,-0.004347595385916495,0.009611544820004996
1668680398.312103,8068,1668680398,311934908,,-0.09879818042605784,-0.6160097982720756,0.07088206676343924,0.9955612156868543,0.09352316526211621,-0.004347595385939475,0.009611544820050276
1668680398.3196576,8069,1668680398,319471249,,-0.09879818042605801,-0.6160097982720758,0.07088206676343939,0.9955612156868539,0.09352316526211564,-0.004347595385962429,0.009611544820095495
1668680398.3276823,8070,1668680398,327545834,,-0.0987981804260581,-0.6160097982720756,0.0708820667634393,0.9955612156868534,0.09352316526211504,-0.004347595385985186,0.009611544820140294
1668680398.335761,8071,1668680398,335644112,,-0.09879818042605809,-0.6160097982720756,0.07088206676343922,0.9955612156868529,0.0935231652621146,-0.004347595386007743,0.009611544820184626
1668680398.3446121,8072,1668680398,344405516,,-0.09879818042605809,-0.6160097982720755,0.07088206676343925,0.9955612156868524,0.0935231652621141,-0.004347595386030242,0.009611544820228838
1668680398.3526235,8073,1668680398,352375365,,-0.09879818042605813,-0.6160097982720758,0.07088206676343912,0.995561215686852,0.09352316526211359,-0.0043475953860525815,0.009611544820272731
1668680398.3601327,8074,1668680398,360024006,,-0.09879818042605817,-0.6160097982720755,0.07088206676343929,0.9955612156868514,0.09352316526211311,-0.004347595386074845,0.009611544820316415
1668680398.3689768,8075,1668680398,368703157,,-0.09879818042605835,-0.6160097982720758,0.07088206676343946,0.995561215686851,0.0935231652621125,-0.004347595386096971,0.00961154482035984
1668680398.3760278,8076,1668680398,375806706,,-0.09879818042605822,-0.6160097982720757,0.07088206676343932,0.9955612156868505,0.09352316526211207,-0.004347595386118779,0.009611544820402817
1668680398.383602,8077,1668680398,383426917,,-0.09879818042605827,-0.6160097982720754,0.07088206676343925,0.9955612156868501,0.09352316526211152,-0.004347595386140488,0.009611544820445544
1668680398.3917851,8078,1668680398,391627179,,-0.09879818042605823,-0.6160097982720757,0.07088206676343922,0.9955612156868496,0.09352316526211107,-0.004347595386162097,0.009611544820488092
1668680398.3997114,8079,1668680398,399605767,,-0.09879818042605827,-0.6160097982720756,0.07088206676343915,0.9955612156868492,0.09352316526211049,-0.0043475953861835176,0.009611544820530239
1668680398.40882,8080,1668680398,408515452,,-0.09879818042605819,-0.6160097982720756,0.07088206676343933,0.9955612156868487,0.09352316526211002,-0.0043475953862048755,0.009611544820572243
1668680398.415433,8081,1668680398,415272498,,-0.09879818042605812,-0.6160097982720756,0.07088206676343924,0.9955612156868483,0.09352316526210958,-0.0043475953862259975,0.009611544820613724
1668680398.4237952,8082,1668680398,423604803,,-0.09879818042605817,-0.6160097982720756,0.07088206676343921,0.9955612156868479,0.093523165262109,-0.004347595386246964,0.009611544820654856
1668680398.4317894,8083,1668680398,431603240,,-0.09879818042605806,-0.6160097982720757,0.07088206676343933,0.9955612156868473,0.09352316526210849,-0.00434759538626778,0.009611544820695903
1668680398.4407923,8084,1668680398,440557072,,-0.09879818042605806,-0.6160097982720757,0.07088206676343925,0.9955612156868469,0.09352316526210795,-0.00434759538628838,0.009611544820736511
1668680398.4485373,8085,1668680398,448081032,,-0.09879818042605801,-0.6160097982720756,0.07088206676343922,0.9955612156868464,0.0935231652621074,-0.004347595386308832,0.009611544820776793
1668680398.4577467,8086,1668680398,457470026,,-0.09879818042605806,-0.6160097982720756,0.07088206676343914,0.9955612156868461,0.09352316526210684,-0.0043475953863291224,0.0096115448208167
1668680398.4645922,8087,1668680398,464428791,,-0.09879818042605815,-0.6160097982720756,0.0708820667634391,0.9955612156868456,0.09352316526210618,-0.004347595386349269,0.009611544820856308
1668680398.4734306,8088,1668680398,473067690,,-0.09879818042605817,-0.6160097982720757,0.07088206676343918,0.9955612156868453,0.09352316526210558,-0.004347595386369304,0.009611544820895681
1668680398.4802155,8089,1668680398,480062073,,-0.09879818042605834,-0.6160097982720756,0.0708820667634391,0.9955612156868449,0.09352316526210487,-0.004347595386389129,0.009611544820934589
1668680398.4876199,8090,1668680398,487472477,,-0.09879818042605826,-0.6160097982720755,0.07088206676343918,0.9955612156868444,0.09352316526210427,-0.004347595386408782,0.009611544820973369
1668680398.495439,8091,1668680398,495261932,,-0.09879818042605841,-0.6160097982720755,0.07088206676343911,0.9955612156868441,0.09352316526210366,-0.004347595386428285,0.009611544821011826
1668680398.504072,8092,1668680398,503889361,,-0.09879818042605837,-0.6160097982720756,0.07088206676343914,0.9955612156868435,0.09352316526210332,-0.004347595386447602,0.009611544821049882
1668680398.5116782,8093,1668680398,511552850,,-0.09879818042605833,-0.6160097982720758,0.07088206676343922,0.9955612156868432,0.09352316526210297,-0.004347595386466759,0.009611544821087602
1668680398.5196831,8094,1668680398,519575949,,-0.09879818042605837,-0.6160097982720757,0.07088206676343908,0.9955612156868427,0.09352316526210255,-0.004347595386485698,0.009611544821124814
1668680398.5276816,8095,1668680398,527551077,,-0.09879818042605834,-0.6160097982720758,0.07088206676343924,0.9955612156868424,0.09352316526210212,-0.004347595386504499,0.009611544821161737
1668680398.536907,8096,1668680398,536557037,,-0.09879818042605831,-0.6160097982720755,0.07088206676343911,0.995561215686842,0.09352316526210179,-0.0043475953865231825,0.009611544821198375
1668680398.5435653,8097,1668680398,543396342,,-0.09879818042605829,-0.6160097982720755,0.070882066763439,0.9955612156868416,0.0935231652621013,-0.0043475953865415315,0.009611544821234566
1668680398.5517302,8098,1668680398,551572146,,-0.09879818042605817,-0.6160097982720757,0.07088206676343903,0.9955612156868412,0.09352316526210103,-0.00434759538655978,0.009611544821270565
1668680398.5597928,8099,1668680398,559654997,,-0.09879818042605806,-0.6160097982720755,0.07088206676343911,0.9955612156868409,0.0935231652621006,-0.004347595386577868,0.009611544821306212
1668680398.56879,8100,1668680398,568515879,,-0.09879818042605808,-0.6160097982720756,0.07088206676343921,0.9955612156868404,0.09352316526210025,-0.004347595386595848,0.009611544821341612
1668680398.5761316,8101,1668680398,576019058,,-0.09879818042605815,-0.6160097982720756,0.07088206676343917,0.9955612156868401,0.09352316526209974,-0.004347595386613578,0.009611544821376428
1668680398.5843933,8102,1668680398,584286226,,-0.09879818042605831,-0.6160097982720759,0.07088206676343918,0.9955612156868398,0.09352316526209921,-0.004347595386631165,0.009611544821410956
1668680398.5916228,8103,1668680398,591486944,,-0.09879818042605838,-0.6160097982720758,0.07088206676343929,0.9955612156868394,0.09352316526209872,-0.004347595386648631,0.009611544821445231
1668680398.6002855,8104,1668680398,600025150,,-0.09879818042605831,-0.6160097982720757,0.07088206676343922,0.995561215686839,0.09352316526209829,-0.004347595386665739,0.009611544821478989
1668680398.609276,8105,1668680398,609061138,,-0.09879818042605847,-0.6160097982720757,0.07088206676343921,0.9955612156868386,0.09352316526209768,-0.00434759538668273,0.009611544821512464
1668680398.615776,8106,1668680398,615581181,,-0.09879818042605837,-0.6160097982720754,0.07088206676343899,0.9955612156868383,0.09352316526209728,-0.0043475953866994686,0.009611544821545371
1668680398.6234362,8107,1668680398,623323815,,-0.09879818042605833,-0.6160097982720754,0.07088206676343914,0.995561215686838,0.09352316526209678,-0.0043475953867161505,0.00961154482157824
1668680398.6320114,8108,1668680398,631775149,,-0.09879818042605847,-0.6160097982720756,0.0708820667634391,0.9955612156868376,0.09352316526209625,-0.004347595386732662,0.009611544821610656
1668680398.6396985,8109,1668680398,639553850,,-0.09879818042605847,-0.6160097982720756,0.0708820667634391,0.9955612156868374,0.09352316526209574,-0.004347595386748991,0.009611544821642701
1668680398.6478043,8110,1668680398,647634351,,-0.0987981804260584,-0.6160097982720756,0.07088206676343928,0.995561215686837,0.0935231652620953,-0.004347595386765083,0.009611544821674506
1668680398.6554785,8111,1668680398,655322780,,-0.09879818042605844,-0.6160097982720756,0.07088206676343917,0.9955612156868366,0.0935231652620947,-0.004347595386780896,0.009611544821705675
1668680398.664043,8112,1668680398,663812405,,-0.09879818042605837,-0.6160097982720757,0.07088206676343933,0.9955612156868363,0.09352316526209448,-0.004347595386796632,0.0096115448217367
1668680398.6718307,8113,1668680398,671693940,,-0.09879818042605824,-0.6160097982720756,0.07088206676343926,0.9955612156868361,0.09352316526209424,-0.004347595386812154,0.009611544821767229
1668680398.6795835,8114,1668680398,679476589,,-0.09879818042605831,-0.6160097982720756,0.07088206676343932,0.9955612156868356,0.0935231652620939,-0.004347595386827529,0.009611544821797461
1668680398.6875377,8115,1668680398,687424020,,-0.09879818042605824,-0.6160097982720755,0.07088206676343928,0.9955612156868353,0.09352316526209364,-0.004347595386842749,0.00961154482182732
1668680398.6959832,8116,1668680398,695624376,,-0.09879818042605827,-0.6160097982720758,0.07088206676343917,0.9955612156868351,0.09352316526209334,-0.004347595386857697,0.009611544821856602
1668680398.7036054,8117,1668680398,703506253,,-0.09879818042605837,-0.6160097982720757,0.07088206676343926,0.9955612156868346,0.09352316526209292,-0.0043475953868724075,0.00961154482188565
1668680398.7118216,8118,1668680398,711685942,,-0.09879818042605837,-0.6160097982720755,0.07088206676343929,0.9955612156868344,0.09352316526209252,-0.0043475953868870034,0.009611544821914408
1668680398.719986,8119,1668680398,719801183,,-0.09879818042605834,-0.6160097982720757,0.07088206676343921,0.9955612156868342,0.09352316526209219,-0.004347595386901387,0.009611544821942737
1668680398.7283838,8120,1668680398,728165560,,-0.09879818042605838,-0.6160097982720755,0.07088206676343928,0.9955612156868339,0.09352316526209184,-0.00434759538691562,0.009611544821970703
1668680398.7354786,8121,1668680398,735301699,,-0.09879818042605855,-0.6160097982720757,0.07088206676343954,0.9955612156868335,0.09352316526209141,-0.004347595386929723,0.009611544821998398
1668680398.7440126,8122,1668680398,743901194,,-0.09879818042605852,-0.6160097982720757,0.07088206676343924,0.9955612156868332,0.09352316526209101,-0.004347595386943532,0.00961154482202544
1668680398.7529345,8123,1668680398,752750981,,-0.09879818042605847,-0.6160097982720755,0.07088206676343932,0.995561215686833,0.09352316526209069,-0.004347595386957126,0.009611544822052297
1668680398.7601724,8124,1668680398,759957494,,-0.09879818042605842,-0.6160097982720757,0.07088206676343928,0.9955612156868328,0.09352316526209035,-0.0043475953869705234,0.009611544822078714
1668680398.767752,8125,1668680398,767611360,,-0.0987981804260585,-0.6160097982720755,0.07088206676343918,0.9955612156868324,0.09352316526208991,-0.0043475953869837524,0.00961154482210477
1668680398.7753859,8126,1668680398,775236960,,-0.09879818042605842,-0.6160097982720755,0.07088206676343933,0.9955612156868321,0.09352316526208952,-0.0043475953869967715,0.009611544822130355
1668680398.7837927,8127,1668680398,783599387,,-0.09879818042605838,-0.6160097982720756,0.07088206676343936,0.995561215686832,0.09352316526208924,-0.00434759538700969,0.00961154482215573
1668680398.7923543,8128,1668680398,792157767,,-0.09879818042605842,-0.6160097982720755,0.07088206676343924,0.9955612156868316,0.09352316526208873,-0.0043475953870223336,0.009611544822180495
1668680398.7997828,8129,1668680398,799656563,,-0.0987981804260583,-0.6160097982720755,0.07088206676343917,0.9955612156868314,0.0935231652620884,-0.004347595387034788,0.009611544822205099
1668680398.8076997,8130,1668680398,807598916,,-0.09879818042605816,-0.6160097982720755,0.07088206676343936,0.9955612156868311,0.09352316526208808,-0.00434759538704706,0.009611544822229343
1668680398.815496,8131,1668680398,815389005,,-0.09879818042605817,-0.6160097982720754,0.07088206676343928,0.9955612156868308,0.0935231652620879,-0.0043475953870591106,0.009611544822253074
1668680398.824104,8132,1668680398,823866808,,-0.09879818042605822,-0.6160097982720755,0.070882066763439,0.9955612156868306,0.09352316526208763,-0.004347595387070991,0.009611544822276434
1668680398.831782,8133,1668680398,831638390,,-0.09879818042605844,-0.6160097982720756,0.07088206676343926,0.9955612156868303,0.09352316526208732,-0.004347595387082793,0.009611544822299636
1668680398.8404083,8134,1668680398,840195438,,-0.09879818042605841,-0.6160097982720757,0.07088206676343929,0.9955612156868301,0.09352316526208704,-0.004347595387094356,0.009611544822322278
1668680398.8476584,8135,1668680398,847528111,,-0.09879818042605834,-0.6160097982720756,0.07088206676343928,0.9955612156868299,0.09352316526208687,-0.004347595387105623,0.009611544822344562
1668680398.856121,8136,1668680398,855838287,,-0.09879818042605847,-0.6160097982720756,0.07088206676343922,0.9955612156868296,0.09352316526208648,-0.004347595387116689,0.009611544822366426
1668680398.8634531,8137,1668680398,863309141,,-0.09879818042605844,-0.6160097982720755,0.07088206676343928,0.9955612156868294,0.09352316526208627,-0.004347595387127636,0.009611544822387994
1668680398.8717601,8138,1668680398,871629657,,-0.09879818042605837,-0.6160097982720755,0.07088206676343921,0.9955612156868292,0.09352316526208605,-0.004347595387138346,0.009611544822409047
1668680398.8796086,8139,1668680398,879521703,,-0.09879818042605833,-0.6160097982720755,0.0708820667634391,0.995561215686829,0.0935231652620858,-0.004347595387148882,0.00961154482242975
1668680398.888527,8140,1668680398,888339311,,-0.09879818042605829,-0.6160097982720755,0.07088206676343918,0.9955612156868286,0.0935231652620856,-0.0043475953871592865,0.00961154482245013
1668680398.896351,8141,1668680398,896067794,,-0.0987981804260583,-0.6160097982720755,0.07088206676343928,0.9955612156868284,0.09352316526208537,-0.004347595387169559,0.009611544822470232
1668680398.903769,8142,1668680398,903548900,,-0.09879818042605829,-0.6160097982720755,0.0708820667634393,0.9955612156868283,0.09352316526208503,-0.004347595387179489,0.009611544822489868
1668680398.9117026,8143,1668680398,911546865,,-0.09879818042605823,-0.6160097982720757,0.07088206676343933,0.9955612156868281,0.0935231652620848,-0.004347595387189297,0.00961154482250921
1668680398.9201722,8144,1668680398,919824053,,-0.09879818042605815,-0.6160097982720756,0.07088206676343944,0.9955612156868279,0.09352316526208453,-0.004347595387198872,0.009611544822528064
1668680398.927645,8145,1668680398,927544970,,-0.09879818042605813,-0.6160097982720757,0.0708820667634392,0.9955612156868276,0.09352316526208426,-0.004347595387208261,0.009611544822546529
1668680398.9360025,8146,1668680398,935863346,,-0.0987981804260584,-0.6160097982720756,0.07088206676343911,0.9955612156868275,0.09352316526208378,-0.004347595387217472,0.009611544822564565
1668680398.9435058,8147,1668680398,943393607,,-0.09879818042605844,-0.6160097982720755,0.07088206676343926,0.9955612156868273,0.09352316526208344,-0.004347595387226597,0.009611544822582405
1668680398.9520023,8148,1668680398,951721279,,-0.09879818042605838,-0.6160097982720757,0.07088206676343936,0.9955612156868272,0.09352316526208308,-0.004347595387235411,0.009611544822599858
1668680398.9598162,8149,1668680398,959714480,,-0.09879818042605842,-0.6160097982720757,0.07088206676343935,0.995561215686827,0.09352316526208271,-0.0043475953872440225,0.009611544822616863
1668680398.9676497,8150,1668680398,967552389,,-0.09879818042605841,-0.6160097982720756,0.07088206676343942,0.9955612156868268,0.09352316526208264,-0.004347595387252501,0.009611544822633567
1668680398.9756277,8151,1668680398,975536909,,-0.09879818042605854,-0.6160097982720756,0.07088206676343933,0.9955612156868267,0.09352316526208242,-0.00434759538726078,0.009611544822649842
1668680398.9841592,8152,1668680398,983949113,,-0.09879818042605837,-0.6160097982720756,0.07088206676343929,0.9955612156868264,0.09352316526208239,-0.004347595387268823,0.009611544822665597
1668680398.9917903,8153,1668680398,991675011,,-0.0987981796473027,-0.6160097975381156,0.07088206676343935,0.9955612156868263,0.09352316526208214,-0.004347595387276696,0.009611544822681182
1668680398.9996104,8154,1668680398,999471380,,-0.09879817503784137,-0.6160097931938007,0.07088206676343917,0.9955612156868261,0.09352316526208203,-0.004347595387284319,0.0096115448226962
1668680399.0080066,8155,1668680399,7767582,,-0.09879816067942906,-0.6160097796613156,0.07088206676343907,0.9955612156868259,0.09352316526208179,-0.004347595387291879,0.009611544822710986
1668680399.015922,8156,1668680399,15698041,,-0.09879812802571436,-0.616009748885912,0.07088206676343776,0.9955612156868258,0.09352316526208175,-0.004347595387299241,0.009611544822725476
1668680399.023956,8157,1668680399,23745118,,-0.09879806612681588,-0.6160096905475658,0.0708820667634331,0.9955612156868257,0.0935231652620815,-0.0043475953873063685,0.009611544822739505
1668680399.0337658,8158,1668680399,33407474,,-0.09879796184091295,-0.616009592260392,0.07088206676341983,0.9955612156868255,0.09352316526208128,-0.004347595387313503,0.009611544822753405
1668680399.0397723,8159,1668680399,39609277,,-0.09879780003346317,-0.6160094397604008,0.07088206676338699,0.9955612156868254,0.09352316526208111,-0.00434759538732039,0.009611544822766873
1668680399.0490668,8160,1668680399,48709382,,-0.09879756376462953,-0.6160092170821367,0.07088206676331632,0.9955612156868252,0.09352316526208078,-0.004347595387327131,0.009611544822780127
1668680399.0565944,8161,1668680399,56285416,,-0.09879723446548046,-0.6160089067247377,0.0708820667631781,0.9955612156868251,0.09352316526208065,-0.004347595387333878,0.00961154482279342
1668680399.0633657,8162,1668680399,63270536,,-0.09879679210350001,-0.6160084898079194,0.07088206676292796,0.9955612156868249,0.0935231652620806,-0.004347595387340741,0.009611544822806998
1668680399.0715456,8163,1668680399,71448372,,-0.09879621533792951,-0.6160079462183721,0.07088206676250286,0.9955612156868248,0.09352316526208054,-0.004347595387347808,0.009611544822821264
1668680399.0808702,8164,1668680399,80555928,,-0.09879548166543432,-0.6160072547470408,0.07088206676181638,0.9955612156868247,0.0935231652620804,-0.004347595387355298,0.009611544822836405
1668680399.0877755,8165,1668680399,87666910,,-0.0987945675565755,-0.6160063932177406,0.07088206676075443,0.9955612156868244,0.09352316526208014,-0.004347595387363485,0.009611544822853313
1668680399.0953765,8166,1668680399,95284587,,-0.0987934485835415,-0.6160053386075314,0.07088206675917115,0.9955612156868242,0.09352316526208002,-0.004347595387372959,0.009611544822872948
1668680399.1038094,8167,1668680399,103636502,,-0.09879209953958072,-0.6160040671592738,0.07088206675688369,0.995561215686824,0.09352316526207978,-0.004347595387383993,0.009611544822896171
1668680399.1121776,8168,1668680399,111948900,,-0.098790494550552,-0.616002554486757,0.07088206675366841,0.9955612156868237,0.09352316526207952,-0.00434759538739739,0.009611544822924398
1668680399.119568,8169,1668680399,119477049,,-0.09878860717899868,-0.616000775672779,0.07088206674925655,0.9955612156868233,0.09352316526207939,-0.004347595387413813,0.009611544822959608
1668680399.1277127,8170,1668680399,127549923,,-0.09878641052113012,-0.6159987053605444,0.07088206674333045,0.9955612156868229,0.09352316526207911,-0.004347595387434148,0.009611544823003243
1668680399.135396,8171,1668680399,135250247,,-0.0987838772970793,-0.6159963178387269,0.07088206673552012,0.995561215686822,0.09352316526207902,-0.004347595387459428,0.009611544823058014
1668680399.144103,8172,1668680399,143874708,,-0.09878097993479178,-0.6159935871205301,0.07088206672540004,0.9955612156868213,0.0935231652620788,-0.004347595387491058,0.00961154482312675
1668680399.151863,8173,1668680399,151689390,,-0.09877769064787946,-0.6159904870170603,0.0708820667124873,0.9955612156868203,0.09352316526207871,-0.004347595387530361,0.009611544823212692
1668680399.1597433,8174,1668680399,159564316,,-0.0987739815077689,-0.6159869912053263,0.07088206669623823,0.9955612156868191,0.09352316526207861,-0.00434759538757908,0.009611544823319586
1668680399.1676598,8175,1668680399,167557398,,-0.0987698245104458,-0.6159830732911443,0.07088206667604795,0.9955612156868175,0.09352316526207835,-0.004347595387639273,0.009611544823451607
1668680399.1765127,8176,1668680399,176196060,,-0.09876519163809491,-0.6159787068672365,0.07088206665124884,0.9955612156868157,0.09352316526207789,-0.004347595387712806,0.009611544823613311
1668680399.183964,8177,1668680399,183702431,,-0.0987600549159169,-0.6159738655667858,0.07088206662111042,0.9955612156868135,0.09352316526207753,-0.0043475953878023875,0.009611544823810365
1668680399.1917465,8178,1668680399,191572673,,-0.09875438646438958,-0.6159685231126943,0.07088206658483887,0.9955612156868108,0.09352316526207712,-0.004347595387910428,0.00961154482404861
1668680399.1996486,8179,1668680399,199533477,,-0.09874815854723165,-0.6159626533627989,0.07088206654157818,0.9955612156868074,0.09352316526207675,-0.004347595388040314,0.009611544824334826
1668680399.2080703,8180,1668680399,207789682,,-0.098741343615313,-0.6159562303512648,0.07088206649041102,0.9955612156868036,0.09352316526207625,-0.0043475953881949225,0.009611544824675881
1668680399.2154856,8181,1668680399,215355128,,-0.09873391434674555,-0.6159492283263821,0.07088206643036048,0.9955612156867989,0.09352316526207573,-0.004347595388378052,0.00961154482507996
1668680399.2235684,8182,1668680399,223432737,,-0.09872584368337811,-0.6159416217849739,0.07088206636039147,0.9955612156867935,0.09352316526207517,-0.004347595388593419,0.009611544825555474
1668680399.2317486,8183,1668680399,231624892,,-0.09871710486390582,-0.6159333855036183,0.0708820662794142,0.995561215686787,0.09352316526207444,-0.004347595388845306,0.009611544826111516
1668680399.2402382,8184,1668680399,240011754,,-0.09870767145379755,-0.61592449456687,0.07088206618628705,0.9955612156867796,0.09352316526207374,-0.004347595389138288,0.009611544826758675
1668680399.247751,8185,1668680399,247633200,,-0.09869751737223335,-0.6159149243926655,0.07088206607981876,0.9955612156867709,0.09352316526207276,-0.004347595389477089,0.009611544827507066
1668680399.255868,8186,1668680399,255683115,,-0.09868661691623459,-0.6159046507550873,0.07088206595877308,0.995561215686761,0.0935231652620717,-0.004347595389866997,0.009611544828368417
1668680399.263518,8187,1668680399,263329596,,-0.09867494478216145,-0.6158936498046453,0.07088206582187226,0.9955612156867497,0.09352316526207063,-0.004347595390313256,0.009611544829354501
1668680399.2728171,8188,1668680399,272513268,,-0.09866247608474463,-0.6158818980862371,0.07088206566780189,0.9955612156867367,0.09352316526206934,-0.0043475953908218715,0.0096115448304784
1668680399.2807,8189,1668680399,280517505,,-0.0986491863738049,-0.6158693725549299,0.07088206549521427,0.995561215686722,0.09352316526206766,-0.004347595391399027,0.009611544831753756
1668680399.2884445,8190,1668680399,288335224,,-0.09863505164881435,-0.6158560505897114,0.07088206530273392,0.9955612156867054,0.09352316526206603,-0.004347595392050966,0.00961154483319478
1668680399.2964652,8191,1668680399,296321984,,-0.09862004837143898,-0.6158419100053365,0.07088206508896158,0.9955612156866868,0.09352316526206407,-0.004347595392784836,0.009611544834816629
1668680399.3041403,8192,1668680399,303887387,,-0.09860415347619689,-0.6158269290624031,0.07088206485247937,0.9955612156866658,0.0935231652620619,-0.004347595393607375,0.009611544836634752
1668680399.3126929,8193,1668680399,312476430,,-0.09858734437936278,-0.6158110864757731,0.0708820645918559,0.9955612156866425,0.09352316526205944,-0.004347595394526271,0.009611544838665794
1668680399.3203685,8194,1668680399,320200761,,-0.09856959898623556,-0.6157943614214542,0.07088206430565076,0.9955612156866164,0.09352316526205687,-0.0043475953955491855,0.009611544840926836
1668680399.3279228,8195,1668680399,327640675,,-0.09855089569688837,-0.6157767335420512,0.07088206399242003,0.9955612156865875,0.0935231652620539,-0.004347595396684229,0.009611544843435732
1668680399.3360112,8196,1668680399,335801893,,-0.09853121341050616,-0.6157581829508878,0.0708820636507203,0.9955612156865555,0.09352316526205065,-0.004347595397939728,0.009611544846210919
1668680399.3434646,8197,1668680399,343347361,,-0.09851053152841578,-0.6157386902348982,0.07088206327911423,0.9955612156865202,0.09352316526204704,-0.0043475953993243706,0.00961154484927143
1668680399.3517053,8198,1668680399,351524478,,-0.09848882995590606,-0.6157182364563784,0.07088206287617489,0.9955612156864815,0.09352316526204293,-0.004347595400847026,0.009611544852636981
1668680399.3596544,8199,1668680399,359493740,,-0.09846608910292802,-0.6156968031536822,0.0708820624404913,0.995561215686439,0.09352316526203866,-0.004347595402517003,0.009611544856328228
1668680399.369352,8200,1668680399,368494784,,-0.09844228988376502,-0.6156743723409515,0.07088206197067103,0.9955612156863924,0.09352316526203401,-0.004347595404343539,0.009611544860365648
1668680399.3757906,8201,1668680399,375627045,,-0.09841741371575258,-0.615650926506946,0.07088206146534688,0.9955612156863417,0.09352316526202892,-0.004347595406336762,0.009611544864771171
1668680399.3837497,8202,1668680399,383533780,,-0.09839144251712632,-0.6156264486130585,0.07088206092317924,0.9955612156862865,0.09352316526202335,-0.004347595408506383,0.009611544869566635
1668680399.392285,8203,1668680399,392158728,,-0.09836435870407224,-0.615600922090574,0.07088206034286067,0.9955612156862265,0.0935231652620173,-0.004347595410862637,0.009611544874774686
1668680399.4007986,8204,1668680399,400416775,,-0.09833614518704584,-0.6155743308372466,0.07088205972312002,0.9955612156861614,0.09352316526201075,-0.004347595413416013,0.009611544880418193
1668680399.4086814,8205,1668680399,408369499,,-0.0983067853664278,-0.6155466592132454,0.0708820590627255,0.9955612156860911,0.09352316526200383,-0.004347595416177236,0.009611544886521025
1668680399.4156253,8206,1668680399,415431796,,-0.09827626312757508,-0.6155178920365381,0.07088205836048835,0.9955612156860152,0.0935231652619962,-0.004347595419157197,0.009611544893106951
1668680399.423872,8207,1668680399,423727601,,-0.09824456283532583,-0.6154880145777571,0.07088205761526586,0.9955612156859334,0.09352316526198806,-0.004347595422366948,0.009611544900200743
1668680399.432114,8208,1668680399,431855307,,-0.09821166932801234,-0.6154570125546035,0.0708820568259638,0.9955612156858455,0.09352316526197911,-0.004347595425817635,0.009611544907826987
1668680399.4399407,8209,1668680399,439812456,,-0.09817756791103277,-0.6154248721258374,0.07088205599153978,0.9955612156857514,0.0935231652619697,-0.00434759542952079,0.009611544916010982
1668680399.4476764,8210,1668680399,447548218,,-0.09814224435002811,-0.6153915798848978,0.07088205511100533,0.9955612156856503,0.09352316526195968,-0.00434759543348808,0.00961154492477846
1668680399.4558535,8211,1668680399,455664829,,-0.09810568486371092,-0.6153571228531918,0.07088205418342747,0.9955612156855422,0.09352316526194869,-0.0043475954377311474,0.009611544934155213
1668680399.4642518,8212,1668680399,463879608,,-0.09806787611638466,-0.6153214884730996,0.07088205320793171,0.995561215685427,0.09352316526193709,-0.004347595442262062,0.009611544944167489
1668680399.4719443,8213,1668680399,471708774,,-0.09802880521019676,-0.6152846646007225,0.07088205218370239,0.9955612156853039,0.09352316526192474,-0.004347595447092602,0.009611544954841745
1668680399.4799516,8214,1668680399,479794852,,-0.09798845967715804,-0.6152466394984181,0.07088205110998504,0.9955612156851731,0.09352316526191183,-0.004347595452235049,0.009611544966204873
1668680399.48764,8215,1668680399,487531158,,-0.09794682747096467,-0.6152074018271474,0.07088204998608766,0.9955612156850338,0.09352316526189794,-0.004347595457701661,0.009611544978283953
1668680399.4964468,8216,1668680399,495855645,,-0.09790389695865398,-0.615166940638665,0.0708820488113805,0.9955612156848861,0.09352316526188312,-0.004347595463504687,0.009611544991105822
1668680399.5045414,8217,1668680399,504435858,,-0.09785965691212345,-0.6151252453675882,0.07088204758529777,0.9955612156847294,0.09352316526186742,-0.004347595469656693,0.00961154500469826
1668680399.5120447,8218,1668680399,511820811,,-0.09781409649954126,-0.6150823058233567,0.07088204630733785,0.9955612156845636,0.09352316526185091,-0.004347595476170111,0.009611545019088773
1668680399.5195756,8219,1668680399,519466344,,-0.0977672052766723,-0.6150381121821191,0.07088204497706363,0.9955612156843883,0.09352316526183357,-0.004347595483057502,0.009611545034304886
1668680399.5281107,8220,1668680399,527898148,,-0.09771897317814579,-0.6149926549785668,0.07088204359410265,0.9955612156842031,0.09352316526181521,-0.004347595490331681,0.009611545050374856
1668680399.5354455,8221,1668680399,535323986,,-0.09766939050868291,-0.6149459250977252,0.07088204215814596,0.9955612156840077,0.09352316526179594,-0.004347595498005102,0.009611545067326172
1668680399.543782,8222,1668680399,543661474,,-0.09761844793431011,-0.6148979137667419,0.07088204066894943,0.9955612156838018,0.09352316526177556,-0.004347595506090613,0.009611545085187027
1668680399.5516517,8223,1668680399,551476358,,-0.09756613647356913,-0.6148486125466637,0.0708820391263319,0.9955612156835852,0.09352316526175428,-0.004347595514600761,0.009611545103985262
1668680399.560208,8224,1668680399,559957745,,-0.09751244748875053,-0.6147980133242452,0.07088203753017569,0.9955612156833575,0.09352316526173186,-0.004347595523548648,0.009611545123749256
1668680399.5677114,8225,1668680399,567557899,,-0.09745737267715696,-0.6147461083037816,0.07088203588042462,0.9955612156831182,0.09352316526170815,-0.0043475955329467224,0.009611545144506947
1668680399.575421,8226,1668680399,575330002,,-0.09740090406241769,-0.6146928899989941,0.07088203417708376,0.9955612156828673,0.09352316526168361,-0.004347595542807923,0.009611545166286426
1668680399.5846057,8227,1668680399,584313181,,-0.09734303398586523,-0.6146383512249739,0.07088203242021801,0.9955612156826041,0.09352316526165769,-0.004347595553144968,0.00961154518911558
1668680399.5920334,8228,1668680399,591780382,,-0.09728375509798377,-0.6145824850901965,0.0708820306099515,0.9955612156823286,0.09352316526163064,-0.004347595563970648,0.009611545213022826
1668680399.5996814,8229,1668680399,599578470,,-0.09722306034994635,-0.6145252849886202,0.07088202874646488,0.9955612156820403,0.09352316526160247,-0.004347595575297714,0.009611545238035825
1668680399.607706,8230,1668680399,607607247,,-0.09716094298524336,-0.6144667445918737,0.07088202682999568,0.9955612156817388,0.09352316526157306,-0.004347595587138768,0.00961154526418255
1668680399.6154735,8231,1668680399,615347782,,-0.09709739653141815,-0.6144068578415436,0.07088202486083532,0.9955612156814241,0.09352316526154235,-0.004347595599506566,0.009611545291490815
1668680399.6240227,8232,1668680399,623831504,,-0.09703241479191335,-0.6143456189415711,0.07088202283932787,0.9955612156810957,0.0935231652615103,-0.0043475956124137665,0.009611545319988446
1668680399.6325305,8233,1668680399,632240191,,-0.09696599183803613,-0.6142830223507602,0.0708820207658688,0.9955612156807532,0.09352316526147676,-0.004347595625872951,0.00961154534970303
1668680399.6398554,8234,1668680399,639684412,,-0.09689812200105034,-0.614219062775408,0.07088201864090234,0.9955612156803963,0.09352316526144198,-0.0043475956398965915,0.009611545380661795
1668680399.647724,8235,1668680399,647598740,,-0.09682879986439966,-0.6141537351620612,0.07088201646492068,0.9955612156800248,0.09352316526140593,-0.004347595654497103,0.00961154541289219
1668680399.6559122,8236,1668680399,655678694,,-0.0967580202560672,-0.6140870346903996,0.070882014238461,0.9955612156796382,0.0935231652613685,-0.004347595669687017,0.009611545446421472
1668680399.6637003,8237,1668680399,663529613,,-0.09668577824107519,-0.6140189567662567,0.07088201196210439,0.9955612156792364,0.09352316526132963,-0.004347595685478584,0.009611545481276438
1668680399.6717262,8238,1668680399,671597875,,-0.09661206911412962,-0.6139494970147782,0.07088200963647368,0.995561215678819,0.09352316526128931,-0.004347595701884017,0.009611545517483944
1668680399.679727,8239,1668680399,679588693,,-0.09653688839241256,-0.6138786512737195,0.07088200726223096,0.9955612156783856,0.09352316526124749,-0.004347595718915643,0.009611545555070811
1668680399.6880047,8240,1668680399,687768967,,-0.09646023180852281,-0.6138064155868866,0.07088200484007612,0.9955612156779361,0.09352316526120429,-0.004347595736585332,0.00961154559406328
1668680399.6956534,8241,1668680399,695510566,,-0.0963820953035716,-0.6137327861977244,0.07088200237074462,0.99556121567747,0.09352316526115938,-0.00434759575490525,0.009611545634487682
1668680399.703403,8242,1668680399,703284520,,-0.09630247502042831,-0.6136577595430471,0.07088199985500546,0.9955612156769872,0.09352316526111308,-0.004347595773887136,0.009611545676369708
1668680399.7116694,8243,1668680399,711549386,,-0.09622136729712394,-0.6135813322469212,0.07088199729365921,0.9955612156764871,0.09352316526106509,-0.004347595793542922,0.00961154571973532
1668680399.7201266,8244,1668680399,719899229,,-0.09613876866040888,-0.6135035011146945,0.07088199468753621,0.9955612156759698,0.09352316526101558,-0.004347595813884279,0.009611545764610012
1668680399.72789,8245,1668680399,727741103,,-0.09605467581946642,-0.6134242631271727,0.07088199203749364,0.9955612156754347,0.09352316526096445,-0.004347595834922892,0.009611545811019142
1668680399.735683,8246,1668680399,735554389,,-0.09596908565978282,-0.6133436154349473,0.0708819893444149,0.9955612156748814,0.09352316526091169,-0.004347595856670188,0.009611545858987594
1668680399.74347,8247,1668680399,743337017,,-0.09588199523717326,-0.6132615553528719,0.07088198660920675,0.9955612156743101,0.09352316526085738,-0.004347595879137533,0.009611545908540372
1668680399.7524066,8248,1668680399,752204977,,-0.09579340177196295,-0.6131780803546845,0.0708819838327975,0.99556121567372,0.09352316526080154,-0.004347595902336371,0.009611545959701824
1668680399.7601025,8249,1668680399,759589215,,-0.09570330264332168,-0.6130931880677789,0.07088198101613519,0.9955612156731112,0.093523165260744,-0.004347595926277738,0.009611546012496258
1668680399.768181,8250,1668680399,767986762,,-0.09561169538375379,-0.6130068762681227,0.07088197816018565,0.9955612156724832,0.09352316526068473,-0.0043475959509726115,0.009611546066947434
1668680399.775759,8251,1668680399,775644195,,-0.09551857767373842,-0.6129191428753201,0.07088197526593121,0.9955612156718359,0.09352316526062365,-0.004347595976432075,0.009611546123079582
1668680399.7835915,8252,1668680399,783436064,,-0.09542394733652124,-0.6128299859478176,0.0708819723343679,0.995561215671169,0.093523165260561,-0.004347596002666926,0.00961154618091594
1668680399.7916381,8253,1668680399,791523808,,-0.09532780233305545,-0.6127394036782534,0.0708819693665045,0.9955612156704818,0.0935231652604966,-0.0043475960296877475,0.00961154624047931
1668680399.799659,8254,1668680399,799514960,,-0.09523014075708933,-0.6126473943889474,0.07088196636336064,0.9955612156697746,0.09352316526043065,-0.004347596057505194,0.009611546301793058
1668680399.8077846,8255,1668680399,807650317,,-0.09513096083040012,-0.612553956527528,0.07088196332596505,0.9955612156690469,0.09352316526036268,-0.004347596086129882,0.009611546364879483
1668680399.815666,8256,1668680399,815437028,,-0.09503026089816927,-0.6124590886626984,0.07088196025535409,0.9955612156682985,0.09352316526029314,-0.00434759611557193,0.009611546429760935
1668680399.823736,8257,1668680399,823631885,,-0.09492803942450052,-0.6123627894801348,0.07088195715257012,0.995561215667529,0.0935231652602218,-0.004347596145841538,0.009611546496459386
1668680399.8318644,8258,1668680399,831645539,,-0.09482429498807596,-0.6122650577785201,0.0708819540186603,0.9955612156667385,0.09352316526014873,-0.004347596176948961,0.009611546564996831
1668680399.8395905,8259,1668680399,839471190,,-0.09471902627794786,-0.6121658924657039,0.07088195085467454,0.9955612156659263,0.09352316526007383,-0.004347596208904055,0.009611546635394357
1668680399.8481424,8260,1668680399,847930136,,-0.09461223208946486,-0.6120652925549951,0.07088194766166483,0.9955612156650923,0.09352316525999717,-0.004347596241716598,0.009611546707673058
1668680399.8555243,8261,1668680399,855334065,,-0.09450391132032958,-0.6119632571615758,0.07088194444068355,0.9955612156642365,0.09352316525991847,-0.004347596275396589,0.009611546781854267
1668680399.8637571,8262,1668680399,863599036,,-0.09439406296678345,-0.6118597854990405,0.07088194119278238,0.9955612156633583,0.09352316525983814,-0.004347596309953417,0.009611546857958102
1668680399.8717413,8263,1668680399,871623349,,-0.09428268611992018,-0.6117548768760553,0.07088193791901062,0.9955612156624578,0.09352316525975611,-0.004347596345396484,0.009611546936004923
1668680399.880199,8264,1668680399,879984787,,-0.09416977996211907,-0.6116485306931343,0.070881934620415,0.9955612156615345,0.09352316525967222,-0.004347596381735238,0.009611547016014835
1668680399.8876739,8265,1668680399,887544726,,-0.09405534376360222,-0.6115407464395326,0.0708819312980375,0.9955612156605884,0.09352316525958643,-0.004347596418978906,0.009611547098007357
1668680399.8957157,8266,1668680399,895526478,,-0.09393937687910715,-0.6114315236902501,0.07088192795291541,0.9955612156596191,0.09352316525949884,-0.004347596457136455,0.009611547182001823
1668680399.904162,8267,1668680399,903967035,,-0.09382187874467533,-0.6113208621031493,0.07088192458607905,0.9955612156586263,0.09352316525940964,-0.004347596496216984,0.009611547268017427
1668680399.9123042,8268,1668680399,912058236,,-0.09370284887455346,-0.6112087614161748,0.0708819211985528,0.99556121565761,0.09352316525931835,-0.004347596536229346,0.00961154735607295
1668680399.9199128,8269,1668680399,919740435,,-0.09358228685820319,-0.6110952214446836,0.07088191779135176,0.99556121565657,0.09352316525922541,-0.004347596577182078,0.009611547446186731
1668680399.9278119,8270,1668680399,927641377,,-0.09346019235741869,-0.610980242078873,0.07088191436548337,0.9955612156555058,0.09352316525913071,-0.00434759661908421,0.009611547538377296
1668680399.9356205,8271,1668680399,935486972,,-0.09333656510354708,-0.6108638232813117,0.07088191092194483,0.9955612156544175,0.09352316525903406,-0.004347596661943839,0.009611547632662283
1668680399.9440396,8272,1668680399,943642535,,-0.09321140489481096,-0.6107459650845652,0.07088190746172378,0.9955612156533047,0.09352316525893557,-0.0043475967057694815,0.009611547729059687
1668680399.951765,8273,1668680399,951563800,,-0.09308471159372915,-0.6106266675889176,0.07088190398579604,0.9955612156521673,0.0935231652588354,-0.004347596750569355,0.009611547827586334
1668680399.9599833,8274,1668680399,959818781,,-0.09295648512463314,-0.6105059309601835,0.0708819004951274,0.995561215651005,0.09352316525873329,-0.004347596796351664,0.009611547928259679
1668680399.9680192,8275,1668680399,967725091,,-0.09282672547127609,-0.6103837554276109,0.0708818969906705,0.9955612156498177,0.09352316525862951,-0.0043475968431242315,0.0096115480310966
1668680399.9766712,8276,1668680399,976449850,,-0.09269543267453423,-0.6102601412818698,0.07088189347336624,0.9955612156486051,0.09352316525852397,-0.004347596890895251,0.00961154813611335
1668680399.9837425,8277,1668680399,983452761,,-0.09256260683019307,-0.6101350888731266,0.07088188994414196,0.995561215647367,0.09352316525841659,-0.004347596939672281,0.009611548243326374
1668680399.9916742,8278,1668680399,991538536,,-0.09242824808682139,-0.6100085986091976,0.07088188640391305,0.9955612156461034,0.09352316525830733,-0.004347596989463217,0.00961154835275183
1668680399.9995992,8279,1668680399,999437520,,-0.09229235664372676,-0.6098806709537843,0.07088188285357946,0.995561215644814,0.09352316525819644,-0.004347597040275364,0.009611548464404977
1668680400.0081227,8280,1668680400,7915219,,-0.09215493274899118,-0.6097513064247857,0.07088187929402874,0.9955612156434986,0.09352316525808367,-0.004347597092116333,0.009611548578301723
1668680400.0164464,8281,1668680400,16312633,,-0.09201597669758499,-0.6096205055926833,0.0708818757261332,0.9955612156421572,0.09352316525796897,-0.00434759714499343,0.009611548694457
1668680400.0234532,8282,1668680400,23277153,,-0.09187548882955512,-0.6094882690790016,0.07088187215075142,0.9955612156407893,0.0935231652578529,-0.004347597198913922,0.009611548812885848
1668680400.03181,8283,1668680400,31705253,,-0.09173346952828756,-0.6093545975548343,0.07088186856872701,0.9955612156393948,0.09352316525773492,-0.004347597253885077,0.00961154893360278
1668680400.0403433,8284,1668680400,40032040,,-0.09158991921883887,-0.6092194917394445,0.07088186498088926,0.9955612156379736,0.09352316525761524,-0.004347597309913864,0.00961154905662279
1668680400.047881,8285,1668680400,47716189,,-0.09144483836633616,-0.6090829523989226,0.07088186138805122,0.9955612156365256,0.09352316525749375,-0.0043475973670070184,0.00961154918195922
1668680400.0560868,8286,1668680400,55881120,,-0.0912982274744445,-0.608944980344918,0.07088185779101285,0.9955612156350506,0.0935231652573707,-0.004347597425171614,0.009611549309626885
1668680400.0645568,8287,1668680400,64313437,,-0.0911500870838961,-0.6088055764334198,0.07088185419055758,0.9955612156335485,0.09352316525724602,-0.004347597484414333,0.009611549439638933
1668680400.0720828,8288,1668680400,71837009,,-0.09100041777108292,-0.6086647415636097,0.07088185058745455,0.9955612156320189,0.0935231652571195,-0.004347597544741685,0.009611549572008882
1668680400.0798712,8289,1668680400,79703763,,-0.09084922014670636,-0.6085224766767618,0.07088184698245759,0.9955612156304618,0.09352316525699166,-0.004347597606160448,0.0096115497067502
1668680400.0879803,8290,1668680400,87812453,,-0.09069649485448762,-0.6083787827552055,0.07088184337630561,0.9955612156288771,0.09352316525686202,-0.004347597668676911,0.009611549843875734
1668680400.0954509,8291,1668680400,95255447,,-0.09054224256993038,-0.6082336608213362,0.07088183976972236,0.9955612156272646,0.09352316525673073,-0.004347597732297541,0.00961154998339842
1668680400.1040344,8292,1668680400,103786295,,-0.0903864639991389,-0.6080871119366809,0.07088183616341681,0.9955612156256243,0.09352316525659811,-0.004347597797028518,0.009611550125330564
1668680400.1119323,8293,1668680400,111784599,,-0.09022915987768754,-0.607939137201014,0.07088183255808339,0.9955612156239556,0.09352316525646368,-0.004347597862876135,0.00961155026968471
1668680400.1196785,8294,1668680400,119551625,,-0.09007033096953847,-0.6077897377515176,0.07088182895440133,0.9955612156222587,0.09352316525632783,-0.004347597929846459,0.009611550416472844
1668680400.1277702,8295,1668680400,127624398,,-0.08990997806600935,-0.6076389147619937,0.07088182535303587,0.9955612156205336,0.0935231652561905,-0.004347597997945466,0.009611550565706901
1668680400.1361766,8296,1668680400,135935353,,-0.08974810198478587,-0.607486669442115,0.0708818217546378,0.9955612156187799,0.09352316525605149,-0.004347598067179213,0.009611550717398784
1668680400.1445591,8297,1668680400,144390218,,-0.08958470356897817,-0.6073330030367231,0.07088181815984368,0.9955612156169972,0.09352316525591128,-0.004347598137553434,0.009611550871559734
1668680400.1522756,8298,1668680400,152086691,,-0.08941978368622254,-0.607177916825167,0.07088181456927603,0.995561215615186,0.0935231652557694,-0.004347598209074026,0.009611551028201246
1668680400.1602993,8299,1668680400,160149425,,-0.08925334322782029,-0.6070214121206795,0.07088181098354372,0.9955612156133458,0.09352316525562622,-0.004347598281746606,0.009611551187334427
1668680400.1686742,8300,1668680400,168449447,,-0.08908538310792066,-0.6068634902697955,0.0708818074032421,0.9955612156114764,0.09352316525548167,-0.004347598355576824,0.009611551348970177
1668680400.1757708,8301,1668680400,175632424,,-0.08891590426273739,-0.606704152651804,0.07088180382895345,0.9955612156095778,0.09352316525533595,-0.00434759843057034,0.009611551513119314
1668680400.1834898,8302,1668680400,183387322,,-0.08874490764980553,-0.6065434006782366,0.07088180026124653,0.99556121560765,0.09352316525518878,-0.004347598506732398,0.009611551679792269
1668680400.1917903,8303,1668680400,191611410,,-0.0885723942472711,-0.606381235792392,0.07088179670067772,0.9955612156056926,0.09352316525504041,-0.004347598584068696,0.009611551848999382
1668680400.2002463,8304,1668680400,199826233,,-0.08839836505321502,-0.6062176594688904,0.07088179314779074,0.9955612156037055,0.09352316525489074,-0.004347598662584509,0.009611552020750987
1668680400.2080884,8305,1668680400,207893533,,-0.08822282108500973,-0.6060526732132603,0.07088178960311718,0.9955612156016889,0.09352316525473967,-0.004347598742284999,0.009611552195056947
1668680400.2197502,8306,1668680400,219076867,,-0.08804576337870634,-0.6058862785615573,0.07088178606717667,0.9955612155996424,0.09352316525458754,-0.004347598823175493,0.00961155237192722
1668680400.2264733,8307,1668680400,225892486,,-0.08786719298845223,-0.6057184770800087,0.07088178254047724,0.9955612155975658,0.09352316525443433,-0.004347598905261116,0.00961155255137133
1668680400.2370567,8308,1668680400,236441876,,-0.08768711098593684,-0.6055492703646901,0.07088177902351564,0.9955612155954593,0.09352316525428009,-0.004347598988547037,0.009611552733399302
1668680400.243307,8309,1668680400,243031234,,-0.08750551845986466,-0.6053786600412231,0.07088177551677745,0.9955612155933224,0.09352316525412475,-0.004347599073038237,0.009611552918020015
1668680400.248854,8310,1668680400,248587350,,-0.0873224165154548,-0.6052066477645052,0.07088177202073799,0.9955612155911554,0.09352316525396848,-0.004347599158739859,0.009611553105243184
1668680400.2557337,8311,1668680400,255597161,,-0.08713780627396578,-0.605033235218458,0.07088176853586123,0.9955612155889578,0.09352316525381088,-0.004347599245656697,0.009611553295077407
1668680400.2640507,8312,1668680400,263826029,,-0.08695168887224346,-0.6048584241158037,0.07088176506260165,0.9955612155867298,0.09352316525365258,-0.004347599333793682,0.009611553487531909
1668680400.2717264,8313,1668680400,271564324,,-0.0867640654622939,-0.6046822161978613,0.0708817616014039,0.9955612155844712,0.09352316525349312,-0.004347599423155715,0.009611553682615421
1668680400.279755,8314,1668680400,279558774,,-0.08657493721087613,-0.6045046132343653,0.07088175815270313,0.9955612155821818,0.09352316525333257,-0.004347599513747449,0.009611553880336448
1668680400.2877455,8315,1668680400,287565878,,-0.08638430529911703,-0.6043256170233047,0.07088175471692543,0.9955612155798614,0.09352316525317146,-0.004347599605573694,0.009611554080703962
1668680400.2957544,8316,1668680400,295566558,,-0.08619217092214737,-0.6041452293907834,0.07088175129448812,0.9955612155775102,0.09352316525300941,-0.004347599698639306,0.009611554283726108
1668680400.3039243,8317,1668680400,303709742,,-0.08599853528875467,-0.6039634521908951,0.07088174788579935,0.9955612155751279,0.09352316525284673,-0.004347599792948821,0.009611554489411067
1668680400.3117821,8318,1668680400,311607158,,-0.08580339962105697,-0.603780287305622,0.07088174449125975,0.9955612155727144,0.09352316525268346,-0.004347599888506924,0.009611554697767167
1668680400.319547,8319,1668680400,319451338,,-0.08560676515419194,-0.6035957366447465,0.07088174111126178,0.9955612155702696,0.09352316525251932,-0.004347599985318032,0.009611554908802474
1668680400.3283184,8320,1668680400,328085388,,-0.08540863313602556,-0.6034098021457812,0.0708817377461903,0.9955612155677934,0.09352316525235467,-0.004347600083387017,0.009611555122525005
1668680400.3354352,8321,1668680400,335241537,,-0.08520900482687335,-0.6032224857739134,0.070881734396423,0.9955612155652858,0.09352316525218957,-0.0043476001827181775,0.009611555338942646
1668680400.3436809,8322,1668680400,343481568,,-0.08500788149923999,-0.6030337895219648,0.07088173106233042,0.9955612155627466,0.0935231652520239,-0.004347600283316071,0.009611555558062805
1668680400.3517735,8323,1668680400,351605914,,-0.0848052644375713,-0.6028437154103687,0.07088172774427647,0.9955612155601756,0.09352316525185767,-0.004347600385185136,0.009611555779893482
1668680400.3600779,8324,1668680400,359806000,,-0.08460115493802167,-0.6026522654871546,0.07088172444261867,0.9955612155575729,0.09352316525169115,-0.004347600488329786,0.009611556004442134
1668680400.3677304,8325,1668680400,367635367,,-0.08439555430823377,-0.6024594418279511,0.07088172115770822,0.9955612155549384,0.09352316525152418,-0.004347600592754334,0.009611556231716075
1668680400.3754332,8326,1668680400,375286444,,-0.084188463867131,-0.6022652465359989,0.07088171788989099,0.995561215552272,0.09352316525135711,-0.004347600698463317,0.009611556461722952
1668680400.3839836,8327,1668680400,383741849,,-0.0839798849447223,-0.6020696817421763,0.07088171463950696,0.9955612155495733,0.09352316525118975,-0.004347600805461143,0.009611556694469755
1668680400.3921077,8328,1668680400,391887855,,-0.08376981888191778,-0.6018727496050345,0.07088171140689102,0.9955612155468426,0.09352316525102203,-0.004347600913751996,0.009611556929963955
1668680400.3996978,8329,1668680400,399562022,,-0.08355826703035549,-0.6016744523108449,0.07088170819237259,0.9955612155440797,0.09352316525085436,-0.004347601023340165,0.009611557168212555
1668680400.4075975,8330,1668680400,407486899,,-0.083345230752239,-0.6014747920736565,0.0708817049962774,0.9955612155412844,0.09352316525068656,-0.004347601134229978,0.009611557409222479
1668680400.4156222,8331,1668680400,415495993,,-0.08313071142018395,-0.6012737711353628,0.07088170181892567,0.9955612155384567,0.09352316525051882,-0.004347601246425862,0.009611557653001129
1668680400.4238214,8332,1668680400,423619991,,-0.08291471041707424,-0.6010713917657763,0.07088169866063404,0.9955612155355963,0.09352316525035106,-0.004347601359932127,0.009611557899555336
1668680400.431554,8333,1668680400,431433033,,-0.08269722913592671,-0.6008676562627128,0.07088169552171457,0.9955612155327035,0.09352316525018343,-0.004347601474752696,0.009611558148891608
1668680400.4398398,8334,1668680400,439734207,,-0.08247826897976555,-0.6006625669520849,0.07088169240247649,0.9955612155297779,0.09352316525001592,-0.004347601590892097,0.009611558401017009
1668680400.4475687,8335,1668680400,447425680,,-0.0822578313615025,-0.6004561261880028,0.0708816893032251,0.9955612155268195,0.09352316524984877,-0.00434760170835474,0.009611558655938593
1668680400.455712,8336,1668680400,455457844,,-0.08203591770382627,-0.6002483363528789,0.07088168622426222,0.9955612155238283,0.09352316524968185,-0.004347601827144521,0.009611558913662523
1668680400.4636006,8337,1668680400,463515501,,-0.08181252943909857,-0.6000391998575453,0.07088168316588705,0.9955612155208041,0.09352316524951514,-0.004347601947265793,0.00961155917419582
1668680400.4716523,8338,1668680400,471499321,,-0.08158766800925657,-0.5998287191413733,0.07088168012839594,0.9955612155177469,0.09352316524934898,-0.004347602068722832,0.009611559437545174
1668680400.4795632,8339,1668680400,479447010,,-0.08136133486572208,-0.5996168966724001,0.07088167711208236,0.9955612155146564,0.09352316524918328,-0.004347602191519802,0.009611559703716998
1668680400.4884923,8340,1668680400,488260177,,-0.08113353146931691,-0.5994037349474638,0.0708816741172378,0.9955612155115326,0.09352316524901826,-0.004347602315661044,0.00961155997271804
1668680400.4954326,8341,1668680400,495264730,,-0.08090425929018386,-0.5991892364923391,0.07088167114415124,0.9955612155083757,0.09352316524885372,-0.004347602441150841,0.009611560244554757
1668680400.5037878,8342,1668680400,503620514,,-0.08067351980771206,-0.5989734038618824,0.0708816681931101,0.9955612155051853,0.09352316524868995,-0.004347602567993413,0.009611560519233592
1668680400.5116935,8343,1668680400,511545424,,-0.08044131451046928,-0.5987562396401801,0.07088166526439969,0.9955612155019614,0.09352316524852705,-0.004347602696192874,0.00961156079676123
1668680400.5201912,8344,1668680400,519847367,,-0.08020764489613774,-0.5985377464407023,0.07088166235830348,0.9955612154987039,0.09352316524836497,-0.004347602825753577,0.009611561077144093
1668680400.5279555,8345,1668680400,527775415,,-0.07997251247145498,-0.5983179269064578,0.07088165947510426,0.9955612154954128,0.09352316524820396,-0.004347602956679925,0.009611561360388647
1668680400.5354595,8346,1668680400,535334596,,-0.07973591875215817,-0.5980967837101572,0.07088165661508254,0.9955612154920879,0.09352316524804391,-0.004347603088975957,0.009611561646501173
1668680400.5442262,8347,1668680400,544048587,,-0.07949786526293344,-0.5978743195543764,0.07088165377851889,0.9955612154887291,0.09352316524788495,-0.004347603222646171,0.009611561935488245
