Time,header.seq,header.stamp.secs,header.stamp.nsecs,header.frame_id,twist.linear.x,twist.linear.y,twist.linear.z,twist.angular.x,twist.angular.y,twist.angular.z
1668680398.0242844,8032,1668680398,23893450,,-3.0272169998732885e-15,9.045283753098165e-16,-3.603133076539848e-16,-1.3545082670653347e-11,5.35669868381402e-12,-1.5432529542023792e-13
1668680398.0315838,8033,1668680398,31484237,,-3.1682966040110016e-15,9.142925975984191e-16,-3.622856776584528e-16,-1.351968578464246e-11,5.346641185666965e-12,-1.5413521520294306e-13
1668680398.0399187,8034,1668680398,39638245,,-3.3186214628957932e-15,9.506511795390569e-16,-3.538344465250455e-16,-1.34927592069834e-11,5.335978962660305e-12,-1.5392998933370455e-13
1668680398.0488954,8035,1668680398,48722902,,-3.40216933819506e-15,1.011476572363094e-15,-3.494812510624149e-16,-1.3464319485467653e-11,5.324718702438104e-12,-1.5370686018438928e-13
1668680398.0567381,8036,1668680398,56454760,,-3.489299195009234e-15,9.853094414490447e-16,-3.3863243687597084e-16,-1.343438250512958e-11,5.3128666344054865e-12,-1.5346708240592133e-13
1668680398.063377,8037,1668680398,63232055,,-3.535239291481143e-15,1.0159866758821831e-15,-3.1154184192989125e-16,-1.3402965105689109e-11,5.300429311188233e-12,-1.5320968294821697e-13
1668680398.0717092,8038,1668680398,71603457,,-3.587769991774485e-15,9.620832392478725e-16,-2.968843061143827e-16,-1.3370085666545652e-11,5.287413261056603e-12,-1.529352383250052e-13
1668680398.0798078,8039,1668680398,79587158,,-3.58476917834973e-15,9.39867574979948e-16,-2.5260193854726644e-16,-1.3335757131374714e-11,5.273823860237304e-12,-1.5264344661343287e-13
1668680398.0880544,8040,1668680398,87804334,,-3.5820084299972834e-15,9.46804661296484e-16,-2.221279719249746e-16,-1.329998966524326e-11,5.259665255287952e-12,-1.523335592232222e-13
1668680398.0955446,8041,1668680398,95429733,,-3.538405295357993e-15,9.258112832647227e-16,-2.0093579699260154e-16,-1.3262802603155455e-11,5.244944847052604e-12,-1.5200794587288457e-13
1668680398.1039124,8042,1668680398,103760485,,-3.4846026627698908e-15,9.064973754777757e-16,-1.6775124733827443e-16,-1.3224212990369966e-11,5.229668625727295e-12,-1.516642784244371e-13
1668680398.1118398,8043,1668680398,111656487,,-3.400884868992542e-15,8.61353082876378e-16,-1.6459695909248086e-16,-1.3184235929711684e-11,5.2138428028564274e-12,-1.5130493170602995e-13
1668680398.12053,8044,1668680398,120263294,,-3.3238644987165173e-15,8.198203336831909e-16,-1.2405370492667049e-16,-1.314289446141423e-11,5.197475655797136e-12,-1.5092891446772744e-13
1668680398.1276667,8045,1668680398,127562363,,-3.2119425119069705e-15,7.816102044237244e-16,-7.99100367389396e-17,-1.3100197437988894e-11,5.180571096323149e-12,-1.5053547900916646e-13
1668680398.1357355,8046,1668680398,135603686,,-3.1260839699401667e-15,7.19081388069022e-16,-1.6565530263125899e-18,-1.305616578418515e-11,5.163140622835439e-12,-1.5012635458438162e-13
1668680398.1436791,8047,1668680398,143515545,,-3.02656248825296e-15,6.889303744572568e-16,6.691471480674021e-17,-1.3010814432209087e-11,5.145189626004051e-12,-1.4970099636383558e-13
1668680398.1530352,8048,1668680398,152815214,,-2.938424662280455e-15,6.611914419375114e-16,1.0262478377762875e-16,-1.2964150971142541e-11,5.1267215901662195e-12,-1.4926064931738852e-13
1668680398.1602657,8049,1668680398,160013730,,-2.8402281764862616e-15,5.809206291422057e-16,1.1836836133334647e-16,-1.291619884601855e-11,5.107744826754126e-12,-1.4880365304308773e-13
1668680398.1677566,8050,1668680398,167591904,,-2.763575158275848e-15,5.344469788110192e-16,1.2600857832261053e-16,-1.2866973434668215e-11,5.088265612632209e-12,-1.4833259130484746e-13
1668680398.175357,8051,1668680398,175228743,,-2.6451472610050617e-15,5.190667179418472e-16,1.433033894913053e-16,-1.281649027748354e-11,5.0682892177722585e-12,-1.4784312296638802e-13
1668680398.1841264,8052,1668680398,183717216,,-2.5704129673135683e-15,4.227903856308432e-16,1.4552686705077856e-16,-1.2764769642985336e-11,5.047823925020781e-12,-1.4734162937554798e-13
1668680398.191917,8053,1668680398,191739501,,-2.4811257940398404e-15,4.163426522141411e-16,1.4072859204439092e-16,-1.2711824549660727e-11,5.026874168468863e-12,-1.468237541103047e-13
1668680398.1998804,8054,1668680398,199680533,,-2.395559657447692e-15,3.556597425984631e-16,1.1236061877910017e-16,-1.2657676312951478e-11,5.005447790412134e-12,-1.4629007145321293e-13
1668680398.2076733,8055,1668680398,207525659,,-2.2997291258848694e-15,3.2720696318714553e-16,9.994983209538415e-17,-1.260233681107255e-11,4.983549653965975e-12,-1.4574026939150017e-13
1668680398.216184,8056,1668680398,215954347,,-2.2115650368461683e-15,2.7365490869280736e-16,7.484415962692597e-17,-1.254581996388624e-11,4.9611848977686985e-12,-1.4517824937767659e-13
1668680398.2234192,8057,1668680398,223281124,,-2.120188263391893e-15,2.5176251599525025e-16,5.174694095829005e-17,-1.2488148916316455e-11,4.938362349053284e-12,-1.4459967411647945e-13
1668680398.2316442,8058,1668680398,231508882,,-2.0532313177122984e-15,2.5899701215167947e-16,2.0231688238633496e-17,-1.2429333771959145e-11,4.915089399369102e-12,-1.440075944169493e-13
1668680398.2396686,8059,1668680398,239527917,,-1.988208990507558e-15,2.1090175374010844e-16,-3.271590451558372e-17,-1.2369396380088702e-11,4.891374120212541e-12,-1.433996766940267e-13
1668680398.248062,8060,1668680398,247850176,,-1.9489200725579502e-15,1.9402961343681368e-16,-6.089606677328391e-17,-1.230835001974526e-11,4.867221900082381e-12,-1.4277894141493706e-13
1668680398.255654,8061,1668680398,255552079,,-1.899086519324907e-15,2.058827417972199e-16,-6.971213015208548e-17,-1.2246213023673141e-11,4.842639083949508e-12,-1.4214193043946806e-13
1668680398.263492,8062,1668680398,263382314,,-1.8737712734289834e-15,2.1678761988979347e-16,-1.0519840590130733e-16,-1.2182997071746422e-11,4.817630086359923e-12,-1.414923254748451e-13
1668680398.271575,8063,1668680398,271469529,,-1.850481247203926e-15,1.9944461029838301e-16,-1.1389221932625817e-16,-1.2118726842134612e-11,4.7922045299707956e-12,-1.408277981413878e-13
1668680398.2799525,8064,1668680398,279759815,,-1.846164108976649e-15,2.3824003634626504e-16,-1.561098994820745e-16,-1.2053413244245063e-11,4.766365920157173e-12,-1.4015000786167438e-13
1668680398.2877057,8065,1668680398,287535691,,-1.8593020277057113e-15,2.4655633087452447e-16,-1.7099660496207957e-16,-1.198707899884895e-11,4.740122935590071e-12,-1.3945840352715597e-13
1668680398.295877,8066,1668680398,295660875,,-1.8713889129366207e-15,2.5420732183761296e-16,-1.7442656246919672e-16,-1.1919736097644713e-11,4.713480331777155e-12,-1.387530988739717e-13
1668680398.3038616,8067,1668680398,303689285,,-1.8517114127318336e-15,1.7911974121340401e-16,-1.6047243747124758e-16,-1.1851407282947237e-11,4.6864458816054634e-12,-1.3802975227665257e-13
1668680398.31212,8068,1668680398,311934908,,-1.8438739240818123e-15,1.92165659352297e-16,-1.6474432837416554e-16,-1.1782098874252322e-11,4.659026046440358e-12,-1.3729765506191968e-13
1668680398.3196619,8069,1668680398,319471249,,-1.8263976229846583e-15,1.767924066022646e-16,-1.54986719285742e-16,-1.1711833386117905e-11,4.631228996417479e-12,-1.3655754346911785e-13
1668680398.327695,8070,1668680398,327545834,,-1.7692561798188103e-15,2.1740000894743716e-16,-1.836510279031899e-16,-1.164062064234987e-11,4.603058468264918e-12,-1.3580570484464278e-13
1668680398.3357615,8071,1668680398,335644112,,-1.6927324918494423e-15,2.00008008227932e-16,-1.8949056875201874e-16,-1.1568481984743364e-11,4.57452243415007e-12,-1.3504179429133372e-13
1668680398.3447723,8072,1668680398,344405516,,-1.6257526360959962e-15,1.8400736756688107e-16,-1.7433132325308835e-16,-1.149544044138984e-11,4.545628945635858e-12,-1.3427034412213562e-13
1668680398.3526344,8073,1668680398,352375365,,-1.5641311688041384e-15,1.4191128072080079e-16,-1.6722869175422409e-16,-1.1421507038782819e-11,4.516382242602803e-12,-1.3349008397431118e-13
1668680398.3601449,8074,1668680398,360024006,,-1.497173607355061e-15,1.8530937313821723e-16,-1.2989683615999447e-16,-1.1346699702165691e-11,4.486789225117724e-12,-1.326997581758827e-13
1668680398.3690028,8075,1668680398,368703157,,-1.4253068392832799e-15,1.43109125846129e-16,-1.3661477516596787e-16,-1.1271032353067535e-11,4.456854554567784e-12,-1.3190143585531662e-13
1668680398.376041,8076,1668680398,375806706,,-1.31470422932136e-15,1.864113906524243e-16,-1.838585252099371e-16,-1.119452043876281e-11,4.426584441484812e-12,-1.3109052697691587e-13
1668680398.3836126,8077,1668680398,383426917,,-1.247169199953492e-15,1.9887397683391034e-16,-1.9310340345597995e-16,-1.1117186088339093e-11,4.395990494557255e-12,-1.3027272014033765e-13
1668680398.391794,8078,1668680398,391627179,,-1.1713492242162013e-15,1.2821306380828194e-16,-1.8449900553819078e-16,-1.1039043971257933e-11,4.365077761148832e-12,-1.2944428672005633e-13
1668680398.3997228,8079,1668680398,399605767,,-1.111860658076657e-15,1.4533151614078525e-16,-1.6973908509890158e-16,-1.0960106677166101e-11,4.333851263197354e-12,-1.2860931800872602e-13
1668680398.4088256,8080,1668680398,408515452,,-1.0468653656891984e-15,1.3370499484720393e-16,-1.3905027239580418e-16,-1.0880393883493674e-11,4.302318350940812e-12,-1.2776342812424975e-13
1668680398.415441,8081,1668680398,415272498,,-1.007601319771306e-15,1.2300859525527456e-16,-1.5530174804552314e-16,-1.0799916470781092e-11,4.270483099070742e-12,-1.2690959132038352e-13
1668680398.4238062,8082,1668680398,423604803,,-9.885880834251109e-16,1.1316790763422065e-16,-1.462995453832218e-16,-1.071869788630384e-11,4.238353801768415e-12,-1.260489806490848e-13
1668680398.431794,8083,1668680398,431603240,,-9.574081572677324e-16,1.0411447502145782e-16,-1.311736445751119e-16,-1.063675575790298e-11,4.205936805790149e-12,-1.251776501111866e-13
1668680398.440816,8084,1668680398,440557072,,-9.56098122640624e-16,1.2316081445280024e-16,-1.4805525045016537e-16,-1.0554098908374088e-11,4.1732390040896285e-12,-1.2429816243422004e-13
1668680398.4485433,8085,1668680398,448081032,,-9.5489289078384e-16,1.4068344673341874e-16,-1.4305470477529412e-16,-1.0470747818558724e-11,4.1402681803109885e-12,-1.2340859281287565e-13
1668680398.4577682,8086,1668680398,457470026,,-9.67471826195449e-16,1.294287709894918e-16,-1.316103283959337e-16,-1.0386718766553723e-11,4.107030206437265e-12,-1.2250902083869674e-13
1668680398.4646072,8087,1668680398,464428791,,-9.653566980535044e-16,1.1907446930988226e-16,-1.0054987904990125e-16,-1.0302029754866736e-11,4.073531259281786e-12,-1.2159929875394796e-13
1668680398.4734757,8088,1668680398,473067690,,-9.428791570855993e-16,1.095485117623554e-16,-6.170845410913175e-17,-1.021669596978821e-11,4.039777120825004e-12,-1.2067573748376477e-13
1668680398.4802275,8089,1668680398,480062073,,-9.153559450353387e-16,1.2816012825553875e-16,-4.6505966243552555e-17,-1.0130730260729718e-11,4.005772680062679e-12,-1.1974200443673167e-13
1668680398.4876294,8090,1668680398,487472477,,-8.489713437927921e-16,1.1790731799352646e-16,-1.1988054331018619e-17,-1.0044153216860863e-11,3.9715251996222864e-12,-1.1879373729242116e-13
1668680398.4954603,8091,1668680398,495261932,,-8.084291337284271e-16,8.10992351136335e-17,-7.631984480069416e-19,-9.956974286598173e-12,3.9370418832612844e-12,-1.178348636534238e-13
1668680398.5040839,8092,1668680398,503889361,,-7.334889914913083e-16,4.7235798864181924e-17,2.6673354865106585e-17,-9.869209075594207e-12,3.902328367152787e-12,-1.168641366033161e-13
1668680398.5116875,8093,1668680398,511552850,,-6.748098721728147e-16,4.345693495445652e-17,4.5071109554130986e-17,-9.780875523741291e-12,3.867391048105182e-12,-1.1589164607283945e-13
1668680398.519694,8094,1668680398,519575949,,-6.310908939391595e-16,9.47313750306286e-17,4.1465420784998473e-17,-9.69198957124078e-12,3.832235855608196e-12,-1.1491518857892993e-13
1668680398.5276911,8095,1668680398,527551077,,-5.806036224246361e-16,1.1452836246158687e-16,7.23675589177779e-17,-9.602572349123303e-12,3.7968700176383965e-12,-1.1393434690975477e-13
1668680398.5369182,8096,1668680398,536557037,,-5.409992069908956e-16,1.6011708833843076e-16,6.315621702033275e-17,-9.512637683631465e-12,3.761298675218699e-12,-1.1294826929554773e-13
1668680398.5435953,8097,1668680398,543396342,,-5.114070191516206e-16,1.19932223830645e-16,8.547921709366578e-17,-9.42219915492419e-12,3.725526479757669e-12,-1.1196032471593454e-13
1668680398.5517573,8098,1668680398,551572146,,-4.910260806987055e-16,8.296214848381405e-17,1.3339187459976722e-16,-9.331276005510771e-12,3.68956431794848e-12,-1.1096479566575169e-13
1668680398.5598214,8099,1668680398,559654997,,-4.996511147588439e-16,1.0370067404181374e-16,1.7062764514526923e-16,-9.239878695954526e-12,3.6534162021142925e-12,-1.0996907736661816e-13
1668680398.568804,8100,1668680398,568515879,,-5.349616435328755e-16,6.802912267822051e-17,1.8435293096910948e-16,-9.148022489636231e-12,3.617087701129827e-12,-1.089687304710287e-13
1668680398.5761414,8101,1668680398,576019058,,-5.640253928250398e-16,6.258679286200691e-17,1.7302663366799812e-16,-9.055719471803141e-12,3.580582979285353e-12,-1.079660106121734e-13
1668680398.5844603,8102,1668680398,584286226,,-5.736543562752752e-16,5.757984943038915e-17,1.728722516915237e-16,-8.96299249684192e-12,3.5439098812529393e-12,-1.0695426771186021e-13
1668680398.5916326,8103,1668680398,591486944,,-5.414497564924677e-16,1.3509995378658582e-16,1.6930828309380965e-16,-8.869854436063103e-12,3.5070733337775647e-12,-1.0593535754212561e-13
1668680398.6003022,8104,1668680398,600025150,,-4.947118387945356e-16,1.7904295235676843e-16,1.3865393454460588e-16,-8.776317234567601e-12,3.470077722546418e-12,-1.0490889420742734e-13
1668680398.6093066,8105,1668680398,609061138,,-4.688226404104494e-16,1.9209501360360148e-16,1.275616197784537e-16,-8.682401459632516e-12,3.432934161387408e-12,-1.0387808755691324e-13
1668680398.615776,8106,1668680398,615581181,,-4.0736326892036135e-16,2.0410290995060034e-16,1.207786273719289e-16,-8.588119675257948e-12,3.395646750900853e-12,-1.0283541219876681e-13
1668680398.6234488,8107,1668680398,623323815,,-3.74774207408029e-16,1.3302368227529755e-16,1.6928926923386166e-16,-8.493493341352114e-12,3.358223023260345e-12,-1.0179007001441883e-13
1668680398.6320317,8108,1668680398,631775149,,-3.55058082355121e-16,6.763079281640026e-17,1.7627775077285678e-16,-8.39852685279993e-12,3.3206655879917723e-12,-1.0073676941799541e-13
1668680398.6397078,8109,1668680398,639553850,,-3.0269987550970087e-16,6.222032938873314e-17,1.9297296532736516e-16,-8.3032377561301e-12,3.2829797688761288e-12,-9.967622397916217e-14
1668680398.6478283,8110,1668680398,647634351,,-2.5453032521158236e-16,5.724270303601882e-17,2.0833256271640738e-16,-8.207641112100342e-12,3.2451712004281692e-12,-9.86076085234603e-14
1668680398.6554906,8111,1668680398,655322780,,-2.2732402483576875e-16,5.2663286790812094e-17,1.779782089779382e-16,-8.111747623723166e-12,3.2072477108501305e-12,-9.753458344872708e-14
1668680398.6640544,8112,1668680398,663812405,,-1.9202841695139354e-16,4.845022384463554e-17,1.77427700976033e-16,-8.015580759658815e-12,3.169217316313882e-12,-9.64507395629077e-14
1668680398.671841,8113,1668680398,671693940,,-1.766661435959764e-16,7.194970337171497e-17,1.3585798745750448e-16,-7.919147700922606e-12,3.1310826713469175e-12,-9.536949135432312e-14
1668680398.6795914,8114,1668680398,679476589,,-1.9333028672611313e-16,6.619372710172173e-17,1.147235369199769e-16,-7.822466873833241e-12,3.092850013618627e-12,-9.42894817416212e-14
1668680398.6875536,8115,1668680398,687424020,,-1.9155161250806086e-16,6.089822893076139e-17,8.159209370483603e-17,-7.725550118992468e-12,3.0545239552099378e-12,-9.320782169964583e-14
1668680398.6959848,8116,1668680398,695624376,,-2.0702491812499498e-16,2.8650873177318165e-17,6.137697748993845e-17,-7.628411979737358e-12,3.016109027994759e-12,-9.212695551655779e-14
1668680398.7036142,8117,1668680398,703506253,,-2.1441648493351745e-16,8.110979819645224e-17,7.015456800640182e-17,-7.531073076838448e-12,2.977612882428118e-12,-9.104555279234302e-14
1668680398.7118318,8118,1668680398,711685942,,-1.9726316613996142e-16,1.0199651177587634e-16,5.427639102425446e-17,-7.43354330394497e-12,2.9390429644111653e-12,-8.995921631417772e-14
1668680398.7200131,8119,1668680398,719801183,,-1.8148211284945932e-16,6.646129339461237e-17,3.282459384196938e-17,-7.335833752785658e-12,2.900402881118405e-12,-8.886953458146182e-14
1668680398.728446,8120,1668680398,728165560,,-1.7380741818155142e-16,8.851988735754788e-17,3.3620563510173504e-17,-7.237960187740471e-12,2.861698452708745e-12,-8.777876173995733e-14
1668680398.7354846,8121,1668680398,735301699,,-1.564808875478058e-16,5.40627989304062e-17,1.7243169711800688e-17,-7.139935938031848e-12,2.8229340275999024e-12,-8.668601133581539e-14
1668680398.7440224,8122,1668680398,743901194,,-9.947723320875702e-17,7.711327245102546e-17,-6.284083900234966e-17,-7.0417712268052915e-12,2.7841133810268427e-12,-8.558841607817354e-14
1668680398.7529492,8123,1668680398,752750981,,-5.387774557567063e-17,9.831970809123162e-17,-6.123550906466093e-17,-6.9434887263228775e-12,2.745244413343449e-12,-8.448779080928506e-14
1668680398.7602048,8124,1668680398,759957494,,-2.5613965672145933e-17,6.307863400423507e-17,-8.02902285982306e-17,-6.845096122092781e-12,2.7063338089321632e-12,-8.338620029189847e-14
1668680398.7677598,8125,1668680398,767611360,,-9.87709970049759e-18,8.540784071985952e-17,-8.755475903222809e-17,-6.746608859080009e-12,2.6673867954698494e-12,-8.228253866906983e-14
1668680398.7753966,8126,1668680398,775236960,,2.1710502892421558e-17,5.119971602227119e-17,-7.028456677255858e-17,-6.648039803151001e-12,2.628407906173235e-12,-8.117393686808578e-14
1668680398.7839162,8127,1668680398,783599387,,3.366141137903464e-17,1.9728241300457717e-17,-9.203729886960843e-17,-6.549405076853642e-12,2.5894027280426734e-12,-8.006265455158927e-14
1668680398.7923684,8128,1668680398,792157767,,3.43904356482694e-17,1.8149981995368665e-17,-1.1889368676058186e-16,-6.450712237768908e-12,2.550374046567693e-12,-7.89516035316589e-14
1668680398.7998104,8129,1668680398,799656563,,4.532694951418041e-17,-1.067751400386172e-17,-1.128041289994114e-16,-6.3519819185785966e-12,2.5113290266859312e-12,-7.783389747875795e-14
1668680398.8077102,8130,1668680398,807598916,,2.459110765421106e-17,-3.71988103234779e-17,-9.009204996331764e-17,-6.253220257868809e-12,2.4722733459305616e-12,-7.671450751237196e-14
1668680398.8155031,8131,1668680398,815389005,,-2.870523865444039e-17,-6.159840293622882e-17,-1.171040577649162e-16,-6.154439433341838e-12,2.4332117416070488e-12,-7.559390251888415e-14
1668680398.8241448,8132,1668680398,823866808,,-7.431594007880142e-17,-1.1142152557971198e-16,-1.2142348186493643e-16,-6.055656596721634e-12,2.3941497693947234e-12,-7.447808314758431e-14
1668680398.8317919,8133,1668680398,831638390,,-1.0601197384980498e-16,-1.2988330097181192e-16,-5.695860844140403e-17,-5.956884251094622e-12,2.3550918204603864e-12,-7.336190355341364e-14
1668680398.840419,8134,1668680398,840195438,,-8.042133004390958e-17,-1.1949263689644917e-16,-6.2667731306296e-17,-5.858127494091687e-12,2.316039716605581e-12,-7.224514619094792e-14
1668680398.847667,8135,1668680398,847528111,,-6.37218121020384e-17,-8.255772850827514e-17,-7.476399870253441e-17,-5.759404690230366e-12,2.2769995571378468e-12,-7.112914340120305e-14
1668680398.856126,8136,1668680398,855838287,,-6.546794149372163e-17,-7.595311022932623e-17,-8.247062752695584e-17,-5.660727880940028e-12,2.2379794469555095e-12,-7.001748408544577e-14
1668680398.8634782,8137,1668680398,863309141,,-3.627694591686778e-17,-6.987686141303577e-17,-7.587297732563215e-17,-5.562110776350034e-12,2.198984479040182e-12,-6.890192231767553e-14
1668680398.8717742,8138,1668680398,871629657,,-1.6265104345301092e-17,-9.166220993873636e-17,-8.349088786103972e-17,-5.4635625908840606e-12,2.160017295059125e-12,-6.778980996073623e-14
1668680398.879619,8139,1668680398,879521703,,-1.496389599847522e-17,-1.117047305835285e-16,-7.338967965384446e-17,-5.365099957503775e-12,2.121083762694601e-12,-6.667978854077348e-14
1668680398.8885431,8140,1668680398,888339311,,-2.4032595858134125e-17,-1.3014384957554208e-16,-3.672107066580039e-17,-5.266733807434499e-12,2.082187970213635e-12,-6.557118188269653e-14
1668680398.8963702,8141,1668680398,896067794,,-4.264161126827573e-17,-1.4710783904846368e-16,-2.351757347423671e-17,-5.168474169091524e-12,2.043332919433654e-12,-6.446485931237163e-14
1668680398.9037747,8142,1668680398,903548900,,-5.633996826587174e-17,-1.6271470936347563e-16,-3.5323916316550516e-17,-5.070329259235611e-12,2.0045217375089776e-12,-6.335991978905989e-14
1668680398.9117117,8143,1668680398,911546865,,-7.236439388332233e-17,-1.7707303005387763e-16,-5.3029626090978216e-17,-4.972314154961895e-12,1.9657634364726932e-12,-6.225372584255039e-14
1668680398.9201772,8144,1668680398,919824053,,-1.0079461417031329e-16,-1.355316902129369e-16,-7.616275344253633e-17,-4.874437494923882e-12,1.9270606870974915e-12,-6.114939217519229e-14
1668680398.9276543,8145,1668680398,927544970,,-1.4748203991252458e-16,-1.2468915499728232e-16,-1.2482072804435994e-16,-4.776714454074166e-12,1.8884189444147407e-12,-6.004602068370406e-14
1668680398.9360125,8146,1668680398,935863346,,-1.9385640877495938e-16,-8.733852516095977e-17,-1.0799119544279264e-16,-4.679156738988476e-12,1.849842523922166e-12,-5.89427221926252e-14
1668680398.9435158,8147,1668680398,943393607,,-1.7150402171384126e-16,-8.035144314953687e-17,-7.197640237123996e-17,-4.581777360842694e-12,1.8113353475222635e-12,-5.783304509735996e-14
1668680398.9520073,8148,1668680398,951721279,,-1.406740140786336e-16,-1.0129882513633e-16,-7.64841017220455e-17,-4.484581266557784e-12,1.7728990479427112e-12,-5.672170344499882e-14
1668680398.9598289,8149,1668680398,959714480,,-1.2599815577280144e-16,-6.581942168865265e-17,-1.0458474538215974e-16,-4.387580093614817e-12,1.7345418259277806e-12,-5.5608313910467774e-14
1668680398.9676569,8150,1668680398,967552389,,-1.0223055459281207e-16,-3.317837051752812e-17,-1.2701540037084786e-16,-4.2907873429005384e-12,1.6962680147695007e-12,-5.4491999628668754e-14
1668680398.9756382,8151,1668680398,975536909,,-8.378629868657999e-17,-3.0524100877305194e-17,-1.6476128885801897e-16,-4.194211387545012e-12,1.6580803981878385e-12,-5.3381446300807305e-14
1668680398.9841747,8152,1668680398,983949113,,-3.602014863556291e-17,-2.8082172808314435e-17,-1.7895588318792872e-16,-4.097864693944668e-12,1.6199831460904992e-12,-5.227349785672976e-14
1668680398.9918034,8153,1668680398,991675011,,1.9468894547069538e-07,1.834900088881314e-07,-5.084085138675784e-16,-4.001765957352672e-12,1.581982712805861e-12,-5.117413231832621e-14
1668680398.9996195,8154,1668680398,999471380,,9.576763533515623e-07,9.025887164792127e-07,-9.356031008758127e-15,-3.90600179992951e-12,1.544111775300701e-12,-5.007532025686867e-14
1668680399.008012,8155,1668680399,7767582,,2.6319267195667555e-06,2.480532636289251e-06,-7.420536672487417e-14,-3.811073878343236e-12,1.5065422115085419e-12,-4.8981982410530554e-14
1668680399.0159352,8156,1668680399,15698041,,5.531501854365505e-06,5.21331832460432e-06,-3.3799223586728556e-13,-3.71846710349936e-12,1.4697832726696263e-12,-4.7890637209200854e-14
1668680399.0239694,8157,1668680399,23745118,,9.943222547834171e-06,9.37126859663945e-06,-1.109256865599438e-12,-3.6314426099356965e-12,1.4349577933449969e-12,-4.6807559049436356e-14
1668680399.0338254,8158,1668680399,33407474,,1.6128252668364108e-05,1.5200525647601176e-05,-2.9386890625878154e-12,-3.555932791226473e-12,1.4041059301100058e-12,-4.572653155643716e-14
1668680399.0397832,8159,1668680399,39609277,,2.4323608701990407e-05,2.2924473899666036e-05,-6.694940496931658e-12,-3.5014691025106603e-12,1.3805024210104185e-12,-4.464921745587873e-14
1668680399.049073,8160,1668680399,48709382,,3.474359765011154e-05,3.274509531626331e-05,-1.3634934990868163e-11,-3.482153745246272e-12,1.3689967078902917e-12,-4.357771738947025e-14
1668680399.05661,8161,1668680399,56285416,,4.758118611258041e-05,4.484425983961431e-05,-2.5465650128187798e-11,-3.517557757960339e-12,1.3763183862533377e-12,-4.250942588386597e-14
1668680399.0633757,8162,1668680399,63270536,,6.300930329525674e-05,5.938495352914394e-05,-4.4394486913235093e-11,-3.633574847747295e-12,1.4113693765990543e-12,-4.1453426520392245e-14
1668680399.071555,8163,1668680399,71448372,,8.11820805938697e-05,7.651244689734605e-05,-7.316724416081542e-11,-3.863193260133001e-12,1.4854906211635589e-12,-4.0413649531924334e-14
1668680399.0808766,8164,1668680399,80555928,,0.00010223603032201721,9.635540586078249e-05,-1.1509287807126314e-10,-4.247163981396917e-12,1.6126948125745925e-12,-3.9393483050251255e-14
1668680399.0877852,8165,1668680399,87666910,,0.0001262911660669813,0.00011902694764730178,-1.7405491246688447e-10,-4.834572766708799e-12,1.8098556825277051e-12,-3.839501416455504e-14
1668680399.095385,8166,1668680399,95284587,,0.0001534520670763306,0.00014462564392504084,-2.5451000156724017e-10,-5.6832689341999214e-12,2.0968636576428404e-12,-3.741866300317753e-14
1668680399.1038182,8167,1668680399,103636502,,0.00018380888899802514,0.0001732364733427682,-3.614744698938419e-10,-6.8601987877301855e-12,2.496732085230976e-12,-3.647538000806083e-14
1668680399.1121888,8168,1668680399,111948900,,0.00021743832321936227,0.00020493172560025094,-5.004994845765552e-10,-8.44163288228649e-12,3.0356833600277177e-12,-3.556822805034221e-14
1668680399.1195767,8169,1668680399,119477049,,0.0002544045069731668,0.0002397718590942226,-6.776363861506925e-10,-1.051325689674781e-11,3.743171883868366e-12,-3.470232998528666e-14
1668680399.1277177,8170,1668680399,127549923,,0.0002947598863060038,0.00027780631411627343,-8.993932164373511e-10,-1.3170161038032421e-11,4.651892602509477e-12,-3.3891238340050256e-14
1668680399.135407,8171,1668680399,135250247,,0.0003385460339301978,0.00031907428351091947,-1.1726838582496616e-09,-1.6516761595470827e-11,5.797739837286526e-12,-3.313885624245394e-14
1668680399.1441185,8172,1668680399,143874708,,0.00038579442391046995,0.0003636054426349278,-1.504771118606466e-09,-2.0666576241811343e-11,7.219743085098702e-12,-3.246063357345563e-14
1668680399.1518729,8173,1668680399,151689390,,0.00043652716506755216,0.00041142064039461886,-1.903205004569487e-09,-2.5741948888754974e-11,8.959963213674193e-12,-3.186334659663337e-14
1668680399.159757,8174,1668680399,159564316,,0.000490757694912656,0.0004625325530725432,-2.375757725996189e-09,-3.1873693721994615e-11,1.106337837639658e-11,-3.136314992435718e-14
1668680399.1676655,8175,1668680399,167557398,,0.0005484914358628781,0.0005169463025960761,-2.930356086490627e-09,-3.9200668367336876e-11,1.3577731588725983e-11,-3.097142767943817e-14
1668680399.1765268,8176,1668680399,176196060,,0.0006097264154220434,0.0005746600408367788,-3.5750130270219915e-09,-4.7869290340768326e-11,1.655336159689532e-11,-3.069441402436812e-14
1668680399.183979,8177,1668680399,183702431,,0.0006744538519503991,0.0006356655014732285,-4.317758929406491e-09,-5.803301178045501e-11,2.0043032436246585e-11,-3.0540782576526926e-14
1668680399.1917658,8178,1668680399,191572673,,0.0007426587075862673,0.0006999485208926189,-5.166573838055072e-09,-6.985172193233727e-11,2.4101719795969036e-11,-3.052625426741562e-14
1668680399.1996572,8179,1668680399,199533477,,0.000814320209823545,0.0007674895295486869,-6.1293212116598226e-09,-8.349115801288044e-11,2.8786418435994233e-11,-3.066449004440752e-14
1668680399.2080743,8180,1668680399,207789682,,0.0008894123431924278,0.0008382640151431431,-7.21368422594782e-09,-9.91222533316716e-11,3.415590453496203e-11,-3.097110241878642e-14
1668680399.215495,8181,1668680399,215355128,,0.0009679043124350683,0.000912242958942715,-8.427105022688779e-09,-1.1692051288668295e-10,4.027053448940241e-11,-3.145769235379792e-14
1668680399.2235794,8182,1668680399,223432737,,0.0010497609785142764,0.0009893932464940926,-9.776727568067342e-09,-1.370653214154339e-10,4.719200115798207e-11,-3.2138571318118814e-14
1668680399.2317817,8183,1668680399,231624892,,0.0011349432687415496,0.0010696780539497348,-1.1269344349089479e-08,-1.5973929133378164e-10,5.4983115320227744e-11,-3.302826762086042e-14
1668680399.240251,8184,1668680399,240011754,,0.0012234085622596148,0.0011530572111703309,-1.29113476458273e-08,-1.8512759897210465e-10,6.37075660238004e-11,-3.4137840124182084e-14
1668680399.2477622,8185,1668680399,247633200,,0.0013151110520662336,0.001239487542721849,-1.4708685420775412e-08,-2.1341729104336013e-10,7.342970285298205e-11,-3.5484202381974583e-14
1668680399.2558732,8186,1668680399,255683115,,0.0014100020847182845,0.001328923187841386,-1.6666821704596342e-08,-2.447966792093443e-10,8.42143085071057e-11,-3.707385960727283e-14
1668680399.263524,8187,1668680399,263329596,,0.0015080304788092373,0.0014213159004029907,-1.879070218298472e-08,-2.7945466547824223e-10,9.612637939869322e-11,-3.892134010918813e-14
1668680399.2728405,8188,1668680399,272513268,,0.001609142823268732,0.001516615329871319,-2.1084724611934183e-08,-3.175801498321362e-10,1.0923092149479809e-10,-4.10403048350938e-14
1668680399.280718,8189,1668680399,280517505,,0.0017132837564902393,0.0016147692841914374,-2.3552714379371635e-08,-3.59361416617704e-10,1.2359273493007953e-10,-4.344181264714919e-14
1668680399.288456,8190,1668680399,288335224,,0.0018203962272502574,0.0017157239755229566,-2.619790467174758e-08,-4.0498556118453456e-10,1.3927622190311809e-10,-4.6127381428395786e-14
1668680399.296473,8191,1668680399,296321984,,0.0019304217383433388,0.001819424249689472,-2.902292169645067e-08,-4.54637949866049e-10,1.5634520524873468e-10,-4.911435841359335e-14
1668680399.3041568,8192,1668680399,303887387,,0.0020433005738178453,0.0019258138001768128,-3.202977433738155e-08,-5.085016896843594e-10,1.7486273837734973e-10,-5.240773093273532e-14
1668680399.312737,8193,1668680399,312476430,,0.002158972010659546,0.0020348353674787835,-3.5219848381897614e-08,-5.667571583554032e-10,1.9489095112176303e-10,-5.601508840102909e-14
1668680399.3203804,8194,1668680399,320200761,,0.0022773745157348107,0.002146430924554559,-3.859390505869011e-08,-6.295815233080607e-10,2.164908830004121e-10,-5.993990026542662e-14
1668680399.3279228,8195,1668680399,327640675,,0.002398445928768877,0.002260541849128811,-4.215208348929883e-08,-6.971483210967209e-10,2.3972233928275764e-10,-6.419257486678376e-14
1668680399.3360286,8196,1668680399,335801893,,0.002522123632102229,0.0023771090835339216,-4.5893907070325024e-08,-7.696270592636096e-10,2.646437565685428e-10,-6.87739795668385e-14
1668680399.343475,8197,1668680399,343347361,,0.0026483447079344432,0.0024960732827627556,-4.981829316236142e-08,-8.471828593567532e-10,2.913120806930761e-10,-7.368671645080482e-14
1668680399.3517184,8198,1668680399,351524478,,0.002777046083734244,0.0026173749513714825,-5.392356619383969e-08,-9.299761148133718e-10,3.1978264582513665e-10,-7.892991815694472e-14
1668680399.3596597,8199,1668680399,359493740,,0.0029081646664639803,0.0027409545698424275,-5.820747366681539e-08,-1.0181621953724853e-09,3.501090798635584e-10,-8.449968155743726e-14
1668680399.3694394,8200,1668680399,368494784,,0.003041637466237415,0.0028667527109900648,-6.266720502978892e-08,-1.1118911636170319e-09,3.823432082007347e-10,-9.03981750566274e-14
1668680399.375799,8201,1668680399,375627045,,0.0031774017100021064,0.002994710146967183,-6.729941252652097e-08,-1.2113075661633057e-09,4.1653497781491376e-10,-9.662453129277715e-14
1668680399.3837667,8202,1668680399,383533780,,0.003315394945810214,0.0031247679474016472,-7.21002347414895e-08,-1.3165501884550832e-09,4.5273237215355186e-10,-1.0317181137198261e-13
1668680399.3922944,8203,1668680399,392158728,,0.0034555551382156892,0.003256867569170998,-7.706532153640177e-08,-1.427751894362688e-09,4.909813674738471e-10,-1.1003307640033988e-13
1668680399.4008043,8204,1668680399,400416775,,0.003597820755311157,0.0033909509382974807,-8.218986074917248e-08,-1.5450394705694855e-09,5.313258732455011e-10,-1.171970506752551e-13
1668680399.4086864,8205,1668680399,408369499,,0.003742130847893096,0.003526960524424817,-8.746860629657762e-08,-1.668533506442283e-09,5.738076853538431e-10,-1.246537595367414e-13
1668680399.4156258,8206,1668680399,415431796,,0.0038884251212215897,0.003664839408314215,-9.289590723279526e-08,-1.7983482773068003e-09,6.184664587779347e-10,-1.323958304100259e-13
1668680399.4238794,8207,1668680399,423727601,,0.004036643999818012,0.003804531342778487,-9.846573772778899e-08,-1.9345916843760945e-09,6.653396757150265e-10,-1.4040244661339685e-13
1668680399.4321272,8208,1668680399,431855307,,0.004186728685723141,0.003945980807451456,-1.0417172766607925e-07,-2.077365187018416e-09,7.144626406880954e-10,-1.4866233244426041e-13
1668680399.4399514,8209,1668680399,439812456,,0.004338621210617566,0.004089133057771021,-1.1000719349669296e-07,-2.2267637985118804e-09,7.658684613961238e-10,-1.5714773232700097e-13
1668680399.4476895,8210,1668680399,447548218,,0.004492264482186772,0.004233934168536355,-1.1596516953514876e-07,-2.3828760493781057e-09,8.195880464372755e-10,-1.6584650319728667e-13
1668680399.4558587,8211,1668680399,455664829,,0.004647602325094069,0.0043803310723813105,-1.2203843912073526e-07,-2.5457840154528844e-09,8.756501112720068e-10,-1.7473522628819183e-13
1668680399.4642634,8212,1668680399,463879608,,0.004804579516906957,0.004528271593488605,-1.2821956554651424e-07,-2.7155633403833784e-09,9.340811883603575e-10,-1.8378180921541087e-13
1668680399.4719582,8213,1668680399,471708774,,0.004963141819304499,0.004677704476854958,-1.3450092292319667e-07,-2.8922832739648307e-09,9.949056435334036e-10,-1.9296283321201813e-13
1668680399.4799612,8214,1668680399,479794852,,0.00512323600487762,0.004828579413398904,-1.4087472623480755e-07,-3.0760067544789433e-09,1.0581456967963861e-09,-2.022540121493499e-13
1668680399.4876516,8215,1668680399,487531158,,0.005284809879817446,0.004980847061191245,-1.4733306109177223e-07,-3.2667904543116845e-09,1.1238214483089062e-09,-2.116258557283146e-13
1668680399.4964535,8216,1668680399,495855645,,0.005447812302772025,0.005134459063071004,-1.5386791273449126e-07,-3.464684895813843e-09,1.1919509200047354e-09,-2.2104193475591671e-13
1668680399.5046265,8217,1668680399,504435858,,0.005612193200137033,0.00528936806089691,-1.6047119395840562e-07,-3.6697345430313074e-09,1.2625500671656744e-09,-2.304666874008987e-13
1668680399.5120633,8218,1668680399,511820811,,0.005777903578032186,0.005445527706673218,-1.6713477239382669e-07,-3.8819779042638175e-09,1.335632838662536e-09,-2.3986368447026507e-13
1668680399.5195925,8219,1668680399,519466344,,0.0059448955312018355,0.005602892670772377,-1.7385049666678355e-07,-4.101447662602903e-09,1.411211215186824e-09,-2.4919389468580633e-13
1668680399.528122,8220,1668680399,527898148,,0.006113122249064998,0.005761418647468056,-1.8061022156099324e-07,-4.328170814221874e-09,1.4892952421156121e-09,-2.5842088885452696e-13
1668680399.5354536,8221,1668680399,535323986,,0.006282538019128638,0.0059210623579804,-1.8740583204367297e-07,-4.562168779418448e-09,1.5698930905250208e-09,-2.674986968043136e-13
1668680399.5437903,8222,1668680399,543661474,,0.006453098227965306,0.006081781551221344,-1.9422926586594017e-07,-4.803457579509115e-09,1.6530111026453933e-09,-2.7638655253348077e-13
1668680399.5516627,8223,1668680399,551476358,,0.006624759359946547,0.006243535002422825,-2.0107253534934195e-07,-5.052047964297429e-09,1.7386538482804664e-09,-2.8503588378470113e-13
1668680399.5602133,8224,1668680399,559957745,,0.006797478993910909,0.006406282509813816,-2.0792774762595445e-07,-5.3079455963070616e-09,1.8268241698288657e-09,-2.933989856623853e-13
1668680399.5677335,8225,1668680399,567557899,,0.00697121579793762,0.006569984889509753,-2.147871238536385e-07,-5.5711511708843005e-09,1.917523239963661e-09,-3.0142208173877805e-13
1668680399.5754294,8226,1668680399,575330002,,0.0071459295223849015,0.006734603968762704,-2.2164301688470026e-07,-5.841660612614823e-09,2.0107506277958036e-09,-3.0905139558612404e-13
1668680399.5846186,8227,1668680399,584313181,,0.007321580991344468,0.00690010257771594,-2.2848792784884025e-07,-6.119465228555346e-09,2.106504348720322e-09,-3.16235752861882e-13
1668680399.5920484,8228,1668680399,591780382,,0.007498132092654245,0.00706644453979664,-2.353145213649908e-07,-6.404551887228627e-09,2.204780906673101e-09,-3.229153056061307e-13
1668680399.5997005,8229,1668680399,599578470,,0.007675545766602491,0.007233594660872259,-2.421156396085358e-07,-6.696903165126283e-09,2.3055753863422766e-09,-3.2903020585894893e-13
1668680399.6077142,8230,1668680399,607607247,,0.007853785993449885,0.0074015187172900105,-2.488843148388636e-07,-6.996497527892527e-09,2.4088814849895692e-09,-3.345240751073675e-13
1668680399.6154833,8231,1668680399,615347782,,0.008032817779886736,0.007570183442910312,-2.556137810882449e-07,-7.303309521008224e-09,2.5146915765808433e-09,-3.393327285827752e-13
1668680399.6240394,8232,1668680399,623831504,,0.008212607144536997,0.0077395565152387595,-2.622974842950211e-07,-7.617309912356701e-09,2.6229967750493032e-09,-3.4339718568698885e-13
1668680399.6325305,8233,1668680399,632240191,,0.00839312110261264,0.007909606540755216,-2.689290913648268e-07,-7.938465873224524e-09,2.7337869910263723e-09,-3.466393838635895e-13
1668680399.6398668,8234,1668680399,639684412,,0.00857432764981576,0.008080303039531464,-2.755024981556871e-07,-8.266741143228974e-09,2.8470509896838785e-09,-3.4899860779091796e-13
1668680399.6477337,8235,1668680399,647598740,,0.008756195745579962,0.008251616429223934,-2.820118361793189e-07,-8.602096199128331e-09,2.962776444754428e-09,-3.5039159074212733e-13
1668680399.6559303,8236,1668680399,655678694,,0.008938695295736163,0.008423518008522035,-2.884514784452081e-07,-8.944488429419076e-09,3.0809499933920348e-09,-3.5076455628946235e-13
1668680399.6637044,8237,1668680399,663529613,,0.009121797134682514,0.008595979940126985,-2.9481604397731544e-07,-9.293872270518463e-09,3.2015573080005147e-09,-3.5003944187650404e-13
1668680399.6717355,8238,1668680399,671597875,,0.00930547300713291,0.008768975233331531,-3.0110040162614675e-07,-9.650199393979129e-09,3.3245831257508896e-09,-3.481347154998815e-13
1668680399.679736,8239,1668680399,679588693,,0.009489695549513223,0.008942477726266641,-3.072996727544165e-07,-1.0013418862546441e-08,3.450011319623735e-09,-3.4498445766750763e-13
1668680399.6880105,8240,1668680399,687768967,,0.009674438271070224,0.009116462067875357,-3.134092330031193e-07,-1.0383477248851534e-08,3.5778249475235373e-09,-3.4050193220558356e-13
1668680399.6956592,8241,1668680399,695510566,,0.009859675534752596,0.009290903699670578,-3.194247132516645e-07,-1.0760318831638349e-08,3.7080063068682754e-09,-3.346108112811663e-13
1668680399.7034113,8242,1668680399,703284520,,0.010045382537920524,0.009465778837330484,-3.25341999762256e-07,-1.1143885703953455e-08,3.840536979475388e-09,-3.272243587204571e-13
1668680399.7116783,8243,1668680399,711549386,,0.01023153529293475,0.009641064452178683,-3.311572334975751e-07,-1.1534117972029391e-08,3.975397882925854e-09,-3.182610425200849e-13
1668680399.7201478,8244,1668680399,719899229,,0.010418110607673482,0.009816738252595963,-3.368668088002597e-07,-1.1930953840950183e-08,4.1125693228498406e-09,-3.0763065705929904e-13
1668680399.7279017,8245,1668680399,727741103,,0.010605086066021088,0.009992778665404585,-3.424673713709285e-07,-1.2334329760435884e-08,4.252031017944668e-09,-2.952551397816805e-13
1668680399.735695,8246,1668680399,735554389,,0.010792440008369255,0.010169164817263529,-3.4795581543208036e-07,-1.2744180585589097e-08,4.3937621879849235e-09,-2.810373461725746e-13
1668680399.7434804,8247,1668680399,743337017,,0.010980151512168234,0.010345876516110599,-3.533292806516862e-07,-1.3160439673795543e-08,4.5377415510306374e-09,-2.6489227478165844e-13
1668680399.7524652,8248,1668680399,752204977,,0.011168200372562588,0.01052289423268398,-3.585851482515289e-07,-1.3583039030725438e-08,4.683947399077492e-09,-2.467262505412293e-13
1668680399.760123,8249,1668680399,759589215,,0.011356567083142989,0.010700199082152709,-3.6372103673287353e-07,-1.4011909418997653e-08,4.832357624158989e-09,-2.2645600672444033e-13
1668680399.7681942,8250,1668680399,767986762,,0.011545232816842659,0.01087777280588353,-3.687347970576811e-07,-1.4446980483432174e-08,4.98294976968342e-09,-2.0398439881663677e-13
1668680399.7757688,8251,1668680399,775644195,,0.011734179407005177,0.011055597753369149,-3.73624507549214e-07,-1.4888180877481623e-08,5.135701040001953e-09,-1.7921081285621199e-13
1668680399.7836053,8252,1668680399,783436064,,0.011923389328647015,0.011233656864340687,-3.7838846838649557e-07,-1.533543832868997e-08,5.290588381778004e-09,-1.5203116543460737e-13
1668680399.7916536,8253,1668680399,791523808,,0.012112845679936642,0.011411933651083879,-3.830251956552213e-07,-1.5788679764392214e-08,5.447588496184513e-09,-1.223587203780241e-13
1668680399.7996702,8254,1668680399,799514960,,0.012302532163909611,0.011590412180978598,-3.875334152506677e-07,-1.6247831454910397e-08,5.606677855925918e-09,-9.00911290013795e-14
1668680399.807794,8255,1668680399,807650317,,0.012492433070436987,0.011769077059277641,-3.9191205643895896e-07,-1.6712819052042767e-08,5.767832775901028e-09,-5.513298151349488e-14
1668680399.815674,8256,1668680399,815437028,,0.012682533258462877,0.011947913412139417,-3.9616024522609317e-07,-1.718356769669796e-08,5.931029410058842e-09,-1.736978616495577e-14
1668680399.8237526,8257,1668680399,823631885,,0.012872818138524408,0.012126906869928254,-4.0027729756026414e-07,-1.7660002125621148e-08,6.096243809782832e-09,2.329733628236852e-14
1668680399.8318717,8258,1668680399,831645539,,0.0130632736555669,0.01230604355079303,-4.042627123113689e-07,-1.8142046753752742e-08,6.263451924920938e-09,6.696553034313268e-14
1668680399.8395972,8259,1668680399,839471190,,0.013253886272064364,0.012485310044535267,-4.0811616427126065e-07,-1.862962574036473e-08,6.432629672740824e-09,1.1375275721370315e-13
1668680399.8481543,8260,1668680399,847930136,,0.013444642951454842,0.012664693396774259,-4.1183749683320406e-07,-1.9122663070091236e-08,6.603752917926347e-09,1.6376136557916254e-13
1668680399.8555286,8261,1668680399,855334065,,0.013635531141898072,0.012844181093417915,-4.1542671483151684e-07,-1.962108266222965e-08,6.7767975194693054e-09,2.1709717357154545e-13
1668680399.8637683,8262,1668680399,863599036,,0.013826538760362383,0.013023761045444527,-4.188839771883814e-07,-2.0124808378939904e-08,6.951739367423888e-09,2.738937548985021e-13
1668680399.8717504,8263,1668680399,871623349,,0.014017654177045856,0.01320342157400134,-4.2220958966113226e-07,-2.0633764151120355e-08,7.128554383286148e-09,3.342395804573073e-13
1668680399.8802116,8264,1668680399,879984787,,0.014208866200136581,0.013383151395823837,-4.2540399739262013e-07,-2.1147874012370405e-08,7.307218553821108e-09,3.982543461678034e-13
1668680399.887683,8265,1668680399,887544726,,0.014400164060914622,0.013562939608978645,-4.2846777779472983e-07,-2.166706217680912e-08,7.487707963643037e-09,4.66049074332453e-13
1668680399.8957262,8266,1668680399,895526478,,0.014591537399198747,0.013742775678933082,-4.3140163315092206e-07,-2.2191253088514845e-08,7.669998790878641e-09,5.377469303180504e-13
1668680399.9041684,8267,1668680399,903967035,,0.01478297624913897,0.013922649424951767,-4.342063835690888e-07,-2.272037148385328e-08,7.854067340235232e-09,6.134606711505342e-13
1668680399.912323,8268,1668680399,912058236,,0.014974471025355703,0.014102551006822506,-4.368829597223267e-07,-2.3254342447747572e-08,8.039890064684765e-09,6.933134621966985e-13
1668680399.9199371,8269,1668680399,919740435,,0.01516601250942567,0.014282470911909817,-4.3943239614383776e-07,-2.379309141495225e-08,8.227443565463847e-09,7.774128563120541e-13
1668680399.927826,8270,1668680399,927641377,,0.01535759183671353,0.014462399942536803,-4.4185582394057763e-07,-2.43365443195647e-08,8.416704619558252e-09,8.658872230338233e-13
1668680399.9356306,8271,1668680399,935486972,,0.015549200483548258,0.014642329203693216,-4.441544643729599e-07,-2.4884627531423175e-08,8.607650208651129e-09,9.588510541114204e-13
1668680399.944049,8272,1668680399,943642535,,0.015740830254741933,0.014822250091068901,-4.4632962204910086e-07,-2.5437267985045512e-08,8.80025750264312e-09,1.0564396579759716e-12
1668680399.95177,8273,1668680399,951563800,,0.015932473271448852,0.015002154279409385,-4.4838267851896763e-07,-2.5994393135881592e-08,8.99450391044724e-09,1.1587779347177474e-12
1668680399.959989,8274,1668680399,959818781,,0.016124121959361897,0.015182033711191745,-4.503150857904289e-07,-2.655593110493235e-08,9.190367055106428e-09,1.265980376086162e-12
1668680399.9680269,8275,1668680399,967725091,,0.01631576903724283,0.015361880585616943,-4.5212836044515466e-07,-2.7121810587690354e-08,9.387824796887063e-09,1.37817882106539e-12
1668680399.9766848,8276,1668680399,976449850,,0.016507407505782508,0.015541687347915643,-4.538240773636753e-07,-2.7691961008353993e-08,9.586855290199571e-09,1.4955085780865573e-12
1668680399.9837646,8277,1668680399,983452761,,0.0166990306367877,0.015721446678963524,-4.554038641082068e-07,-2.8266312453271037e-08,9.787436909005319e-09,1.6180841388990785e-12
1668680399.9916923,8278,1668680399,991538536,,0.016890631962688894,0.01590115148520208,-4.5686939509378403e-07,-2.884479578224553e-08,9.989548321463933e-09,1.7460546897218876e-12
1668680399.9996085,8279,1668680399,999437520,,0.01708220526636547,0.016080794888860057,-4.5822238644090845e-07,-2.9427342567036425e-08,1.0193168499582697e-08,1.879534722304399e-12
1668680400.008137,8280,1668680400,7915219,,0.017273744571282643,0.01626037021847134,-4.5946459031910234e-07,-3.001388521197508e-08,1.0398276669885357e-08,2.018666483971643e-12
1668680400.0164552,8281,1668680400,16312633,,0.017465244131935256,0.016439870999684535,-4.605977902265755e-07,-3.060435691413436e-08,1.060485240470194e-08,2.1635887526016973e-12
1668680400.0234635,8282,1668680400,23277153,,0.017656698424592963,0.016619290946358695,-4.616237958717207e-07,-3.119869170732019e-08,1.081287555906819e-08,2.3144333671787365e-12
1668680400.0318217,8283,1668680400,31705253,,0.017848102138341197,0.01679862395194043,-4.625444386673442e-07,-3.1796824478063463e-08,1.1022326311979462e-08,2.4713495139216946e-12
1668680400.0403485,8284,1668680400,40032040,,0.018039450166412493,0.016977864081116754,-4.6336156715172537e-07,-3.239869100261851e-08,1.1233185149151902e-08,2.63445862347389e-12
1668680400.0478942,8285,1668680400,47716189,,0.01823073759780195,0.017157005561738794,-4.6407704282065536e-07,-3.300422791565672e-08,1.1445432934471377e-08,2.8039029431603524e-12
1668680400.0560875,8286,1668680400,55881120,,0.018421959709161082,0.017336042777009626,-4.6469273574073384e-07,-3.361337279445486e-08,1.1659050799513269e-08,2.979835128646968e-12
1668680400.0645733,8287,1668680400,64313437,,0.01861311195696431,0.017514970257932475,-4.652105210217438e-07,-3.4226064141114126e-08,1.187402028053142e-08,3.1623800800240076e-12
1668680400.072103,8288,1668680400,71837009,,0.01880418996994169,0.017693782676011204,-4.6563227488856277e-07,-3.48422413584638e-08,1.2090323225433589e-08,3.3517008612982124e-12
1668680400.0798857,8289,1668680400,79703763,,0.018995189541771935,0.017872474836199814,-4.65959871219944e-07,-3.5461844840185526e-08,1.2307941839372148e-08,3.547932780900709e-12
1668680400.087991,8290,1668680400,87812453,,0.019186106624029475,0.018051041670093165,-4.6619517824136856e-07,-3.6084815936254355e-08,1.2526858678401503e-08,3.751231963944335e-12
1668680400.0954773,8291,1668680400,95255447,,0.01937693731937953,0.01822947822935469,-4.6634005537617434e-07,-3.671109695773636e-08,1.2747056662488522e-08,3.9617302494132645e-12
1668680400.1040518,8292,1668680400,103786295,,0.01956767787501501,0.0184077796793741,-4.663963502791039e-07,-3.7340631212486e-08,1.2968519073832015e-08,4.17957335407948e-12
1668680400.111943,8293,1668680400,111784599,,0.01975832467632899,0.018585941293149884,-4.6636589600434496e-07,-3.797336301655731e-08,1.3191229558434832e-08,4.404938219737531e-12
1668680400.1196895,8294,1668680400,119551625,,0.01994887424081687,0.018763958445391287,-4.6625050854648737e-07,-3.8609237666502576e-08,1.3415172136024313e-08,4.6379566853715914e-12
1668680400.1277788,8295,1668680400,127624398,,0.02013932321220174,0.018941826606832683,-4.660519842142462e-07,-3.9248201460812416e-08,1.3640331180157176e-08,4.878777937200596e-12
1668680400.1362054,8296,1668680400,135935353,,0.020329668354777307,0.019119541338756513,-4.657720975391683e-07,-3.9890201749951705e-08,1.3866691446842456e-08,5.127575447572141e-12
1668680400.144574,8297,1668680400,144390218,,0.020519906547962163,0.01929709828771743,-4.654125990811995e-07,-4.053518687241876e-08,1.4094238071559947e-08,5.384508811046018e-12
1668680400.152295,8298,1668680400,152086691,,0.020710034781059296,0.019474493180462835,-4.6497521349427e-07,-4.1183106224324017e-08,1.4322956564977608e-08,5.6497168055003044e-12
1668680400.160301,8299,1668680400,160149425,,0.020900050148215513,0.019651721819044832,-4.644616377537682e-07,-4.183391021987085e-08,1.4552832807964225e-08,5.923362494941742e-12
1668680400.168842,8300,1668680400,168449447,,0.021089949843574134,0.01982878007611664,-4.6387353945498164e-07,-4.248755030214339e-08,1.4783853069804016e-08,6.205619351717928e-12
1668680400.175781,8301,1668680400,175632424,,0.02127973115661613,0.020005663890409715,-4.6321255538992313e-07,-4.3143978959776135e-08,1.5016004002992456e-08,6.496636562047797e-12
1668680400.1834996,8302,1668680400,183387322,,0.021469391467683174,0.020182369262385126,-4.6248029015806237e-07,-4.380314973381153e-08,1.524927263900789e-08,6.796580659385043e-12
1668680400.191794,8303,1668680400,191611410,,0.02165892824367789,0.020358892250054262,-4.616783148706343e-07,-4.4465017229815924e-08,1.5483646395033582e-08,7.105625116077263e-12
1668680400.200274,8304,1668680400,199826233,,0.021848339033935175,0.020535228964964278,-4.6080816616973923e-07,-4.512953703808228e-08,1.5719113073578254e-08,7.42391564889644e-12
1668680400.208115,8305,1668680400,207893533,,0.02203762146625939,0.020711375568342297,-4.598713450979547e-07,-4.579666587913012e-08,1.5955660867463407e-08,7.75164307742493e-12
1668680400.219763,8306,1668680400,219076867,,0.022226773243122416,0.02088732826739405,-4.588693164095034e-07,-4.646636147623046e-08,1.619327833873559e-08,8.088966996222524e-12
1668680400.2265947,8307,1668680400,225892486,,0.022415792138016897,0.021063083311751895,-4.578035077186041e-07,-4.7138582617693194e-08,1.6431954463877636e-08,8.436074755424627e-12
1668680400.237243,8308,1668680400,236441876,,0.02260467599196017,0.021238636990067297,-4.5667530890426565e-07,-4.781328914483249e-08,1.6671678552872965e-08,8.79310860235627e-12
1668680400.2433288,8309,1668680400,243031234,,0.02279342271014339,0.02141398562674371,-4.554860715779574e-07,-4.849044193678794e-08,1.6912440378496693e-08,9.160273234387617e-12
1668680400.2488725,8310,1668680400,248587350,,0.02298203025872132,0.021589125578804026,-4.542371086754468e-07,-4.917000295814812e-08,1.7154230031899906e-08,9.537724776631507e-12
1668680400.255748,8311,1668680400,255597161,,0.023170496661737837,0.02176405323288983,-4.5292969415660233e-07,-4.985193520864366e-08,1.7397038047238696e-08,9.925654048670296e-12
1668680400.2640789,8312,1668680400,263826029,,0.02335881999818265,0.02193876500238628,-4.5156506258036775e-07,-5.053620272238825e-08,1.76408553010602e-08,1.0324234522851583e-11
1668680400.2717342,8313,1668680400,271564324,,0.023546998399174464,0.022113257324669944,-4.5014440907387497e-07,-5.122277062634428e-08,1.7885673081691547e-08,1.0733632732629061e-11
1668680400.2797606,8314,1668680400,279558774,,0.023735030045266517,0.022287526658474353,-4.486688892554315e-07,-5.191160504168751e-08,1.813148306885684e-08,1.1154070722607656e-11
1668680400.2877545,8315,1668680400,287565878,,0.023922913163869793,0.022461569481369664,-4.471396192140968e-07,-5.260267320038596e-08,1.837827730180163e-08,1.158571155679411e-11
1668680400.2957678,8316,1668680400,295566558,,0.02411064602678986,0.022635382287352318,-4.455576756164336e-07,-5.329594336735415e-08,1.8626048238056664e-08,1.2028763402005538e-11
1668680400.303964,8317,1668680400,303709742,,0.024298226947873373,0.022808961584541286,-4.4392409584205875e-07,-5.3991384813483574e-08,1.887478870540773e-08,1.2483385852801732e-11
1668680400.3117864,8318,1668680400,311607158,,0.024485654280759897,0.02298230389297589,-4.422398780356949e-07,-5.468896788524851e-08,1.9124491921086034e-08,1.294979054544676e-11
1668680400.319556,8319,1668680400,319451338,,0.02467292641673554,0.023155405742513475,-4.4050598150696716e-07,-5.5388663989608487e-08,1.9375151488732444e-08,1.3428157891182124e-11
1668680400.3283317,8320,1668680400,328085388,,0.024860041782684215,0.02332826367082154,-4.3872332703333085e-07,-5.609044553884948e-08,1.9626761384302846e-08,1.3918685648484086e-11
1668680400.335447,8321,1668680400,335241537,,0.025046998839133427,0.02350087422146226,-4.368927972080907e-07,-5.67942860018396e-08,1.9879315979920605e-08,1.4421568106381955e-11
1668680400.3436913,8322,1668680400,343481568,,0.02523379607839022,0.023673233942064848,-4.350152368227966e-07,-5.7500159882345036e-08,2.0132810057645924e-08,1.49370169011398e-11
1668680400.3517876,8323,1668680400,351605914,,0.02542043202276462,0.02384533938258333,-4.3309145337461117e-07,-5.820804270282123e-08,2.038723872545018e-08,1.5465219382893025e-11
1668680400.3600953,8324,1668680400,359806000,,0.025606905222876532,0.024017187093636788,-4.3112221753090274e-07,-5.891791103300871e-08,2.0642597522166697e-08,1.6006362901777038e-11
1668680400.3677392,8325,1668680400,367635367,,0.02579321425604347,0.024188773624927874,-4.2910826365123795e-07,-5.962974247003799e-08,2.0898882360895384e-08,1.6560686849631523e-11
1668680400.3754485,8326,1668680400,375286444,,0.025979357724745352,0.024360095523737735,-4.2705029037174804e-07,-6.034351564076059e-08,2.1156089517293357e-08,1.7128364698804077e-11
1668680400.3840144,8327,1668680400,383741849,,0.02616533425516367,0.024531149333493887,-4.249489612224418e-07,-6.105921019546067e-08,2.1414215671533565e-08,1.7709628902240482e-11
1668680400.3921213,8328,1668680400,391887855,,0.02635114249579197,0.02470193159240867,-4.228049053241053e-07,-6.177680678692995e-08,2.1673257862985136e-08,1.8304684157310902e-11
1668680400.3997068,8329,1668680400,399562022,,0.026536781116114676,0.024872438832184835,-4.2061871790750053e-07,-6.249628709765402e-08,2.1933213533147783e-08,1.89137282224916e-11
1668680400.407611,8330,1668680400,407486899,,0.026722248805351484,0.025042667576786557,-4.183909609939194e-07,-6.321763382775066e-08,2.2194080499197272e-08,1.9536990081281402e-11
1668680400.4156468,8331,1668680400,415495993,,0.026907544271264953,0.02521261434127278,-4.1612216432067144e-07,-6.394083068144438e-08,2.245585693273506e-08,2.0174695247732188e-11
1668680400.4238334,8332,1668680400,423619991,,0.02709266623902816,0.025382275630690777,-4.1381282579997016e-07,-6.466586240317035e-08,2.2718541405107942e-08,2.0827034541426315e-11
1668680400.4315684,8333,1668680400,431433033,,0.02727761345015023,0.025551647939027172,-4.1146341235794077e-07,-6.53927146621611e-08,2.2982132869735564e-08,2.1494243884756514e-11
1668680400.4398496,8334,1668680400,439734207,,0.02746238466145724,0.025720727748214156,-4.090743606306789e-07,-6.612137424478397e-08,2.3246630656797822e-08,2.2176552261221616e-11
1668680400.4475923,8335,1668680400,447425680,,0.02764697864412629,0.025889511527189532,-4.0664607784849536e-07,-6.685182880875246e-08,2.3512034427264697e-08,2.2874178245979593e-11
1668680400.4557233,8336,1668680400,455457844,,0.027831394182770055,0.026057995731007505,-4.041789425307058e-07,-6.758406712753257e-08,2.3778344293242694e-08,2.3587357761423178e-11
1668680400.463609,8337,1668680400,463515501,,0.02801563007457011,0.026226176799998162,-4.016733051727009e-07,-6.83180788725265e-08,2.404556068255799e-08,2.4316312852157296e-11
1668680400.471665,8338,1668680400,471499321,,0.028199685128456616,0.02639405115897454,-3.991294891624234e-07,-6.905385478163904e-08,2.431368441161482e-08,2.5061286379468584e-11
1668680400.479573,8339,1668680400,479447010,,0.028383558164332422,0.026561615216484636,-3.965477915121086e-07,-6.979138649838195e-08,2.458271668994913e-08,2.5822531612984534e-11
1668680400.4885082,8340,1668680400,488260177,,0.028567248012339647,0.026728865364106406,-3.93928483652423e-07,-7.053066670504107e-08,2.4852659062549014e-08,2.6600242841734456e-11
1668680400.495443,8341,1668680400,495264730,,0.02875075351216672,0.026895797975784886,-3.912718121932057e-07,-7.127168906017212e-08,2.5123513488567797e-08,2.7394690682580602e-11
1668680400.5037966,8342,1668680400,503620514,,0.02893407351239437,0.027062409407208634,-3.885779997349305e-07,-7.201444818252735e-08,2.5395282256864687e-08,2.8206111057915706e-11
1668680400.5117095,8343,1668680400,511545424,,0.029117206869878245,0.027228695995224456,-3.8584724571276477e-07,-7.275893960652195e-08,2.5667968038263315e-08,2.9034746829026403e-11
1668680400.5202293,8344,1668680400,519847367,,0.02930015244916708,0.027394654057288907,-3.8307972709287063e-07,-7.350515992385798e-08,2.594157388663594e-08,2.9880813101623716e-11
1668680400.527967,8345,1668680400,527775415,,0.02948290912195447,0.02756027989095495,-3.8027559912526594e-07,-7.425310666987284e-08,2.621610321949623e-08,3.074464294261503e-11
1668680400.5354695,8346,1668680400,535334596,,0.029665475766562727,0.027725569773391825,-3.774349962786856e-07,-7.500277827689151e-08,2.6491559820384508e-08,3.162641676324185e-11
1668680400.5442383,8347,1668680400,544048587,,0.029847851267457242,0.027890519960937433,-3.7455803278695353e-07,-7.575417418920617e-08,2.6767947821737352e-08,3.2526425997048136e-11
1668680400.5521102,8348,1668680400,551885828,,0.03003003451479006,0.02805512668868149,-3.716448036692679e-07,-7.650729484009111e-08,2.7045271737088407e-08,3.344491350532053e-11
1668680400.5596461,8349,1668680400,559475714,,0.030212024403971294,0.02821938617007833,-3.68695385288585e-07,-7.726214147759855e-08,2.73235364402517e-08,3.438213602713347e-11
1668680400.5685508,8350,1668680400,568368896,,0.030393819835266688,0.028383294596588175,-3.6570983613942914e-07,-7.80187163824833e-08,2.7602747175621556e-08,3.533837111824312e-11
1668680400.5765264,8351,1668680400,576376467,,0.030575419713420687,0.028546848137345118,-3.6268819759508697e-07,-7.87770227963472e-08,2.7882909547330588e-08,3.6313896334405626e-11
1668680400.5835366,8352,1668680400,583351236,,0.03075682294730311,0.028710042938851384,-3.5963049466116744e-07,-7.953706486406808e-08,2.816402951220237e-08,3.730896147580154e-11
1668680400.5918562,8353,1668680400,591647575,,0.03093802844957883,0.028872875124696662,-3.565367367036273e-07,-8.029884761623558e-08,2.8446113387557703e-08,3.832384409818701e-11
1668680400.6003935,8354,1668680400,600147788,,0.03111903513639869,0.02903534079530093,-3.534069180926702e-07,-8.106237707399357e-08,2.8729167862056627e-08,3.935880787953039e-11
1668680400.60784,8355,1668680400,607708088,,0.031299841927111376,0.029197436027680105,-3.502410188928696e-07,-8.182766015349483e-08,2.9013199982796424e-08,4.041416507005735e-11
1668680400.6161923,8356,1668680400,615974956,,0.031480447743994354,0.029359156875233924,-3.470390055620609e-07,-8.259470469574367e-08,2.929821714967376e-08,4.149016546994844e-11
1668680400.6234713,8357,1668680400,623285689,,0.03166085151200367,0.02952049936755438,-3.4380083178917323e-07,-8.336351943455779e-08,2.9584227092724867e-08,4.258711439053542e-11
1668680400.6317742,8358,1668680400,631529748,,0.031841052158540946,0.029681459510254506,-3.405264389085595e-07,-8.413411399309885e-08,2.987123794953757e-08,4.370526857089274e-11
1668680400.6397293,8359,1668680400,639579887,,0.03202104861323715,0.029842033284815998,-3.3721575660396404e-07,-8.490649893810962e-08,3.015925816756467e-08,4.4844981894609504e-11
