Time,header.seq,header.stamp.secs,header.stamp.nsecs,header.frame_id,wrench.force.x,wrench.force.y,wrench.force.z,wrench.torque.x,wrench.torque.y,wrench.torque.z
1668680398.0243015,8032,1668680398,23893450,,0.0,0.0,0.0,0.0,0.0,0.0
1668680398.0316737,8033,1668680398,31484237,,0.0,0.0,0.0,0.0,0.0,0.0
1668680398.039924,8034,1668680398,39638245,,0.0,0.0,0.0,0.0,0.0,0.0
1668680398.0489376,8035,1668680398,48722902,,0.0,0.0,0.0,0.0,0.0,0.0
1668680398.0569339,8036,1668680398,56454760,,0.0,0.0,0.0,0.0,0.0,0.0
1668680398.0634956,8037,1668680398,63232055,,0.0,0.0,0.0,0.0,0.0,0.0
1668680398.0717993,8038,1668680398,71603457,,0.0,0.0,0.0,0.0,0.0,0.0
1668680398.0798514,8039,1668680398,79587158,,0.0,0.0,0.0,0.0,0.0,0.0
1668680398.0880818,8040,1668680398,87804334,,0.0,0.0,0.0,0.0,0.0,0.0
1668680398.0956357,8041,1668680398,95429733,,0.0,0.0,0.0,0.0,0.0,0.0
1668680398.103992,8042,1668680398,103760485,,0.0,0.0,0.0,0.0,0.0,0.0
1668680398.111867,8043,1668680398,111656487,,0.0,0.0,0.0,0.0,0.0,0.0
1668680398.1206856,8044,1668680398,120263294,,0.0,0.0,0.0,0.0,0.0,0.0
1668680398.127745,8045,1668680398,127562363,,0.0,0.0,0.0,0.0,0.0,0.0
1668680398.1358197,8046,1668680398,135603686,,0.0,0.0,0.0,0.0,0.0,0.0
1668680398.143775,8047,1668680398,143515545,,0.0,0.0,0.0,0.0,0.0,0.0
1668680398.1532235,8048,1668680398,152815214,,0.0,0.0,0.0,0.0,0.0,0.0
1668680398.1603088,8049,1668680398,160013730,,0.0,0.0,0.0,0.0,0.0,0.0
1668680398.1678548,8050,1668680398,167591904,,0.0,0.0,0.0,0.0,0.0,0.0
1668680398.1754525,8051,1668680398,175228743,,0.0,0.0,0.0,0.0,0.0,0.0
1668680398.1841798,8052,1668680398,183717216,,0.0,0.0,0.0,0.0,0.0,0.0
1668680398.191961,8053,1668680398,191739501,,0.0,0.0,0.0,0.0,0.0,0.0
1668680398.19993,8054,1668680398,199680533,,0.0,0.0,0.0,0.0,0.0,0.0
1668680398.2077818,8055,1668680398,207525659,,0.0,0.0,0.0,0.0,0.0,0.0
1668680398.2161963,8056,1668680398,215954347,,0.0,0.0,0.0,0.0,0.0,0.0
1668680398.2234807,8057,1668680398,223281124,,0.0,0.0,0.0,0.0,0.0,0.0
1668680398.2317064,8058,1668680398,231508882,,0.0,0.0,0.0,0.0,0.0,0.0
1668680398.2397735,8059,1668680398,239527917,,0.0,0.0,0.0,0.0,0.0,0.0
1668680398.2481985,8060,1668680398,247850176,,0.0,0.0,0.0,0.0,0.0,0.0
1668680398.255728,8061,1668680398,255552079,,0.0,0.0,0.0,0.0,0.0,0.0
1668680398.263581,8062,1668680398,263382314,,0.0,0.0,0.0,0.0,0.0,0.0
1668680398.2716188,8063,1668680398,271469529,,0.0,0.0,0.0,0.0,0.0,0.0
1668680398.2800853,8064,1668680398,279759815,,0.0,0.0,0.0,0.0,0.0,0.0
1668680398.2877703,8065,1668680398,287535691,,0.0,0.0,0.0,0.0,0.0,0.0
1668680398.2959077,8066,1668680398,295660875,,0.0,0.0,0.0,0.0,0.0,0.0
1668680398.3039794,8067,1668680398,303689285,,0.0,0.0,0.0,0.0,0.0,0.0
1668680398.312171,8068,1668680398,311934908,,0.0,0.0,0.0,0.0,0.0,0.0
1668680398.3197155,8069,1668680398,319471249,,0.0,0.0,0.0,0.0,0.0,0.0
1668680398.3277595,8070,1668680398,327545834,,0.0,0.0,0.0,0.0,0.0,0.0
1668680398.3358967,8071,1668680398,335644112,,0.0,0.0,0.0,0.0,0.0,0.0
1668680398.344794,8072,1668680398,344405516,,0.0,0.0,0.0,0.0,0.0,0.0
1668680398.3527045,8073,1668680398,352375365,,0.0,0.0,0.0,0.0,0.0,0.0
1668680398.3602445,8074,1668680398,360024006,,0.0,0.0,0.0,0.0,0.0,0.0
1668680398.3690727,8075,1668680398,368703157,,0.0,0.0,0.0,0.0,0.0,0.0
1668680398.3760986,8076,1668680398,375806706,,0.0,0.0,0.0,0.0,0.0,0.0
1668680398.3836594,8077,1668680398,383426917,,0.0,0.0,0.0,0.0,0.0,0.0
1668680398.3918762,8078,1668680398,391627179,,0.0,0.0,0.0,0.0,0.0,0.0
1668680398.3997836,8079,1668680398,399605767,,0.0,0.0,0.0,0.0,0.0,0.0
1668680398.40894,8080,1668680398,408515452,,0.0,0.0,0.0,0.0,0.0,0.0
1668680398.4155247,8081,1668680398,415272498,,0.0,0.0,0.0,0.0,0.0,0.0
1668680398.4238553,8082,1668680398,423604803,,0.0,0.0,0.0,0.0,0.0,0.0
1668680398.4318504,8083,1668680398,431603240,,0.0,0.0,0.0,0.0,0.0,0.0
1668680398.4409795,8084,1668680398,440557072,,0.0,0.0,0.0,0.0,0.0,0.0
1668680398.4486804,8085,1668680398,448081032,,0.0,0.0,0.0,0.0,0.0,0.0
1668680398.4578822,8086,1668680398,457470026,,0.0,0.0,0.0,0.0,0.0,0.0
1668680398.4647512,8087,1668680398,464428791,,0.0,0.0,0.0,0.0,0.0,0.0
1668680398.4735625,8088,1668680398,473067690,,0.0,0.0,0.0,0.0,0.0,0.0
1668680398.480285,8089,1668680398,480062073,,0.0,0.0,0.0,0.0,0.0,0.0
1668680398.4876695,8090,1668680398,487472477,,0.0,0.0,0.0,0.0,0.0,0.0
1668680398.4955022,8091,1668680398,495261932,,0.0,0.0,0.0,0.0,0.0,0.0
1668680398.5041573,8092,1668680398,503889361,,0.0,0.0,0.0,0.0,0.0,0.0
1668680398.5117218,8093,1668680398,511552850,,0.0,0.0,0.0,0.0,0.0,0.0
1668680398.519784,8094,1668680398,519575949,,0.0,0.0,0.0,0.0,0.0,0.0
1668680398.5277374,8095,1668680398,527551077,,0.0,0.0,0.0,0.0,0.0,0.0
1668680398.5371284,8096,1668680398,536557037,,0.0,0.0,0.0,0.0,0.0,0.0
1668680398.5436842,8097,1668680398,543396342,,0.0,0.0,0.0,0.0,0.0,0.0
1668680398.5518112,8098,1668680398,551572146,,0.0,0.0,0.0,0.0,0.0,0.0
1668680398.5598838,8099,1668680398,559654997,,0.0,0.0,0.0,0.0,0.0,0.0
1668680398.568865,8100,1668680398,568515879,,0.0,0.0,0.0,0.0,0.0,0.0
1668680398.5763006,8101,1668680398,576019058,,0.0,0.0,0.0,0.0,0.0,0.0
1668680398.584522,8102,1668680398,584286226,,0.0,0.0,0.0,0.0,0.0,0.0
1668680398.59181,8103,1668680398,591486944,,0.0,0.0,0.0,0.0,0.0,0.0
1668680398.600391,8104,1668680398,600025150,,0.0,0.0,0.0,0.0,0.0,0.0
1668680398.6093755,8105,1668680398,609061138,,0.0,0.0,0.0,0.0,0.0,0.0
1668680398.6159198,8106,1668680398,615581181,,0.0,0.0,0.0,0.0,0.0,0.0
1668680398.62354,8107,1668680398,623323815,,0.0,0.0,0.0,0.0,0.0,0.0
1668680398.632094,8108,1668680398,631775149,,0.0,0.0,0.0,0.0,0.0,0.0
1668680398.6398003,8109,1668680398,639553850,,0.0,0.0,0.0,0.0,0.0,0.0
1668680398.6478863,8110,1668680398,647634351,,0.0,0.0,0.0,0.0,0.0,0.0
1668680398.655575,8111,1668680398,655322780,,0.0,0.0,0.0,0.0,0.0,0.0
1668680398.6641889,8112,1668680398,663812405,,0.0,0.0,0.0,0.0,0.0,0.0
1668680398.6719024,8113,1668680398,671693940,,0.0,0.0,0.0,0.0,0.0,0.0
1668680398.6796756,8114,1668680398,679476589,,0.0,0.0,0.0,0.0,0.0,0.0
1668680398.6876028,8115,1668680398,687424020,,0.0,0.0,0.0,0.0,0.0,0.0
1668680398.6960495,8116,1668680398,695624376,,0.0,0.0,0.0,0.0,0.0,0.0
1668680398.703691,8117,1668680398,703506253,,0.0,0.0,0.0,0.0,0.0,0.0
1668680398.711921,8118,1668680398,711685942,,0.0,0.0,0.0,0.0,0.0,0.0
1668680398.720068,8119,1668680398,719801183,,0.0,0.0,0.0,0.0,0.0,0.0
1668680398.7284696,8120,1668680398,728165560,,0.0,0.0,0.0,0.0,0.0,0.0
1668680398.7355418,8121,1668680398,735301699,,0.0,0.0,0.0,0.0,0.0,0.0
1668680398.7446754,8122,1668680398,743901194,,0.0,0.0,0.0,0.0,0.0,0.0
1668680398.7529967,8123,1668680398,752750981,,0.0,0.0,0.0,0.0,0.0,0.0
1668680398.7602997,8124,1668680398,759957494,,0.0,0.0,0.0,0.0,0.0,0.0
1668680398.7678516,8125,1668680398,767611360,,0.0,0.0,0.0,0.0,0.0,0.0
1668680398.775437,8126,1668680398,775236960,,0.0,0.0,0.0,0.0,0.0,0.0
1668680398.783967,8127,1668680398,783599387,,0.0,0.0,0.0,0.0,0.0,0.0
1668680398.792444,8128,1668680398,792157767,,0.0,0.0,0.0,0.0,0.0,0.0
1668680398.7999003,8129,1668680398,799656563,,0.0,0.0,0.0,0.0,0.0,0.0
1668680398.8078291,8130,1668680398,807598916,,0.0,0.0,0.0,0.0,0.0,0.0
1668680398.8155797,8131,1668680398,815389005,,0.0,0.0,0.0,0.0,0.0,0.0
1668680398.8242412,8132,1668680398,823866808,,0.0,0.0,0.0,0.0,0.0,0.0
1668680398.8318412,8133,1668680398,831638390,,0.0,0.0,0.0,0.0,0.0,0.0
1668680398.8405378,8134,1668680398,840195438,,0.0,0.0,0.0,0.0,0.0,0.0
1668680398.8477137,8135,1668680398,847528111,,0.0,0.0,0.0,0.0,0.0,0.0
1668680398.8561957,8136,1668680398,855838287,,0.0,0.0,0.0,0.0,0.0,0.0
1668680398.8635442,8137,1668680398,863309141,,0.0,0.0,0.0,0.0,0.0,0.0
1668680398.8718872,8138,1668680398,871629657,,0.0,0.0,0.0,0.0,0.0,0.0
1668680398.8797286,8139,1668680398,879521703,,0.0,0.0,0.0,0.0,0.0,0.0
1668680398.8897865,8140,1668680398,888339311,,0.0,0.0,0.0,0.0,0.0,0.0
1668680398.8964512,8141,1668680398,896067794,,0.0,0.0,0.0,0.0,0.0,0.0
1668680398.903835,8142,1668680398,903548900,,0.0,0.0,0.0,0.0,0.0,0.0
1668680398.9118328,8143,1668680398,911546865,,0.0,0.0,0.0,0.0,0.0,0.0
1668680398.9202325,8144,1668680398,919824053,,0.0,0.0,0.0,0.0,0.0,0.0
1668680398.9277437,8145,1668680398,927544970,,0.0,0.0,0.0,0.0,0.0,0.0
1668680398.936093,8146,1668680398,935863346,,0.0,0.0,0.0,0.0,0.0,0.0
1668680398.9435873,8147,1668680398,943393607,,0.0,0.0,0.0,0.0,0.0,0.0
1668680398.952092,8148,1668680398,951721279,,0.0,0.0,0.0,0.0,0.0,0.0
1668680398.9599128,8149,1668680398,959714480,,0.0,0.0,0.0,0.0,0.0,0.0
1668680398.9677417,8150,1668680398,967552389,,0.0,0.0,0.0,0.0,0.0,0.0
1668680398.9757257,8151,1668680398,975536909,,0.0,0.0,0.0,0.0,0.0,0.0
1668680398.984277,8152,1668680398,983949113,,0.0,0.0,0.0,0.0,0.0,0.0
1668680398.9918993,8153,1668680398,991675011,,0.0,0.0,0.0,0.0,0.0,0.0
1668680398.9997153,8154,1668680398,999471380,,0.0,0.0,0.0,0.0,0.0,0.0
1668680399.0080655,8155,1668680399,7767582,,0.0,0.0,0.0,0.0,0.0,0.0
1668680399.0168772,8156,1668680399,15698041,,0.0,0.0,0.0,0.0,0.0,0.0
1668680399.024068,8157,1668680399,23745118,,0.0,0.0,0.0,0.0,0.0,0.0
1668680399.0342405,8158,1668680399,33407474,,0.0,0.0,0.0,0.0,0.0,0.0
1668680399.0398147,8159,1668680399,39609277,,0.0,0.0,0.0,0.0,0.0,0.0
1668680399.0495226,8160,1668680399,48709382,,0.0,0.0,0.0,0.0,0.0,0.0
1668680399.0566337,8161,1668680399,56285416,,0.0,0.0,0.0,0.0,0.0,0.0
1668680399.0634701,8162,1668680399,63270536,,0.0,0.0,0.0,0.0,0.0,0.0
1668680399.0716414,8163,1668680399,71448372,,0.0,0.0,0.0,0.0,0.0,0.0
1668680399.0809612,8164,1668680399,80555928,,0.0,0.0,0.0,0.0,0.0,0.0
1668680399.0878873,8165,1668680399,87666910,,0.0,0.0,0.0,0.0,0.0,0.0
1668680399.0954797,8166,1668680399,95284587,,0.0,0.0,0.0,0.0,0.0,0.0
1668680399.1039028,8167,1668680399,103636502,,0.0,0.0,0.0,0.0,0.0,0.0
1668680399.1122854,8168,1668680399,111948900,,0.0,0.0,0.0,0.0,0.0,0.0
1668680399.1196716,8169,1668680399,119477049,,0.0,0.0,0.0,0.0,0.0,0.0
1668680399.127756,8170,1668680399,127549923,,0.0,0.0,0.0,0.0,0.0,0.0
1668680399.135451,8171,1668680399,135250247,,0.0,0.0,0.0,0.0,0.0,0.0
1668680399.1446507,8172,1668680399,143874708,,0.0,0.0,0.0,0.0,0.0,0.0
1668680399.1519299,8173,1668680399,151689390,,0.0,0.0,0.0,0.0,0.0,0.0
1668680399.1598141,8174,1668680399,159564316,,0.0,0.0,0.0,0.0,0.0,0.0
1668680399.1677663,8175,1668680399,167557398,,0.0,0.0,0.0,0.0,0.0,0.0
1668680399.1765685,8176,1668680399,176196060,,0.0,0.0,0.0,0.0,0.0,0.0
1668680399.184095,8177,1668680399,183702431,,0.0,0.0,0.0,0.0,0.0,0.0
1668680399.191809,8178,1668680399,191572673,,0.0,0.0,0.0,0.0,0.0,0.0
1668680399.199748,8179,1668680399,199533477,,0.0,0.0,0.0,0.0,0.0,0.0
1668680399.2081249,8180,1668680399,207789682,,0.0,0.0,0.0,0.0,0.0,0.0
1668680399.2155786,8181,1668680399,215355128,,0.0,0.0,0.0,0.0,0.0,0.0
1668680399.2236445,8182,1668680399,223432737,,0.0,0.0,0.0,0.0,0.0,0.0
1668680399.231813,8183,1668680399,231624892,,0.0,0.0,0.0,0.0,0.0,0.0
1668680399.2405474,8184,1668680399,240011754,,0.0,0.0,0.0,0.0,0.0,0.0
1668680399.247838,8185,1668680399,247633200,,0.0,0.0,0.0,0.0,0.0,0.0
1668680399.255967,8186,1668680399,255683115,,0.0,0.0,0.0,0.0,0.0,0.0
1668680399.2635772,8187,1668680399,263329596,,0.0,0.0,0.0,0.0,0.0,0.0
1668680399.2728977,8188,1668680399,272513268,,0.0,0.0,0.0,0.0,0.0,0.0
1668680399.2807574,8189,1668680399,280517505,,0.0,0.0,0.0,0.0,0.0,0.0
1668680399.2885537,8190,1668680399,288335224,,0.0,0.0,0.0,0.0,0.0,0.0
1668680399.296572,8191,1668680399,296321984,,0.0,0.0,0.0,0.0,0.0,0.0
1668680399.3042443,8192,1668680399,303887387,,0.0,0.0,0.0,0.0,0.0,0.0
1668680399.3128963,8193,1668680399,312476430,,0.0,0.0,0.0,0.0,0.0,0.0
1668680399.320519,8194,1668680399,320200761,,0.0,0.0,0.0,0.0,0.0,0.0
1668680399.3279796,8195,1668680399,327640675,,0.0,0.0,0.0,0.0,0.0,0.0
1668680399.3361797,8196,1668680399,335801893,,0.0,0.0,0.0,0.0,0.0,0.0
1668680399.3435671,8197,1668680399,343347361,,0.0,0.0,0.0,0.0,0.0,0.0
1668680399.3517632,8198,1668680399,351524478,,0.0,0.0,0.0,0.0,0.0,0.0
1668680399.359716,8199,1668680399,359493740,,0.0,0.0,0.0,0.0,0.0,0.0
1668680399.3696003,8200,1668680399,368494784,,0.0,0.0,0.0,0.0,0.0,0.0
1668680399.3758562,8201,1668680399,375627045,,0.0,0.0,0.0,0.0,0.0,0.0
1668680399.383817,8202,1668680399,383533780,,0.0,0.0,0.0,0.0,0.0,0.0
1668680399.3923934,8203,1668680399,392158728,,0.0,0.0,0.0,0.0,0.0,0.0
1668680399.400856,8204,1668680399,400416775,,0.0,0.0,0.0,0.0,0.0,0.0
1668680399.4087248,8205,1668680399,408369499,,0.0,0.0,0.0,0.0,0.0,0.0
1668680399.4156697,8206,1668680399,415431796,,0.0,0.0,0.0,0.0,0.0,0.0
1668680399.4239283,8207,1668680399,423727601,,0.0,0.0,0.0,0.0,0.0,0.0
1668680399.4323342,8208,1668680399,431855307,,0.0,0.0,0.0,0.0,0.0,0.0
1668680399.4399858,8209,1668680399,439812456,,0.0,0.0,0.0,0.0,0.0,0.0
1668680399.447764,8210,1668680399,447548218,,0.0,0.0,0.0,0.0,0.0,0.0
1668680399.4559207,8211,1668680399,455664829,,0.0,0.0,0.0,0.0,0.0,0.0
1668680399.4643085,8212,1668680399,463879608,,0.0,0.0,0.0,0.0,0.0,0.0
1668680399.4720113,8213,1668680399,471708774,,0.0,0.0,0.0,0.0,0.0,0.0
1668680399.479993,8214,1668680399,479794852,,0.0,0.0,0.0,0.0,0.0,0.0
1668680399.4877172,8215,1668680399,487531158,,0.0,0.0,0.0,0.0,0.0,0.0
1668680399.496567,8216,1668680399,495855645,,0.0,0.0,0.0,0.0,0.0,0.0
1668680399.5046742,8217,1668680399,504435858,,0.0,0.0,0.0,0.0,0.0,0.0
1668680399.5121064,8218,1668680399,511820811,,0.0,0.0,0.0,0.0,0.0,0.0
1668680399.5196834,8219,1668680399,519466344,,0.0,0.0,0.0,0.0,0.0,0.0
1668680399.5281854,8220,1668680399,527898148,,0.0,0.0,0.0,0.0,0.0,0.0
1668680399.535534,8221,1668680399,535323986,,0.0,0.0,0.0,0.0,0.0,0.0
1668680399.5438948,8222,1668680399,543661474,,0.0,0.0,0.0,0.0,0.0,0.0
1668680399.5517175,8223,1668680399,551476358,,0.0,0.0,0.0,0.0,0.0,0.0
1668680399.560303,8224,1668680399,559957745,,0.0,0.0,0.0,0.0,0.0,0.0
1668680399.5677826,8225,1668680399,567557899,,0.0,0.0,0.0,0.0,0.0,0.0
1668680399.575528,8226,1668680399,575330002,,0.0,0.0,0.0,0.0,0.0,0.0
1668680399.5846918,8227,1668680399,584313181,,0.0,0.0,0.0,0.0,0.0,0.0
1668680399.593377,8228,1668680399,591780382,,0.0,0.0,0.0,0.0,0.0,0.0
1668680399.5997646,8229,1668680399,599578470,,0.0,0.0,0.0,0.0,0.0,0.0
1668680399.6078072,8230,1668680399,607607247,,0.0,0.0,0.0,0.0,0.0,0.0
1668680399.6156158,8231,1668680399,615347782,,0.0,0.0,0.0,0.0,0.0,0.0
1668680399.624072,8232,1668680399,623831504,,0.0,0.0,0.0,0.0,0.0,0.0
1668680399.6325548,8233,1668680399,632240191,,0.0,0.0,0.0,0.0,0.0,0.0
1668680399.6399238,8234,1668680399,639684412,,0.0,0.0,0.0,0.0,0.0,0.0
1668680399.6478326,8235,1668680399,647598740,,0.0,0.0,0.0,0.0,0.0,0.0
1668680399.6559916,8236,1668680399,655678694,,0.0,0.0,0.0,0.0,0.0,0.0
1668680399.6638038,8237,1668680399,663529613,,0.0,0.0,0.0,0.0,0.0,0.0
1668680399.6717825,8238,1668680399,671597875,,0.0,0.0,0.0,0.0,0.0,0.0
1668680399.679776,8239,1668680399,679588693,,0.0,0.0,0.0,0.0,0.0,0.0
1668680399.6880744,8240,1668680399,687768967,,0.0,0.0,0.0,0.0,0.0,0.0
1668680399.6957374,8241,1668680399,695510566,,0.0,0.0,0.0,0.0,0.0,0.0
1668680399.7035105,8242,1668680399,703284520,,0.0,0.0,0.0,0.0,0.0,0.0
1668680399.7117794,8243,1668680399,711549386,,0.0,0.0,0.0,0.0,0.0,0.0
1668680399.7202017,8244,1668680399,719899229,,0.0,0.0,0.0,0.0,0.0,0.0
1668680399.7279434,8245,1668680399,727741103,,0.0,0.0,0.0,0.0,0.0,0.0
1668680399.7357519,8246,1668680399,735554389,,0.0,0.0,0.0,0.0,0.0,0.0
1668680399.7435696,8247,1668680399,743337017,,0.0,0.0,0.0,0.0,0.0,0.0
1668680399.7524993,8248,1668680399,752204977,,0.0,0.0,0.0,0.0,0.0,0.0
1668680399.7601783,8249,1668680399,759589215,,0.0,0.0,0.0,0.0,0.0,0.0
1668680399.7682698,8250,1668680399,767986762,,0.0,0.0,0.0,0.0,0.0,0.0
1668680399.7758644,8251,1668680399,775644195,,0.0,0.0,0.0,0.0,0.0,0.0
1668680399.7837238,8252,1668680399,783436064,,0.0,0.0,0.0,0.0,0.0,0.0
1668680399.79171,8253,1668680399,791523808,,0.0,0.0,0.0,0.0,0.0,0.0
1668680399.799741,8254,1668680399,799514960,,0.0,0.0,0.0,0.0,0.0,0.0
1668680399.8079214,8255,1668680399,807650317,,0.0,0.0,0.0,0.0,0.0,0.0
1668680399.8165514,8256,1668680399,815437028,,0.0,0.0,0.0,0.0,0.0,0.0
1668680399.8238688,8257,1668680399,823631885,,0.0,0.0,0.0,0.0,0.0,0.0
1668680399.83195,8258,1668680399,831645539,,0.0,0.0,0.0,0.0,0.0,0.0
1668680399.839665,8259,1668680399,839471190,,0.0,0.0,0.0,0.0,0.0,0.0
1668680399.8482292,8260,1668680399,847930136,,0.0,0.0,0.0,0.0,0.0,0.0
1668680399.8555887,8261,1668680399,855334065,,0.0,0.0,0.0,0.0,0.0,0.0
1668680399.863811,8262,1668680399,863599036,,0.0,0.0,0.0,0.0,0.0,0.0
1668680399.8718464,8263,1668680399,871623349,,0.0,0.0,0.0,0.0,0.0,0.0
1668680399.8802946,8264,1668680399,879984787,,0.0,0.0,0.0,0.0,0.0,0.0
1668680399.8877263,8265,1668680399,887544726,,0.0,0.0,0.0,0.0,0.0,0.0
1668680399.895825,8266,1668680399,895526478,,0.0,0.0,0.0,0.0,0.0,0.0
1668680399.9044342,8267,1668680399,903967035,,0.0,0.0,0.0,0.0,0.0,0.0
1668680399.9124553,8268,1668680399,912058236,,0.0,0.0,0.0,0.0,0.0,0.0
1668680399.9224825,8269,1668680399,919740435,,0.0,0.0,0.0,0.0,0.0,0.0
1668680399.9278696,8270,1668680399,927641377,,0.0,0.0,0.0,0.0,0.0,0.0
1668680399.9356856,8271,1668680399,935486972,,0.0,0.0,0.0,0.0,0.0,0.0
1668680399.944077,8272,1668680399,943642535,,0.0,0.0,0.0,0.0,0.0,0.0
1668680399.9518716,8273,1668680399,951563800,,0.0,0.0,0.0,0.0,0.0,0.0
1668680399.9600418,8274,1668680399,959818781,,0.0,0.0,0.0,0.0,0.0,0.0
1668680399.9680834,8275,1668680399,967725091,,0.0,0.0,0.0,0.0,0.0,0.0
1668680399.9774094,8276,1668680399,976449850,,0.0,0.0,0.0,0.0,0.0,0.0
1668680399.9838662,8277,1668680399,983452761,,0.0,0.0,0.0,0.0,0.0,0.0
1668680399.9918165,8278,1668680399,991538536,,0.0,0.0,0.0,0.0,0.0,0.0
1668680399.9996603,8279,1668680399,999437520,,0.0,0.0,0.0,0.0,0.0,0.0
1668680400.008184,8280,1668680400,7915219,,0.0,0.0,0.0,0.0,0.0,0.0
1668680400.0165377,8281,1668680400,16312633,,0.0,0.0,0.0,0.0,0.0,0.0
1668680400.0234966,8282,1668680400,23277153,,0.0,0.0,0.0,0.0,0.0,0.0
1668680400.031905,8283,1668680400,31705253,,0.0,0.0,0.0,0.0,0.0,0.0
1668680400.0403807,8284,1668680400,40032040,,0.0,0.0,0.0,0.0,0.0,0.0
1668680400.0479393,8285,1668680400,47716189,,0.0,0.0,0.0,0.0,0.0,0.0
1668680400.056129,8286,1668680400,55881120,,0.0,0.0,0.0,0.0,0.0,0.0
1668680400.064632,8287,1668680400,64313437,,0.0,0.0,0.0,0.0,0.0,0.0
1668680400.0721562,8288,1668680400,71837009,,0.0,0.0,0.0,0.0,0.0,0.0
1668680400.0799506,8289,1668680400,79703763,,0.0,0.0,0.0,0.0,0.0,0.0
1668680400.0880206,8290,1668680400,87812453,,0.0,0.0,0.0,0.0,0.0,0.0
1668680400.0955188,8291,1668680400,95255447,,0.0,0.0,0.0,0.0,0.0,0.0
1668680400.1040723,8292,1668680400,103786295,,0.0,0.0,0.0,0.0,0.0,0.0
1668680400.111999,8293,1668680400,111784599,,0.0,0.0,0.0,0.0,0.0,0.0
1668680400.1197891,8294,1668680400,119551625,,0.0,0.0,0.0,0.0,0.0,0.0
1668680400.1278644,8295,1668680400,127624398,,0.0,0.0,0.0,0.0,0.0,0.0
1668680400.1362784,8296,1668680400,135935353,,0.0,0.0,0.0,0.0,0.0,0.0
1668680400.1446326,8297,1668680400,144390218,,0.0,0.0,0.0,0.0,0.0,0.0
1668680400.1523418,8298,1668680400,152086691,,0.0,0.0,0.0,0.0,0.0,0.0
1668680400.1603632,8299,1668680400,160149425,,0.0,0.0,0.0,0.0,0.0,0.0
1668680400.1689074,8300,1668680400,168449447,,0.0,0.0,0.0,0.0,0.0,0.0
1668680400.1758902,8301,1668680400,175632424,,0.0,0.0,0.0,0.0,0.0,0.0
1668680400.183582,8302,1668680400,183387322,,0.0,0.0,0.0,0.0,0.0,0.0
1668680400.191855,8303,1668680400,191611410,,0.0,0.0,0.0,0.0,0.0,0.0
1668680400.2003615,8304,1668680400,199826233,,0.0,0.0,0.0,0.0,0.0,0.0
1668680400.2081544,8305,1668680400,207893533,,0.0,0.0,0.0,0.0,0.0,0.0
1668680400.2200086,8306,1668680400,219076867,,0.0,0.0,0.0,0.0,0.0,0.0
1668680400.2267416,8307,1668680400,225892486,,0.0,0.0,0.0,0.0,0.0,0.0
1668680400.2376394,8308,1668680400,236441876,,0.0,0.0,0.0,0.0,0.0,0.0
1668680400.2433922,8309,1668680400,243031234,,0.0,0.0,0.0,0.0,0.0,0.0
1668680400.2489545,8310,1668680400,248587350,,0.0,0.0,0.0,0.0,0.0,0.0
1668680400.2558718,8311,1668680400,255597161,,0.0,0.0,0.0,0.0,0.0,0.0
1668680400.2641416,8312,1668680400,263826029,,0.0,0.0,0.0,0.0,0.0,0.0
1668680400.271782,8313,1668680400,271564324,,0.0,0.0,0.0,0.0,0.0,0.0
1668680400.2798088,8314,1668680400,279558774,,0.0,0.0,0.0,0.0,0.0,0.0
1668680400.287813,8315,1668680400,287565878,,0.0,0.0,0.0,0.0,0.0,0.0
1668680400.2958322,8316,1668680400,295566558,,0.0,0.0,0.0,0.0,0.0,0.0
1668680400.3040059,8317,1668680400,303709742,,0.0,0.0,0.0,0.0,0.0,0.0
1668680400.311839,8318,1668680400,311607158,,0.0,0.0,0.0,0.0,0.0,0.0
1668680400.31965,8319,1668680400,319451338,,0.0,0.0,0.0,0.0,0.0,0.0
1668680400.3283887,8320,1668680400,328085388,,0.0,0.0,0.0,0.0,0.0,0.0
1668680400.3355098,8321,1668680400,335241537,,0.0,0.0,0.0,0.0,0.0,0.0
1668680400.3437366,8322,1668680400,343481568,,0.0,0.0,0.0,0.0,0.0,0.0
1668680400.3518333,8323,1668680400,351605914,,0.0,0.0,0.0,0.0,0.0,0.0
1668680400.360143,8324,1668680400,359806000,,0.0,0.0,0.0,0.0,0.0,0.0
1668680400.3678412,8325,1668680400,367635367,,0.0,0.0,0.0,0.0,0.0,0.0
1668680400.3755605,8326,1668680400,375286444,,0.0,0.0,0.0,0.0,0.0,0.0
1668680400.3840795,8327,1668680400,383741849,,0.0,0.0,0.0,0.0,0.0,0.0
1668680400.3921592,8328,1668680400,391887855,,0.0,0.0,0.0,0.0,0.0,0.0
1668680400.4017935,8329,1668680400,399562022,,0.0,0.0,0.0,0.0,0.0,0.0
1668680400.4076934,8330,1668680400,407486899,,0.0,0.0,0.0,0.0,0.0,0.0
1668680400.4157333,8331,1668680400,415495993,,0.0,0.0,0.0,0.0,0.0,0.0
1668680400.4242868,8332,1668680400,423619991,,0.0,0.0,0.0,0.0,0.0,0.0
1668680400.4316452,8333,1668680400,431433033,,0.0,0.0,0.0,0.0,0.0,0.0
1668680400.4399645,8334,1668680400,439734207,,0.0,0.0,0.0,0.0,0.0,0.0
1668680400.4476588,8335,1668680400,447425680,,0.0,0.0,0.0,0.0,0.0,0.0
1668680400.4558113,8336,1668680400,455457844,,0.0,0.0,0.0,0.0,0.0,0.0
1668680400.4637437,8337,1668680400,463515501,,0.0,0.0,0.0,0.0,0.0,0.0
1668680400.471722,8338,1668680400,471499321,,0.0,0.0,0.0,0.0,0.0,0.0
1668680400.4796233,8339,1668680400,479447010,,0.0,0.0,0.0,0.0,0.0,0.0
1668680400.4885533,8340,1668680400,488260177,,0.0,0.0,0.0,0.0,0.0,0.0
1668680400.4954665,8341,1668680400,495264730,,0.0,0.0,0.0,0.0,0.0,0.0
1668680400.5038855,8342,1668680400,503620514,,0.0,0.0,0.0,0.0,0.0,0.0
1668680400.5117521,8343,1668680400,511545424,,0.0,0.0,0.0,0.0,0.0,0.0
1668680400.5203092,8344,1668680400,519847367,,0.0,0.0,0.0,0.0,0.0,0.0
1668680400.5281148,8345,1668680400,527775415,,0.0,0.0,0.0,0.0,0.0,0.0
1668680400.5355866,8346,1668680400,535334596,,0.0,0.0,0.0,0.0,0.0,0.0
1668680400.5442765,8347,1668680400,544048587,,0.0,0.0,0.0,0.0,0.0,0.0
1668680400.5543535,8348,1668680400,551885828,,0.0,0.0,0.0,0.0,0.0,0.0
1668680400.5596948,8349,1668680400,559475714,,0.0,0.0,0.0,0.0,0.0,0.0
1668680400.5686183,8350,1668680400,568368896,,0.0,0.0,0.0,0.0,0.0,0.0
1668680400.5765615,8351,1668680400,576376467,,0.0,0.0,0.0,0.0,0.0,0.0
1668680400.5835679,8352,1668680400,583351236,,0.0,0.0,0.0,0.0,0.0,0.0
1668680400.5919328,8353,1668680400,591647575,,0.0,0.0,0.0,0.0,0.0,0.0
1668680400.6004417,8354,1668680400,600147788,,0.0,0.0,0.0,0.0,0.0,0.0
1668680400.6079276,8355,1668680400,607708088,,0.0,0.0,0.0,0.0,0.0,0.0
1668680400.6162643,8356,1668680400,615974956,,0.0,0.0,0.0,0.0,0.0,0.0
1668680400.6235285,8357,1668680400,623285689,,0.0,0.0,0.0,0.0,0.0,0.0
1668680400.6318297,8358,1668680400,631529748,,0.0,0.0,0.0,0.0,0.0,0.0
1668680400.639803,8359,1668680400,639579887,,0.0,0.0,0.0,0.0,0.0,0.0
1668680400.6485462,8360,1668680400,648171229,,0.0,0.0,0.0,0.0,0.0,0.0
1668680400.6559472,8361,1668680400,655677729,,0.0,0.0,0.0,0.0,0.0,0.0
1668680400.6635926,8362,1668680400,663377966,,0.0,0.0,0.0,0.0,0.0,0.0
1668680400.6716735,8363,1668680400,671509762,,0.0,0.0,0.0,0.0,0.0,0.0
1668680400.6811624,8364,1668680400,680583169,,0.0,0.0,0.0,0.0,0.0,0.0
1668680400.688557,8365,1668680400,688122577,,0.0,0.0,0.0,0.0,0.0,0.0
1668680400.6954606,8366,1668680400,695250629,,0.0,0.0,0.0,0.0,0.0,0.0
1668680400.7037346,8367,1668680400,703524332,,0.0,0.0,0.0,0.0,0.0,0.0
1668680400.7122102,8368,1668680400,711906374,,0.0,0.0,0.0,0.0,0.0,0.0
1668680400.7198303,8369,1668680400,719572475,,0.0,0.0,0.0,0.0,0.0,0.0
1668680400.7277253,8370,1668680400,727561097,,0.0,0.0,0.0,0.0,0.0,0.0
1668680400.735784,8371,1668680400,735577044,,0.0,0.0,0.0,0.0,0.0,0.0
1668680400.7442143,8372,1668680400,743895709,,0.0,0.0,0.0,0.0,0.0,0.0
1668680400.7516387,8373,1668680400,751434776,,0.0,0.0,0.0,0.0,0.0,0.0
1668680400.760061,8374,1668680400,759817384,,0.0,0.0,0.0,0.0,0.0,0.0
1668680400.7676585,8375,1668680400,767457744,,0.0,0.0,0.0,0.0,0.0,0.0
1668680400.7757351,8376,1668680400,775497376,,0.0,0.0,0.0,0.0,0.0,0.0
1668680400.7840867,8377,1668680400,783824464,,0.0,0.0,0.0,0.0,0.0,0.0
1668680400.7918746,8378,1668680400,791582666,,0.0,0.0,0.0,0.0,0.0,0.0
1668680400.799652,8379,1668680400,799463601,,0.0,0.0,0.0,0.0,0.0,0.0
1668680400.8090658,8380,1668680400,808668827,,0.0,0.0,0.0,0.0,0.0,0.0
1668680400.8161738,8381,1668680400,815696173,,0.0,0.0,0.0,0.0,0.0,0.0
1668680400.8238213,8382,1668680400,823502081,,0.0,0.0,0.0,0.0,0.0,0.0
1668680400.8322403,8383,1668680400,831949198,,0.0,0.0,0.0,0.0,0.0,0.0
1668680400.8401036,8384,1668680400,839869135,,0.0,0.0,0.0,0.0,0.0,0.0
1668680400.8478665,8385,1668680400,847624414,,0.0,0.0,0.0,0.0,0.0,0.0
1668680400.8557138,8386,1668680400,855372307,,0.0,0.0,0.0,0.0,0.0,0.0
1668680400.863758,8387,1668680400,863592840,,0.0,0.0,0.0,0.0,0.0,0.0
1668680400.8723593,8388,1668680400,871836883,,0.0,0.0,0.0,0.0,0.0,0.0
1668680400.879777,8389,1668680400,879563366,,0.0,0.0,0.0,0.0,0.0,0.0
1668680400.887832,8390,1668680400,887611629,,0.0,0.0,0.0,0.0,0.0,0.0
1668680400.8957753,8391,1668680400,895516915,,0.0,0.0,0.0,0.0,0.0,0.0
1668680400.9050343,8392,1668680400,903502332,,0.0,0.0,0.0,0.0,0.0,0.0
1668680400.9118948,8393,1668680400,911680975,,0.0,0.0,0.0,0.0,0.0,0.0
1668680400.9198143,8394,1668680400,919605449,,0.0,0.0,0.0,0.0,0.0,0.0
1668680400.927869,8395,1668680400,927667682,,0.0,0.0,0.0,0.0,0.0,0.0
1668680400.9358943,8396,1668680400,935534687,,0.0,0.0,0.0,0.0,0.0,0.0
1668680400.94371,8397,1668680400,943504894,,0.0,0.0,0.0,0.0,0.0,0.0
1668680400.9520009,8398,1668680400,951764292,,0.0,0.0,0.0,0.0,0.0,0.0
1668680400.9598687,8399,1668680400,959646157,,0.0,0.0,0.0,0.0,0.0,0.0
1668680400.9688463,8400,1668680400,968557094,,0.0,0.0,0.0,0.0,0.0,0.0
1668680400.9755392,8401,1668680400,975354345,,0.0,0.0,0.0,0.0,0.0,0.0
1668680400.9837608,8402,1668680400,983548692,,0.0,0.0,0.0,0.0,0.0,0.0
1668680400.9917324,8403,1668680400,991500374,,0.0,0.0,0.0,0.0,0.0,0.0
1668680401.0004926,8404,1668680401,132212,,0.0,0.0,0.0,0.0,0.0,0.0
1668680401.0077894,8405,1668680401,7582340,,0.0,0.0,0.0,0.0,0.0,0.0
1668680401.015506,8406,1668680401,15290520,,0.0,0.0,0.0,0.0,0.0,0.0
1668680401.023829,8407,1668680401,23582387,,0.0,0.0,0.0,0.0,0.0,0.0
1668680401.0322099,8408,1668680401,31848138,,0.0,0.0,0.0,0.0,0.0,0.0
1668680401.0398698,8409,1668680401,39642274,,0.0,0.0,0.0,0.0,0.0,0.0
1668680401.0479968,8410,1668680401,47799703,,0.0,0.0,0.0,0.0,0.0,0.0
1668680401.055452,8411,1668680401,55181899,,0.0,0.0,0.0,0.0,0.0,0.0
1668680401.0640743,8412,1668680401,63756339,,0.0,0.0,0.0,0.0,0.0,0.0
1668680401.0718055,8413,1668680401,71600505,,0.0,0.0,0.0,0.0,0.0,0.0
1668680401.079732,8414,1668680401,79503677,,0.0,0.0,0.0,0.0,0.0,0.0
1668680401.087627,8415,1668680401,87394140,,0.0,0.0,0.0,0.0,0.0,0.0
1668680401.0962224,8416,1668680401,95939633,,0.0,0.0,0.0,0.0,0.0,0.0
1668680401.1055174,8417,1668680401,105030513,,0.0,0.0,0.0,0.0,0.0,0.0
1668680401.1120327,8418,1668680401,111798972,,0.0,0.0,0.0,0.0,0.0,0.0
1668680401.119791,8419,1668680401,119496230,,0.0,0.0,0.0,0.0,0.0,0.0
1668680401.128368,8420,1668680401,128056209,,0.0,0.0,0.0,0.0,0.0,0.0
1668680401.1354966,8421,1668680401,135238605,,0.0,0.0,0.0,0.0,0.0,0.0
1668680401.1440783,8422,1668680401,143800412,,0.0,0.0,0.0,0.0,0.0,0.0
1668680401.1517787,8423,1668680401,151565966,,0.0,0.0,0.0,0.0,0.0,0.0
1668680401.1602392,8424,1668680401,159803777,,0.0,0.0,0.0,0.0,0.0,0.0
1668680401.1678872,8425,1668680401,167651539,,0.0,0.0,0.0,0.0,0.0,0.0
1668680401.1755323,8426,1668680401,175305854,,0.0,0.0,0.0,0.0,0.0,0.0
1668680401.1840694,8427,1668680401,183823722,,0.0,0.0,0.0,0.0,0.0,0.0
1668680401.1927464,8428,1668680401,192408600,,0.0,0.0,0.0,0.0,0.0,0.0
1668680401.2005723,8429,1668680401,200125512,,0.0,0.0,0.0,0.0,0.0,0.0
1668680401.2078562,8430,1668680401,207599615,,0.0,0.0,0.0,0.0,0.0,0.0
1668680401.2155411,8431,1668680401,215331554,,0.0,0.0,0.0,0.0,0.0,0.0
1668680401.2242062,8432,1668680401,223866286,,0.0,0.0,0.0,0.0,0.0,0.0
1668680401.2317588,8433,1668680401,231525116,,0.0,0.0,0.0,0.0,0.0,0.0
1668680401.2398734,8434,1668680401,239593029,,0.0,0.0,0.0,0.0,0.0,0.0
1668680401.2480226,8435,1668680401,247673594,,0.0,0.0,0.0,0.0,0.0,0.0
1668680401.2558393,8436,1668680401,255533283,,0.0,0.0,0.0,0.0,0.0,0.0
1668680401.2643926,8437,1668680401,264050181,,-0.16896702680260278,0.0,0.0,0.0,0.0,0.0
1668680401.271944,8438,1668680401,271672896,,-0.15613222225179707,0.0,0.470889790837323,0.0,0.0,0.0
1668680401.2797232,8439,1668680401,279499680,,-0.1493173015778409,0.0,0.7200754739067299,0.0,0.0,0.0
1668680401.288085,8440,1668680401,287866838,,-0.6219653638383804,0.0,2.1470412769575002,0.0,0.0,0.0
1668680401.2958603,8441,1668680401,295639098,,-0.878654620363968,0.02817050447219765,2.8146018772742076,0.0,0.0,0.0
1668680401.3035398,8442,1668680401,303277703,,-0.878654620363968,0.02817050447219765,2.8146018772742076,0.0,0.0,0.0
1668680401.311898,8443,1668680401,311687556,,-1.0145620624921232,0.04285809775274871,3.167796769075244,0.0,0.0,0.0
1668680401.3202064,8444,1668680401,319910808,,-1.0368422611193506,0.04040527602687624,3.345129225998024,0.0,0.0,0.0
1668680401.3278143,8445,1668680401,327604619,,-1.0485486025862705,0.039075718747033625,3.4389961894204477,0.0,0.0,0.0
1668680401.335666,8446,1668680401,335394501,,-1.0485486025862705,0.039075718747033625,3.4389961894204477,0.0,0.0,0.0
1668680401.3437984,8447,1668680401,343606656,,-1.039924292225456,0.020674095631167008,3.518814993157033,0.0,0.0,0.0
1668680401.3522239,8448,1668680401,351899004,,-1.2055902106537941,0.010938205204455402,3.5665142972358477,0.0,0.0,0.0
1668680401.3598652,8449,1668680401,359619314,,-1.293312626273103,0.0057871616359559995,3.5917222503074817,0.0,0.0,0.0
1668680401.3679326,8450,1668680401,367700828,,-1.3991190752732385,0.003061858794442722,3.636521090200164,0.0,0.0,0.0
1668680401.3757074,8451,1668680401,375507640,,-1.4539281286169787,0.0016199615401890457,3.5709536423768093,0.0,0.0,0.0
1668680401.3844142,8452,1668680401,383969675,,-1.4539281286169787,0.0016199615401890457,3.5709536423768093,0.0,0.0,0.0
1668680401.3918397,8453,1668680401,391459118,,-1.4830179721229602,0.0008570857011612451,3.536212572764782,0.0,0.0,0.0
1668680401.399792,8454,1668680401,399594522,,-1.366948389460036,0.0004534650242680067,3.3493021805858385,0.0,0.0,0.0
1668680401.4078586,8455,1668680401,407666951,,-1.3055345549734945,0.0002399182811657924,3.25040152270872,0.0,0.0,0.0
1668680401.416664,8456,1668680401,416243503,,-1.5560917428862777,0.00012693543836255972,3.801534366749978,0.0,0.0,0.0
1668680401.4234998,8457,1668680401,423311031,,-1.5560917428862777,0.00012693543836255972,3.801534366749978,0.0,0.0,0.0
1668680401.4317224,8458,1668680401,431550814,,-2.05576494751223,6.71587235203673e-05,4.283783781204871,0.0,0.0,0.0
1668680401.4400246,8459,1668680401,439665269,,-2.3203204420637844,3.5532190246214735e-05,4.5387754288758915,0.0,0.0,0.0
1668680401.4482884,8460,1668680401,447948411,,-2.7736501235893716,1.8799293338419494e-05,4.884707848394108,0.0,0.0,0.0
1668680401.455815,8461,1668680401,455608983,,-3.033036961597841,9.946288916473222e-06,5.110529072455444,0.0,0.0,0.0
1668680401.4635158,8462,1668680401,463236147,,-3.033036961597841,9.946288916473222e-06,5.110529072455444,0.0,0.0,0.0
1668680401.4718108,8463,1668680401,471587654,,-3.170197916707998,5.26236074032532e-06,5.230100982706502,0.0,0.0,0.0
1668680401.480986,8464,1668680401,480121633,,-3.183439090366705,2.7841982868054973e-06,5.2225024832553375,0.0,0.0,0.0
1668680401.4877264,8465,1668680401,487521626,,-3.1904397753601965,1.473057527365836e-06,5.218514200793843,0.0,0.0,0.0
1668680401.4957967,8466,1668680401,495536867,,-3.1483174928820663,7.79362048031006e-07,5.1233578527477,0.0,0.0,0.0
1668680401.5035086,8467,1668680401,503295284,,-3.1483174928820663,7.79362048031006e-07,5.1233578527477,0.0,0.0,0.0
1668680401.511988,8468,1668680401,511689766,,-3.151797985723874,4.1234316421929814e-07,5.041641473757723,0.0,0.0,0.0
1668680401.5198045,8469,1668680401,519582010,,-3.153634720376924,2.1816161757932912e-07,4.998440815709069,0.0,0.0,0.0
1668680401.5278587,8470,1668680401,527605043,,-3.292709715983909,-0.019934789977233636,5.0947150619545365,0.0,0.0,0.0
1668680401.535654,8471,1668680401,535432369,,-3.3433233325213507,-0.07414886617833472,5.151260645691384,0.0,0.0,0.0
1668680401.5437171,8472,1668680401,543427314,,-3.3433233325213507,-0.07414886617833472,5.151260645691384,0.0,0.0,0.0
1668680401.5518494,8473,1668680401,551610358,,-3.3703559477460425,-0.10288730248657271,5.180987712459557,0.0,0.0,0.0
1668680401.5605295,8474,1668680401,559815906,,-3.4861806048615076,-0.18305818203801516,5.302424692745434,0.0,0.0,0.0
1668680401.5679324,8475,1668680401,567696093,,-3.4756933193689195,-0.3511119046651452,5.350039637490614,0.0,0.0,0.0
1668680401.5768962,8476,1668680401,575899459,,-3.4756933193689195,-0.3511119046651452,5.350039637490614,0.0,0.0,0.0
1668680401.5836651,8477,1668680401,583496205,,-3.4703570857315635,-0.4398917301435623,5.375115746408063,0.0,0.0,0.0
1668680401.5918262,8478,1668680401,591584583,,-3.38027511979051,-0.4426900533539399,5.363283289874044,0.0,0.0,0.0
1668680401.5998402,8479,1668680401,599620122,,-3.332430409903634,-0.44412881046295094,5.357156723960786,0.0,0.0,0.0
1668680401.608142,8480,1668680401,607825010,,-3.278748158845593,-0.421656097190746,5.268593157429562,0.0,0.0,0.0
1668680401.6156905,8481,1668680401,615514207,,-3.080651047676268,-0.5053866314699598,5.062248608263094,0.0,0.0,0.0
1668680401.6235707,8482,1668680401,623348453,,-3.080651047676268,-0.5053866314699598,5.062248608263094,0.0,0.0,0.0
1668680401.631833,8483,1668680401,631535582,,-2.9757748822015726,-0.5496003087473462,4.953144541941323,0.0,0.0,0.0
1668680401.6403315,8484,1668680401,639813740,,-2.731953447064244,-0.610842767125051,4.796049158314988,0.0,0.0,0.0
1668680401.6477551,8485,1668680401,647565658,,-2.568364209280345,-0.7221553629671613,4.789282831878606,0.0,0.0,0.0
1668680401.6555753,8486,1668680401,655328188,,-2.568364209280345,-0.7221553629671613,4.789282831878606,0.0,0.0,0.0
1668680401.6638188,8487,1668680401,663590998,,-2.481813448174033,-0.7811258063640383,4.785677787800353,0.0,0.0,0.0
1668680401.672231,8488,1668680401,671937012,,-2.428625284785036,-0.801322301767519,4.816058101050393,0.0,0.0,0.0
1668680401.6798186,8489,1668680401,679623064,,-2.400374447886732,-0.8119441663088851,4.832214928891611,0.0,0.0,0.0
1668680401.6877232,8490,1668680401,687529461,,-2.2261855365080288,-0.9271063002551133,4.794750197089789,0.0,0.0,0.0
1668680401.6960788,8491,1668680401,695865261,,-2.1091243760317373,-1.0163086185492984,4.8036247272237995,0.0,0.0,0.0
1668680401.704177,8492,1668680401,703740463,,-2.1091243760317373,-1.0163086185492984,4.8036247272237995,0.0,0.0,0.0
1668680401.7121372,8493,1668680401,711775084,,-2.047088669694552,-1.0631929501717197,4.8084849664264615,0.0,0.0,0.0
1668680401.72032,8494,1668680401,720059548,,-2.0969254824815,-1.125598479325777,4.939413421852123,0.0,0.0,0.0
1668680401.7276785,8495,1668680401,727495955,,-2.1326907264243213,-1.1836401465547306,5.056153066291768,0.0,0.0,0.0
1668680401.736797,8496,1668680401,735397802,,-2.1326907264243213,-1.1836401465547306,5.056153066291768,0.0,0.0,0.0
1668680401.744206,8497,1668680401,743820696,,-2.1515528923500167,-1.2144809676070343,5.117900334509372,0.0,0.0,0.0
1668680401.7519252,8498,1668680401,751660677,,-2.165171827380963,-1.259812211530315,5.174827422877702,0.0,0.0,0.0
1668680401.7598073,8499,1668680401,759560489,,-2.1724128693382294,-1.283871046536112,5.204900341143913,0.0,0.0,0.0
1668680401.7686334,8500,1668680401,768346657,,-2.0626035285137174,-1.2888238320867398,5.224756407652134,0.0,0.0,0.0
1668680401.7755435,8501,1668680401,775313254,,-2.0626035285137174,-1.2888238320867398,5.224756407652134,0.0,0.0,0.0
1668680401.7839255,8502,1668680401,783652596,,-1.9237997634144617,-1.3154292968160912,5.178729801086356,0.0,0.0,0.0
1668680401.7917047,8503,1668680401,791512314,,-1.8504691024948912,-1.3294211296062972,5.154362011379712,0.0,0.0,0.0
1668680401.8004997,8504,1668680401,800195041,,-1.6901500660378064,-1.3719818384265468,5.1130885664359855,0.0,0.0,0.0
1668680401.808624,8505,1668680401,808362362,,-1.5996414180474618,-1.3740198731358202,5.086215748103125,0.0,0.0,0.0
1668680401.8154411,8506,1668680401,815237016,,-1.5996414180474618,-1.3740198731358202,5.086215748103125,0.0,0.0,0.0
1668680401.8237252,8507,1668680401,823539445,,-1.551700772626544,-1.3750392614018563,5.072043534298457,0.0,0.0,0.0
1668680401.8320472,8508,1668680401,831776403,,-1.5214131526303931,-1.3507618446244407,5.064010514542024,0.0,0.0,0.0
1668680401.8398182,8509,1668680401,839615471,,-1.505322808603779,-1.3383922370190535,5.05960513741447,0.0,0.0,0.0
1668680401.8480618,8510,1668680401,847764597,,-1.461327445284792,-1.31515321756059,5.089581283960625,0.0,0.0,0.0
1668680401.8560193,8511,1668680401,855512288,,-1.461327445284792,-1.31515321756059,5.089581283960625,0.0,0.0,0.0
1668680401.865004,8512,1668680401,864683340,,-1.381005852107242,-1.3253135641212794,5.124248805256407,0.0,0.0,0.0
1668680401.8749273,8513,1668680401,874454448,,-1.338610348903566,-1.3307173872778968,5.14254243227997,0.0,0.0,0.0
1668680401.881939,8514,1668680401,881507436,,-1.3127293416051362,-1.2756717544422327,5.155664311534927,0.0,0.0,0.0
1668680401.8902833,8515,1668680401,889809036,,-1.1911038015383286,-1.1892364783593448,5.0572697173173164,0.0,0.0,0.0
1668680401.8964777,8516,1668680401,895954283,,-1.1911038015383286,-1.1892364783593448,5.0572697173173164,0.0,0.0,0.0
1668680401.9038966,8517,1668680401,903703635,,-1.126594516338907,-1.1434996505903703,5.0052686165939715,0.0,0.0,0.0
1668680401.9118922,8518,1668680401,911686625,,-1.0620797072382566,-1.103742778072021,4.967887769623425,0.0,0.0,0.0
1668680401.919802,8519,1668680401,919586681,,-1.0280678441314177,-1.0829694847756004,4.947978830483052,0.0,0.0,0.0
1668680401.9281595,8520,1668680401,927903610,,-0.9563136885228212,-1.0750559543072422,4.988961448627199,0.0,0.0,0.0
1668680401.9357474,8521,1668680401,935553712,,-0.8913966535540218,-1.06129758450186,5.000846984755384,0.0,0.0,0.0
1668680401.9434428,8522,1668680401,943211338,,-0.8913966535540218,-1.06129758450186,5.000846984755384,0.0,0.0,0.0
1668680401.9517233,8523,1668680401,951523282,,-0.8569155172525877,-1.0539773114090973,5.007190120365251,0.0,0.0,0.0
1668680401.9602773,8524,1668680401,959922104,,-0.75398974967172,-0.9441822753476722,4.9512848217567225,0.0,0.0,0.0
1668680401.9678493,8525,1668680401,967547275,,-0.5728577373047967,-0.8785969652540349,4.798253645508225,0.0,0.0,0.0
1668680401.9755166,8526,1668680401,975285375,,-0.5728577373047967,-0.8785969652540349,4.798253645508225,0.0,0.0,0.0
1668680401.9846323,8527,1668680401,984414550,,-0.47703990261093965,-0.8441575182012173,4.71720105955178,0.0,0.0,0.0
1668680401.9926865,8528,1668680401,992380795,,-0.3851984798228082,-0.8427351296417013,4.641375530284607,0.0,0.0,0.0
1668680402.000247,8529,1668680402,26219,,-0.3365557460837947,-0.841934234296106,4.601285820183027,0.0,0.0,0.0
1668680402.0078683,8530,1668680402,7656039,,-0.24827471112751326,-0.8448413192349425,4.523317959393146,0.0,0.0,0.0
1668680402.015972,8531,1668680402,15620763,,-0.2438316593845392,-0.8020536021954998,4.47194131811688,0.0,0.0,0.0
1668680402.0239992,8532,1668680402,23623460,,-0.2438316593845392,-0.8020536021954998,4.47194131811688,0.0,0.0,0.0
1668680402.0324466,8533,1668680402,32122716,,-0.24158165918735441,-0.7791728915077123,4.444814635204392,0.0,0.0,0.0
1668680402.0397174,8534,1668680402,39493639,,-0.17265303233876206,-0.7980538143319271,4.378911220622634,0.0,0.0,0.0
1668680402.0477445,8535,1668680402,47516554,,-0.10888370611230298,-0.9043204685713615,4.294015610537405,0.0,0.0,0.0
1668680402.0560956,8536,1668680402,55657222,,-0.10888370611230298,-0.9043204685713615,4.294015610537405,0.0,0.0,0.0
1668680402.0640311,8537,1668680402,63785760,,-0.07509723141684835,-0.9606442952780467,4.249069587984588,0.0,0.0,0.0
1668680402.071826,8538,1668680402,71591486,,-0.03973227860500104,-0.9903389446093589,4.2015223132478985,0.0,0.0,0.0
1668680402.0797856,8539,1668680402,79568500,,-0.02102146688181698,-1.0059094383823572,4.176454323768047,0.0,0.0,0.0
1668680402.0882194,8540,1668680402,87891660,,-0.011121991624404512,-1.000617347488184,4.2005604043594085,0.0,0.0,0.0
1668680402.0957537,8541,1668680402,95562189,,-0.02184138363795158,-0.9675953677960903,4.222346788230818,0.0,0.0,0.0
1668680402.103787,8542,1668680402,103537020,,-0.02184138363795158,-0.9675953677960903,4.222346788230818,0.0,0.0,0.0
1668680402.1117146,8543,1668680402,111506247,,-0.027321809025482185,-0.9498285469986908,4.2340198518165195,0.0,0.0,0.0
1668680402.1204352,8544,1668680402,120059588,,-0.014455362837111744,-0.9539906628307858,4.169070084711186,0.0,0.0,0.0
1668680402.1280189,8545,1668680402,127747698,,-0.007648011687573954,-0.8832227229217591,4.132701721014407,0.0,0.0,0.0
1668680402.1358056,8546,1668680402,135565839,,-0.004046393261267651,-0.8455671577314876,4.113549677927464,0.0,0.0,0.0
1668680402.1434875,8547,1668680402,143250081,,-0.004046393261267651,-0.8455671577314876,4.113549677927464,0.0,0.0,0.0
1668680402.152697,8548,1668680402,152307976,,-0.002140856878060823,-0.8208875796431778,4.169199952634616,0.0,0.0,0.0
1668680402.1599376,8549,1668680402,159490921,,-0.0011326798648593265,-0.8075838995167783,4.198716743798568,0.0,0.0,0.0
1668680402.1678386,8550,1668680402,167610352,,-0.000599275780368767,-0.7565945362799719,4.237039112622568,0.0,0.0,0.0
1668680402.1775823,8551,1668680402,177127834,,-0.000599275780368767,-0.7565945362799719,4.237039112622568,0.0,0.0,0.0
1668680402.1851723,8552,1668680402,184796255,,-0.000317063516425444,-0.7213121707985481,4.275713406439771,0.0,0.0,0.0
1668680402.192179,8553,1668680402,191893000,,-0.000167751270352035,-0.7026538461078244,4.296165935368082,0.0,0.0,0.0
1668680402.2002397,8554,1668680402,199954659,,-8.875347445198301e-05,-0.6130099197411879,4.300370712065556,0.0,0.0,0.0
1668680402.207709,8555,1668680402,207509487,,-4.6957493739201614e-05,-0.477603971806412,4.310219360519435,0.0,0.0,0.0
1668680402.2160568,8556,1668680402,215736070,,-2.484416786928269e-05,-0.40576385150910715,4.315497236357981,0.0,0.0,0.0
1668680402.22383,8557,1668680402,223600699,,-2.484416786928269e-05,-0.40576385150910715,4.315497236357981,0.0,0.0,0.0
1668680402.2317123,8558,1668680402,231517344,,-1.3144497884515777e-05,-0.3267532617737206,4.289117315736133,0.0,0.0,0.0
1668680402.2398212,8559,1668680402,239595479,,-6.954462131519491e-06,-0.2853478538605997,4.275059392121095,0.0,0.0,0.0
1668680402.2486935,8560,1668680402,248058277,,-3.679451582225295e-06,-0.20607390481443466,4.2432778659750054,0.0,0.0,0.0
1668680402.255705,8561,1668680402,255452405,,-3.679451582225295e-06,-0.20607390481443466,4.2432778659750054,0.0,0.0,0.0
1668680402.2654996,8562,1668680402,263639061,,-1.94671617875101e-06,-0.11805814384744981,4.23548231638954,0.0,0.0,0.0
1668680402.2720191,8563,1668680402,271804037,,-1.0299643291729251e-06,-0.0715851172809488,4.2313576342338175,0.0,0.0,0.0
1668680402.2801743,8564,1668680402,279889849,,-5.449312698727596e-07,-0.07160271231792414,4.220608453988906,0.0,0.0,0.0
1668680402.2878032,8565,1668680402,287565404,,-2.8831104192083343e-07,-0.05324168799510545,4.1866489404877525,0.0,0.0,0.0
1668680402.295903,8566,1668680402,295687790,,-1.5253897415886172e-07,-0.043719276091615286,4.168637977449308,0.0,0.0,0.0
1668680402.3034759,8567,1668680402,303276296,,-1.5253897415886172e-07,-0.043719276091615286,4.168637977449308,0.0,0.0,0.0
1668680402.3128123,8568,1668680402,311964101,,-0.04454295845670165,-0.06119366896856412,4.12226849314574,0.0,0.0,0.0
1668680402.320551,8569,1668680402,320021856,,-0.06821361316453665,-0.0705416955949183,4.0976910655048755,0.0,0.0,0.0
1668680402.328155,8570,1668680402,327678763,,-0.1741828267627183,-0.1184039884167527,4.006131690447315,0.0,0.0,0.0
1668680402.3354132,8571,1668680402,335241537,,-0.1741828267627183,-0.1184039884167527,4.006131690447315,0.0,0.0,0.0
1668680402.3444705,8572,1668680402,344125402,,-0.25738119195147635,-0.15399143757831127,3.943879743899619,0.0,0.0,0.0
1668680402.3517241,8573,1668680402,351535070,,-0.3012246397142295,-0.17256127571602703,3.91105546029402,0.0,0.0,0.0
1668680402.3598735,8574,1668680402,359638725,,-0.2854027055133811,-0.09129834154771996,3.7831886972861746,0.0,0.0,0.0
1668680402.3678062,8575,1668680402,367586816,,-0.25097585111991405,-0.04830392644454679,3.6116185749116405,0.0,0.0,0.0
1668680402.3762782,8576,1668680402,375966814,,-0.2326630840366684,-0.02555653553400672,3.5208448859308383,0.0,0.0,0.0
1668680402.383464,8577,1668680402,383278378,,-0.2326630840366684,-0.02555653553400672,3.5208448859308383,0.0,0.0,0.0
1668680402.3919675,8578,1668680402,391758663,,-0.20369255531279118,-0.013521395807248772,3.45393219953192,0.0,0.0,0.0
1668680402.3998873,8579,1668680402,399596045,,-0.18812867069010342,-0.0071538704584197255,3.418633816022738,0.0,0.0,0.0
1668680402.408129,8580,1668680402,407804534,,-0.11966381313457827,-0.015660595400526257,3.3198016027223884,0.0,0.0,0.0
1668680402.4162855,8581,1668680402,415921537,,-0.11966381313457827,-0.015660595400526257,3.3198016027223884,0.0,0.0,0.0
1668680402.4239564,8582,1668680402,423686256,,-0.13831271269267106,-0.008285673490678208,3.286006131712982,0.0,0.0,0.0
1668680402.4318166,8583,1668680402,431603818,,-0.1482058792744346,-0.004383765970470102,3.268178786892385,0.0,0.0,0.0
1668680402.440377,8584,1668680402,440115171,,-0.21930739594994275,-0.0023193532916150035,3.253083785967773,0.0,0.0,0.0
1668680402.4479163,8585,1668680402,447595573,,-0.2491195519883239,-0.0012271183561262237,3.200960751567337,0.0,0.0,0.0
1668680402.4559553,8586,1668680402,455677699,,-0.2648420735624643,-0.0006492410903443688,3.1734289481065465,0.0,0.0,0.0
1668680402.464162,8587,1668680402,463730229,,-0.2648420735624643,-0.0006492410903443688,3.1734289481065465,0.0,0.0,0.0
1668680402.4726002,8588,1668680402,472301494,,-0.2517077074841446,-0.00034349905311675333,3.1150411416902584,0.0,0.0,0.0
1668680402.479779,8589,1668680402,479532711,,-0.24454308340916747,-0.00018173772616505426,3.0842479022637077,0.0,0.0,0.0
1668680402.4883893,8590,1668680402,487724413,,-0.1494830953572012,-9.615339783896876e-05,3.0391208845023536,0.0,0.0,0.0
1668680402.4954352,8591,1668680402,495198791,,-0.1494830953572012,-9.615339783896876e-05,3.0391208845023536,0.0,0.0,0.0
1668680402.504538,8592,1668680402,504184984,,-0.0790881884646649,-5.0872628986137185e-05,3.034184820367556,0.0,0.0,0.0
1668680402.511799,8593,1668680402,511614634,,-0.04184380541275049,-2.6915579044803123e-05,3.031591963659803,0.0,0.0,0.0
1668680402.519964,8594,1668680402,519661214,,-0.022138628857359628,-1.424043556928142e-05,3.00641314760753,0.0,0.0,0.0
1668680402.5278034,8595,1668680402,527610213,,-0.011713057233904669,-7.534298439773314e-06,2.959733308945331,0.0,0.0,0.0
1668680402.5359855,8596,1668680402,535706423,,-0.011713057233904669,-7.534298439773314e-06,2.959733308945331,0.0,0.0,0.0
1668680402.543628,8597,1668680402,543471735,,-0.006197118649428825,-3.986230105350282e-06,2.935003383677225,0.0,0.0,0.0
1668680402.5516343,8598,1668680402,551455798,,-0.0032787579526149103,-2.109025887389591e-06,2.917424184391346,0.0,0.0,0.0
1668680402.5597458,8599,1668680402,559544979,,-0.001734718071409904,-1.1158387940800004e-06,2.9081107077441652,0.0,0.0,0.0
1668680402.5680013,8600,1668680402,567704055,,-0.0009178008351839848,-5.903655435519594e-07,2.833460474873684,0.0,0.0,0.0
1668680402.5755708,8601,1668680402,575345875,,-0.0009178008351839848,-5.903655435519594e-07,2.833460474873684,0.0,0.0,0.0
1668680402.5837083,8602,1668680402,583470961,,-0.00048558805430543966,-3.123493078592609e-07,2.7009559641109484,0.0,0.0,0.0
1668680402.5918455,8603,1668680402,591581893,,-0.00025691386349291606,-1.6525708721612187e-07,2.630846729097807,0.0,0.0,0.0
1668680402.6015725,8604,1668680402,600703718,,-0.00013592742381042817,-0.07163379171091439,2.3400762183220305,0.0,0.0,0.0
1668680402.608268,8605,1668680402,608055003,,0.12711566734575444,-0.34150760049183415,1.7300486638278194,0.0,0.0,0.0
1668680402.6159275,8606,1668680402,615590913,,0.12711566734575444,-0.34150760049183415,1.7300486638278194,0.0,0.0,0.0
1668680402.6238856,8607,1668680402,623666392,,0.19440148272649935,-0.4843784236920598,1.4072519311842309,0.0,0.0,0.0
1668680402.632556,8608,1668680402,632303798,,0.5386333702380696,-0.5823300298282401,1.0133518912103676,0.0,0.0,0.0
1668680402.6396804,8609,1668680402,639515808,,0.7207419464363017,-0.6342901831823144,0.8048221157133542,0.0,0.0,0.0
1668680402.6479118,8610,1668680402,647683472,,1.3062245520501383,-0.7570785973849297,0.4258135210270231,0.0,0.0,0.0
1668680402.6560261,8611,1668680402,655776603,,1.83449023030975,-0.8924241701096174,0.2252884844357446,0.0,0.0,0.0
1668680402.6638157,8612,1668680402,663575324,,1.83449023030975,-0.8924241701096174,0.2252884844357446,0.0,0.0,0.0
1668680402.671871,8613,1668680402,671663602,,2.114085063002843,-0.9638829083802836,0.11919513757322354,0.0,0.0,0.0
1668680402.6798842,8614,1668680402,679661189,,2.7950510544934364,-1.4287275470749918,0.0630635021434123,0.0,0.0,0.0
1668680402.6876645,8615,1668680402,687469235,,2.5868889848228314,-4.223922084357099,-0.04096070991064985,0.0,-0.20069134849842993,0.0
1668680402.6957917,8616,1668680402,695462140,,2.5868889848228314,-4.223922084357099,-0.04096070991064985,0.0,-0.20069134849842993,0.0
1668680402.7037797,8617,1668680402,703569910,,2.4767260675957075,-5.702875694603031,-0.09551633065909446,0.0,-0.30686833489630205,0.0
1668680402.71175,8618,1668680402,711555409,,2.240311937773134,-7.383390793226394,-0.4586441010789564,0.0,-0.5171995803518261,0.0
1668680402.7198837,8619,1668680402,719658650,,2.115556162734568,-8.27246954409513,-0.6504926425895873,0.0,-0.6284685713281929,0.0
1668680402.7280276,8620,1668680402,727760138,,1.6925658040373883,-9.906029484606357,-0.34416122163558616,0.0,-0.8363759382880744,0.0
1668680402.736034,8621,1668680402,735793986,,1.4534693366005107,-11.163405594979462,0.5469996010372201,0.0,-0.9783234462175616,0.0
1668680402.7438724,8622,1668680402,743560907,,1.4534693366005107,-11.163405594979462,0.5469996010372201,0.0,-0.9783234462175616,0.0
1668680402.7520711,8623,1668680402,751817193,,1.3266315491597667,-11.828721944489871,1.0184274682843133,0.0,-1.0534232582219136,0.0
1668680402.7609055,8624,1668680402,760495991,,0.8723080342451451,-13.235325558683678,1.85390351886986,0.0,-1.2355372879012523,0.0
1668680402.7676225,8625,1668680402,767444175,,0.5860583470820027,-14.240526854158615,2.3951354912989844,0.0,-1.3772743957043354,0.0
1668680402.775695,8626,1668680402,775471522,,0.43460964338403646,-14.772438390974134,2.6811547418354715,0.0,-1.4522582547985812,0.0
1668680402.7834804,8627,1668680402,783247090,,0.43460964338403646,-14.772438390974134,2.6811547418354715,0.0,-1.4522582547985812,0.0
1668680402.7927642,8628,1668680402,792449158,,0.6585047789721774,-15.233346118358508,2.9528271794450314,0.0,-1.5313561417741761,0.0
1668680402.8006241,8629,1668680402,800403020,,0.7762363751537684,-15.477361959719335,3.0962600801165188,0.0,-1.5731964151475322,0.0
1668680402.808123,8630,1668680402,807931942,,1.1429538121120606,-15.592292073291752,3.1507992868041006,0.0,-1.6137706439851123,0.0
1668680402.816372,8631,1668680402,815985507,,1.1429538121120606,-15.592292073291752,3.1507992868041006,0.0,-1.6137706439851123,0.0
1668680402.825092,8632,1668680402,824675729,,1.5575601031967954,-15.708054041115169,3.1362577923196158,0.0,-1.6526103539922241,0.0
1668680402.8326354,8633,1668680402,832373185,,1.7764968700918424,-15.769902178694734,3.1264162370496313,0.0,-1.673173410005663,0.0
1668680402.840114,8634,1668680402,839896932,,2.2649892611535556,-15.684777444827645,3.3287545964504055,0.0,-1.6920700311335894,0.0
1668680402.8479164,8635,1668680402,847622101,,2.650429846021947,-15.503977498601504,3.7666262538398945,0.0,-1.704916931279111,0.0
1668680402.8563128,8636,1668680402,855971871,,2.853779878520509,-15.40857852454167,3.997942597002379,0.0,-1.7117147437646947,0.0
1668680402.8634186,8637,1668680402,863246150,,2.853779878520509,-15.40857852454167,3.997942597002379,0.0,-1.7117147437646947,0.0
1668680402.8717082,8638,1668680402,871546799,,3.1485706464129937,-15.364210146798742,4.453820787753864,0.0,-1.7403146617865815,0.0
1668680402.8797529,8639,1668680402,879519813,,3.30357085739849,-15.341357206187563,4.6940423448305175,0.0,-1.755452975461246,0.0
1668680402.8885038,8640,1668680402,887792838,,3.2707578116803484,-15.485843392918026,4.78309511917307,0.0,-1.786241823946503,0.0
1668680402.8966947,8641,1668680402,896401830,,3.1437124510172216,-15.670796293632904,4.748636388122202,0.0,-1.8129477424539773,0.0
1668680402.9041934,8642,1668680402,903785875,,3.1437124510172216,-15.670796293632904,4.748636388122202,0.0,-1.8129477424539773,0.0
1668680402.91168,8643,1668680402,911459480,,3.0761344180831265,-15.768792831620669,4.730238127796239,0.0,-1.8270771779638921,0.0
1668680402.9202414,8644,1668680402,919980331,,2.8747047759557267,-15.988526697745046,4.620065188828432,0.0,-1.854513653432707,0.0
1668680402.9276419,8645,1668680402,927429498,,2.822215440155359,-16.086499827049245,4.47181687589788,0.0,-1.861896115449371,0.0
1668680402.9355392,8646,1668680402,935316041,,2.822215440155359,-16.086499827049245,4.47181687589788,0.0,-1.861896115449371,0.0
1668680402.9437227,8647,1668680402,943519700,,2.794504784052921,-16.13838699980558,4.393171419875575,0.0,-1.8658048414296493,0.0
1668680402.953994,8648,1668680402,952346336,,2.705178659627693,-16.03801215374088,3.7152215622405125,0.0,-1.8274309998044949,0.0
1668680402.9601715,8649,1668680402,959970444,,2.6588009752518107,-15.984287898929535,3.358373518192164,0.0,-1.80711950127586,0.0
1668680402.968418,8650,1668680402,968191060,,2.5765068508946385,-15.815564331259946,2.541524459642816,0.0,-1.7544116331930149,0.0
1668680402.9759362,8651,1668680402,975676422,,2.5765068508946385,-15.815564331259946,2.541524459642816,0.0,-1.7544116331930149,0.0
1668680402.9849696,8652,1668680402,984590245,,2.528999492745946,-15.657057481874192,2.0088584723670038,0.0,-1.7137328888759593,0.0
1668680402.992491,8653,1668680402,992247175,,2.5040137006094056,-15.573183042287146,1.726903350841468,0.0,-1.6922109982890206,0.0
1668680403.0005465,8654,1668680403,290110,,2.459242432808445,-15.291243587121006,1.5263138095698219,0.0,-1.6466451950495684,0.0
1668680403.0087848,8655,1668680403,8458245,,2.404788282363227,-15.028137242894202,1.4177781897706823,0.0,-1.6030046245766294,0.0
1668680403.0167756,8656,1668680403,16491121,,2.376216974470017,-14.888881234104083,1.3603643068036195,0.0,-1.5799158273652814,0.0
1668680403.0234492,8657,1668680403,23240374,,2.376216974470017,-14.888881234104083,1.3603643068036195,0.0,-1.5799158273652814,0.0
1668680403.0319388,8658,1668680403,31696525,,2.1889149440787734,-14.688909182277321,1.371004338428417,0.0,-1.539927284216473,0.0
1668680403.040319,8659,1668680403,40081833,,2.09037287132697,-14.583071754504257,1.3761773281202645,0.0,-1.518776868422043,0.0
1668680403.0485141,8660,1668680403,48204498,,1.9586370074485,-14.566596604251973,1.3565634539118534,0.0,-1.508842328173024,0.0
1668680403.0560937,8661,1668680403,55624676,,1.9586370074485,-14.566596604251973,1.3565634539118534,0.0,-1.508842328173024,0.0
1668680403.064657,8662,1668680403,64323394,,1.8567123181937806,-14.59344203147834,1.309527410276008,0.0,-1.5130757242224648,0.0
1668680403.0729117,8663,1668680403,72649326,,1.8024615128154498,-14.607762217379516,1.2842270273609508,0.0,-1.51531676156137,0.0
1668680403.0808897,8664,1668680403,80411468,,1.870090783999868,-14.592360266556728,1.2691925387555325,0.0,-1.5116354298023271,0.0
1668680403.088489,8665,1668680403,88234861,,1.9113041137748965,-14.640529120640323,1.2675377246235249,0.0,-1.5132329733642607,0.0
1668680403.0961218,8666,1668680403,95852590,,1.9113041137748965,-14.640529120640323,1.2675377246235249,0.0,-1.5132329733642607,0.0
1668680403.1044831,8667,1668680403,104248421,,1.9326414295167096,-14.66611734241187,1.2665581420866796,0.0,-1.5140765506447456,0.0
1668680403.112684,8668,1668680403,112371432,,1.8542846015141607,-14.711022877794512,1.2713396919073636,0.0,-1.5143520140410844,0.0
1668680403.120704,8669,1668680403,120493828,,1.8124324328098431,-14.73479035627918,1.2742876556365568,0.0,-1.5144904310995582,0.0
1668680403.1285973,8670,1668680403,128327436,,1.8105690067293303,-14.700367431384741,1.2749744415794468,0.0,-1.5114527464538743,0.0
1668680403.1361291,8671,1668680403,135874298,,1.8105690067293303,-14.700367431384741,1.2749744415794468,0.0,-1.5114527464538743,0.0
1668680403.144209,8672,1668680403,143788931,,1.8718803884832678,-14.655941229722835,1.2746235211636792,0.0,-1.5102956151001523,0.0
1668680403.1516342,8673,1668680403,151458173,,1.9047216180025894,-14.632219156546679,1.2754066964241164,0.0,-1.5096793444985432,0.0
1668680403.1598186,8674,1668680403,159605938,,1.9761196642443024,-14.723598484894673,1.320211361376625,0.0,-1.5345920346298634,0.0
1668680403.1676972,8675,1668680403,167478240,,1.9854307956641777,-14.924796352153114,1.3998199930197008,0.0,-1.5733426899550549,0.0
1668680403.1761234,8676,1668680403,175821940,,1.9905607774682128,-15.031298835414049,1.4413489736099248,0.0,-1.5938503963742479,0.0
1668680403.1836882,8677,1668680403,183249613,,1.9905607774682128,-15.031298835414049,1.4413489736099248,0.0,-1.5938503963742479,0.0
1668680403.1918986,8678,1668680403,191657434,,2.2087132114408083,-15.225569160112638,2.1344537196657853,0.0,-1.6486420094069931,0.0
1668680403.2001066,8679,1668680403,199789374,,2.3242434084594024,-15.328186270626464,2.5017641418721066,0.0,-1.6776258167422342,0.0
1668680403.2082167,8680,1668680403,207952634,,2.499960843531401,-15.468253806653362,3.3243968044945156,0.0,-1.730906645706884,0.0
1668680403.2159882,8681,1668680403,215546627,,2.499960843531401,-15.468253806653362,3.3243968044945156,0.0,-1.730906645706884,0.0
1668680403.2237566,8682,1668680403,223496596,,2.7885682439825343,-15.74070416463321,3.7250309054785467,0.0,-1.7880765352379924,0.0
1668680403.2335052,8683,1668680403,232110476,,2.942548457026176,-15.884388249461182,3.9375025797440437,0.0,-1.8183254488033644,0.0
1668680403.2403638,8684,1668680403,240061000,,3.279803248657491,-16.85646416822365,3.5398847752192513,0.0,-1.957352306688815,0.0
1668680403.248643,8685,1668680403,248421685,,3.613033213663065,-17.92248403042861,3.0333731814446825,0.0,-2.106302679400128,0.0
1668680403.2566204,8686,1668680403,256337494,,3.7896422339366866,-18.486524748397027,2.764757494948017,0.0,-2.185113946097732,0.0
1668680403.2635243,8687,1668680403,263271253,,3.7896422339366866,-18.486524748397027,2.764757494948017,0.0,-2.185113946097732,0.0
1668680403.2726085,8688,1668680403,272200228,,3.6732732826625716,-19.22239359692567,2.1440040092601005,0.0,-2.284897013177822,0.0
1668680403.2800133,8689,1668680403,279756419,,3.6106902766595477,-19.612196929150716,1.8134024949687433,0.0,-2.33770254315555,0.0
1668680403.2878418,8690,1668680403,287573934,,3.5513620833123802,-19.73396925803388,1.5599727464232256,0.0,-2.3659946926575754,0.0
1668680403.2954462,8691,1668680403,295235290,,3.5513620833123802,-19.73396925803388,1.5599727464232256,0.0,-2.3659946926575754,0.0
1668680403.3045857,8692,1668680403,304146459,,3.5538896832654148,-19.67167725109061,1.45066866106334,0.0,-2.3683045098489046,0.0
