Time,header.seq,header.stamp.secs,header.stamp.nsecs,header.frame_id,pose.position.x,pose.position.y,pose.position.z,pose.orientation.x,pose.orientation.y,pose.orientation.z,pose.orientation.w
1668680398.0242896,8032,1668680398,23893450,,-0.09879818042605837,-0.6160097982720756,0.07088206676343922,0.9955612156868469,0.09352316526210465,-0.004347595386304483,0.009611544820768937
1668680398.0316617,8033,1668680398,31484237,,-0.09879818042605837,-0.6160097982720756,0.07088206676343922,0.9955612156868469,0.09352316526210465,-0.004347595386304483,0.009611544820768937
1668680398.0399222,8034,1668680398,39638245,,-0.09879818042605837,-0.6160097982720756,0.07088206676343922,0.9955612156868469,0.09352316526210465,-0.004347595386304483,0.009611544820768937
1668680398.048901,8035,1668680398,48722902,,-0.09879818042605837,-0.6160097982720756,0.07088206676343922,0.9955612156868469,0.09352316526210465,-0.004347595386304483,0.009611544820768937
1668680398.0568879,8036,1668680398,56454760,,-0.09879818042605837,-0.6160097982720756,0.07088206676343922,0.9955612156868469,0.09352316526210465,-0.004347595386304483,0.009611544820768937
1668680398.063382,8037,1668680398,63232055,,-0.09879818042605837,-0.6160097982720756,0.07088206676343922,0.9955612156868469,0.09352316526210465,-0.004347595386304483,0.009611544820768937
1668680398.0717146,8038,1668680398,71603457,,-0.09879818042605837,-0.6160097982720756,0.07088206676343922,0.9955612156868469,0.09352316526210465,-0.004347595386304483,0.009611544820768937
1668680398.0798364,8039,1668680398,79587158,,-0.09879818042605837,-0.6160097982720756,0.07088206676343922,0.9955612156868469,0.09352316526210465,-0.004347595386304483,0.009611544820768937
1668680398.0880637,8040,1668680398,87804334,,-0.09879818042605837,-0.6160097982720756,0.07088206676343922,0.9955612156868469,0.09352316526210465,-0.004347595386304483,0.009611544820768937
1668680398.0955496,8041,1668680398,95429733,,-0.09879818042605837,-0.6160097982720756,0.07088206676343922,0.9955612156868469,0.09352316526210465,-0.004347595386304483,0.009611544820768937
1668680398.10392,8042,1668680398,103760485,,-0.09879818042605837,-0.6160097982720756,0.07088206676343922,0.9955612156868469,0.09352316526210465,-0.004347595386304483,0.009611544820768937
1668680398.1118484,8043,1668680398,111656487,,-0.09879818042605837,-0.6160097982720756,0.07088206676343922,0.9955612156868469,0.09352316526210465,-0.004347595386304483,0.009611544820768937
1668680398.1206121,8044,1668680398,120263294,,-0.09879818042605837,-0.6160097982720756,0.07088206676343922,0.9955612156868469,0.09352316526210465,-0.004347595386304483,0.009611544820768937
1668680398.1276634,8045,1668680398,127562363,,-0.09879818042605837,-0.6160097982720756,0.07088206676343922,0.9955612156868469,0.09352316526210465,-0.004347595386304483,0.009611544820768937
1668680398.1357372,8046,1668680398,135603686,,-0.09879818042605837,-0.6160097982720756,0.07088206676343922,0.9955612156868469,0.09352316526210465,-0.004347595386304483,0.009611544820768937
1668680398.1436946,8047,1668680398,143515545,,-0.09879818042605837,-0.6160097982720756,0.07088206676343922,0.9955612156868469,0.09352316526210465,-0.004347595386304483,0.009611544820768937
1668680398.153041,8048,1668680398,152815214,,-0.09879818042605837,-0.6160097982720756,0.07088206676343922,0.9955612156868469,0.09352316526210465,-0.004347595386304483,0.009611544820768937
1668680398.1602733,8049,1668680398,160013730,,-0.09879818042605837,-0.6160097982720756,0.07088206676343922,0.9955612156868469,0.09352316526210465,-0.004347595386304483,0.009611544820768937
1668680398.1678302,8050,1668680398,167591904,,-0.09879818042605837,-0.6160097982720756,0.07088206676343922,0.9955612156868469,0.09352316526210465,-0.004347595386304483,0.009611544820768937
1668680398.175362,8051,1668680398,175228743,,-0.09879818042605837,-0.6160097982720756,0.07088206676343922,0.9955612156868469,0.09352316526210465,-0.004347595386304483,0.009611544820768937
1668680398.18415,8052,1668680398,183717216,,-0.09879818042605837,-0.6160097982720756,0.07088206676343922,0.9955612156868469,0.09352316526210465,-0.004347595386304483,0.009611544820768937
1668680398.191941,8053,1668680398,191739501,,-0.09879818042605837,-0.6160097982720756,0.07088206676343922,0.9955612156868469,0.09352316526210465,-0.004347595386304483,0.009611544820768937
1668680398.1999075,8054,1668680398,199680533,,-0.09879818042605837,-0.6160097982720756,0.07088206676343922,0.9955612156868469,0.09352316526210465,-0.004347595386304483,0.009611544820768937
1668680398.2076879,8055,1668680398,207525659,,-0.09879818042605837,-0.6160097982720756,0.07088206676343922,0.9955612156868469,0.09352316526210465,-0.004347595386304483,0.009611544820768937
1668680398.2161937,8056,1668680398,215954347,,-0.09879818042605837,-0.6160097982720756,0.07088206676343922,0.9955612156868469,0.09352316526210465,-0.004347595386304483,0.009611544820768937
1668680398.2234302,8057,1668680398,223281124,,-0.09879818042605837,-0.6160097982720756,0.07088206676343922,0.9955612156868469,0.09352316526210465,-0.004347595386304483,0.009611544820768937
1668680398.231679,8058,1668680398,231508882,,-0.09879818042605837,-0.6160097982720756,0.07088206676343922,0.9955612156868469,0.09352316526210465,-0.004347595386304483,0.009611544820768937
1668680398.2396805,8059,1668680398,239527917,,-0.09879818042605837,-0.6160097982720756,0.07088206676343922,0.9955612156868469,0.09352316526210465,-0.004347595386304483,0.009611544820768937
1668680398.2480707,8060,1668680398,247850176,,-0.09879818042605837,-0.6160097982720756,0.07088206676343922,0.9955612156868469,0.09352316526210465,-0.004347595386304483,0.009611544820768937
1668680398.255668,8061,1668680398,255552079,,-0.09879818042605837,-0.6160097982720756,0.07088206676343922,0.9955612156868469,0.09352316526210465,-0.004347595386304483,0.009611544820768937
1668680398.26351,8062,1668680398,263382314,,-0.09879818042605837,-0.6160097982720756,0.07088206676343922,0.9955612156868469,0.09352316526210465,-0.004347595386304483,0.009611544820768937
1668680398.2715962,8063,1668680398,271469529,,-0.09879818042605837,-0.6160097982720756,0.07088206676343922,0.9955612156868469,0.09352316526210465,-0.004347595386304483,0.009611544820768937
1668680398.2800148,8064,1668680398,279759815,,-0.09879818042605837,-0.6160097982720756,0.07088206676343922,0.9955612156868469,0.09352316526210465,-0.004347595386304483,0.009611544820768937
1668680398.2877216,8065,1668680398,287535691,,-0.09879818042605837,-0.6160097982720756,0.07088206676343922,0.9955612156868469,0.09352316526210465,-0.004347595386304483,0.009611544820768937
1668680398.2958853,8066,1668680398,295660875,,-0.09879818042605837,-0.6160097982720756,0.07088206676343922,0.9955612156868469,0.09352316526210465,-0.004347595386304483,0.009611544820768937
1668680398.3038788,8067,1668680398,303689285,,-0.09879818042605837,-0.6160097982720756,0.07088206676343922,0.9955612156868469,0.09352316526210465,-0.004347595386304483,0.009611544820768937
1668680398.31216,8068,1668680398,311934908,,-0.09879818042605837,-0.6160097982720756,0.07088206676343922,0.9955612156868469,0.09352316526210465,-0.004347595386304483,0.009611544820768937
1668680398.3196986,8069,1668680398,319471249,,-0.09879818042605837,-0.6160097982720756,0.07088206676343922,0.9955612156868469,0.09352316526210465,-0.004347595386304483,0.009611544820768937
1668680398.3277056,8070,1668680398,327545834,,-0.09879818042605837,-0.6160097982720756,0.07088206676343922,0.9955612156868469,0.09352316526210465,-0.004347595386304483,0.009611544820768937
1668680398.3358767,8071,1668680398,335644112,,-0.09879818042605837,-0.6160097982720756,0.07088206676343922,0.9955612156868469,0.09352316526210465,-0.004347595386304483,0.009611544820768937
1668680398.344782,8072,1668680398,344405516,,-0.09879818042605837,-0.6160097982720756,0.07088206676343922,0.9955612156868469,0.09352316526210465,-0.004347595386304483,0.009611544820768937
1668680398.3526974,8073,1668680398,352375365,,-0.09879818042605837,-0.6160097982720756,0.07088206676343922,0.9955612156868469,0.09352316526210465,-0.004347595386304483,0.009611544820768937
1668680398.3602226,8074,1668680398,360024006,,-0.09879818042605837,-0.6160097982720756,0.07088206676343922,0.9955612156868469,0.09352316526210465,-0.004347595386304483,0.009611544820768937
1668680398.3690498,8075,1668680398,368703157,,-0.09879818042605837,-0.6160097982720756,0.07088206676343922,0.9955612156868469,0.09352316526210465,-0.004347595386304483,0.009611544820768937
1668680398.3760686,8076,1668680398,375806706,,-0.09879818042605837,-0.6160097982720756,0.07088206676343922,0.9955612156868469,0.09352316526210465,-0.004347595386304483,0.009611544820768937
1668680398.3836377,8077,1668680398,383426917,,-0.09879818042605837,-0.6160097982720756,0.07088206676343922,0.9955612156868469,0.09352316526210465,-0.004347595386304483,0.009611544820768937
1668680398.3918235,8078,1668680398,391627179,,-0.09879818042605837,-0.6160097982720756,0.07088206676343922,0.9955612156868469,0.09352316526210465,-0.004347595386304483,0.009611544820768937
1668680398.3997276,8079,1668680398,399605767,,-0.09879818042605837,-0.6160097982720756,0.07088206676343922,0.9955612156868469,0.09352316526210465,-0.004347595386304483,0.009611544820768937
1668680398.4089346,8080,1668680398,408515452,,-0.09879818042605837,-0.6160097982720756,0.07088206676343922,0.9955612156868469,0.09352316526210465,-0.004347595386304483,0.009611544820768937
1668680398.415462,8081,1668680398,415272498,,-0.09879818042605837,-0.6160097982720756,0.07088206676343922,0.9955612156868469,0.09352316526210465,-0.004347595386304483,0.009611544820768937
1668680398.423835,8082,1668680398,423604803,,-0.09879818042605837,-0.6160097982720756,0.07088206676343922,0.9955612156868469,0.09352316526210465,-0.004347595386304483,0.009611544820768937
1668680398.4318233,8083,1668680398,431603240,,-0.09879818042605837,-0.6160097982720756,0.07088206676343922,0.9955612156868469,0.09352316526210465,-0.004347595386304483,0.009611544820768937
1668680398.440962,8084,1668680398,440557072,,-0.09879818042605837,-0.6160097982720756,0.07088206676343922,0.9955612156868469,0.09352316526210465,-0.004347595386304483,0.009611544820768937
1668680398.4486558,8085,1668680398,448081032,,-0.09879818042605837,-0.6160097982720756,0.07088206676343922,0.9955612156868469,0.09352316526210465,-0.004347595386304483,0.009611544820768937
1668680398.4578648,8086,1668680398,457470026,,-0.09879818042605837,-0.6160097982720756,0.07088206676343922,0.9955612156868469,0.09352316526210465,-0.004347595386304483,0.009611544820768937
1668680398.4646447,8087,1668680398,464428791,,-0.09879818042605837,-0.6160097982720756,0.07088206676343922,0.9955612156868469,0.09352316526210465,-0.004347595386304483,0.009611544820768937
1668680398.4735382,8088,1668680398,473067690,,-0.09879818042605837,-0.6160097982720756,0.07088206676343922,0.9955612156868469,0.09352316526210465,-0.004347595386304483,0.009611544820768937
1668680398.4802587,8089,1668680398,480062073,,-0.09879818042605837,-0.6160097982720756,0.07088206676343922,0.9955612156868469,0.09352316526210465,-0.004347595386304483,0.009611544820768937
1668680398.4876509,8090,1668680398,487472477,,-0.09879818042605837,-0.6160097982720756,0.07088206676343922,0.9955612156868469,0.09352316526210465,-0.004347595386304483,0.009611544820768937
1668680398.495484,8091,1668680398,495261932,,-0.09879818042605837,-0.6160097982720756,0.07088206676343922,0.9955612156868469,0.09352316526210465,-0.004347595386304483,0.009611544820768937
1668680398.504112,8092,1668680398,503889361,,-0.09879818042605837,-0.6160097982720756,0.07088206676343922,0.9955612156868469,0.09352316526210465,-0.004347595386304483,0.009611544820768937
1668680398.511698,8093,1668680398,511552850,,-0.09879818042605837,-0.6160097982720756,0.07088206676343922,0.9955612156868469,0.09352316526210465,-0.004347595386304483,0.009611544820768937
1668680398.51971,8094,1668680398,519575949,,-0.09879818042605837,-0.6160097982720756,0.07088206676343922,0.9955612156868469,0.09352316526210465,-0.004347595386304483,0.009611544820768937
1668680398.5277154,8095,1668680398,527551077,,-0.09879818042605837,-0.6160097982720756,0.07088206676343922,0.9955612156868469,0.09352316526210465,-0.004347595386304483,0.009611544820768937
1668680398.5369248,8096,1668680398,536557037,,-0.09879818042605837,-0.6160097982720756,0.07088206676343922,0.9955612156868469,0.09352316526210465,-0.004347595386304483,0.009611544820768937
1668680398.5436666,8097,1668680398,543396342,,-0.09879818042605837,-0.6160097982720756,0.07088206676343922,0.9955612156868469,0.09352316526210465,-0.004347595386304483,0.009611544820768937
1668680398.5517695,8098,1668680398,551572146,,-0.09879818042605837,-0.6160097982720756,0.07088206676343922,0.9955612156868469,0.09352316526210465,-0.004347595386304483,0.009611544820768937
1668680398.559829,8099,1668680398,559654997,,-0.09879818042605837,-0.6160097982720756,0.07088206676343922,0.9955612156868469,0.09352316526210465,-0.004347595386304483,0.009611544820768937
1668680398.568842,8100,1668680398,568515879,,-0.09879818042605837,-0.6160097982720756,0.07088206676343922,0.9955612156868469,0.09352316526210465,-0.004347595386304483,0.009611544820768937
1668680398.5761712,8101,1668680398,576019058,,-0.09879818042605837,-0.6160097982720756,0.07088206676343922,0.9955612156868469,0.09352316526210465,-0.004347595386304483,0.009611544820768937
1668680398.5844877,8102,1668680398,584286226,,-0.09879818042605837,-0.6160097982720756,0.07088206676343922,0.9955612156868469,0.09352316526210465,-0.004347595386304483,0.009611544820768937
1668680398.591731,8103,1668680398,591486944,,-0.09879818042605837,-0.6160097982720756,0.07088206676343922,0.9955612156868469,0.09352316526210465,-0.004347595386304483,0.009611544820768937
1668680398.6003563,8104,1668680398,600025150,,-0.09879818042605837,-0.6160097982720756,0.07088206676343922,0.9955612156868469,0.09352316526210465,-0.004347595386304483,0.009611544820768937
1668680398.6093547,8105,1668680398,609061138,,-0.09879818042605837,-0.6160097982720756,0.07088206676343922,0.9955612156868469,0.09352316526210465,-0.004347595386304483,0.009611544820768937
1668680398.6157858,8106,1668680398,615581181,,-0.09879818042605837,-0.6160097982720756,0.07088206676343922,0.9955612156868469,0.09352316526210465,-0.004347595386304483,0.009611544820768937
1668680398.6234462,8107,1668680398,623323815,,-0.09879818042605837,-0.6160097982720756,0.07088206676343922,0.9955612156868469,0.09352316526210465,-0.004347595386304483,0.009611544820768937
1668680398.6320648,8108,1668680398,631775149,,-0.09879818042605837,-0.6160097982720756,0.07088206676343922,0.9955612156868469,0.09352316526210465,-0.004347595386304483,0.009611544820768937
1668680398.6397932,8109,1668680398,639553850,,-0.09879818042605837,-0.6160097982720756,0.07088206676343922,0.9955612156868469,0.09352316526210465,-0.004347595386304483,0.009611544820768937
1668680398.6478734,8110,1668680398,647634351,,-0.09879818042605837,-0.6160097982720756,0.07088206676343922,0.9955612156868469,0.09352316526210465,-0.004347595386304483,0.009611544820768937
1668680398.6555023,8111,1668680398,655322780,,-0.09879818042605837,-0.6160097982720756,0.07088206676343922,0.9955612156868469,0.09352316526210465,-0.004347595386304483,0.009611544820768937
1668680398.6641545,8112,1668680398,663812405,,-0.09879818042605837,-0.6160097982720756,0.07088206676343922,0.9955612156868469,0.09352316526210465,-0.004347595386304483,0.009611544820768937
1668680398.6718771,8113,1668680398,671693940,,-0.09879818042605837,-0.6160097982720756,0.07088206676343922,0.9955612156868469,0.09352316526210465,-0.004347595386304483,0.009611544820768937
1668680398.6795938,8114,1668680398,679476589,,-0.09879818042605837,-0.6160097982720756,0.07088206676343922,0.9955612156868469,0.09352316526210465,-0.004347595386304483,0.009611544820768937
1668680398.687577,8115,1668680398,687424020,,-0.09879818042605837,-0.6160097982720756,0.07088206676343922,0.9955612156868469,0.09352316526210465,-0.004347595386304483,0.009611544820768937
1668680398.6959996,8116,1668680398,695624376,,-0.09879818042605837,-0.6160097982720756,0.07088206676343922,0.9955612156868469,0.09352316526210465,-0.004347595386304483,0.009611544820768937
1668680398.70363,8117,1668680398,703506253,,-0.09879818042605837,-0.6160097982720756,0.07088206676343922,0.9955612156868469,0.09352316526210465,-0.004347595386304483,0.009611544820768937
1668680398.711849,8118,1668680398,711685942,,-0.09879818042605837,-0.6160097982720756,0.07088206676343922,0.9955612156868469,0.09352316526210465,-0.004347595386304483,0.009611544820768937
1668680398.7200394,8119,1668680398,719801183,,-0.09879818042605837,-0.6160097982720756,0.07088206676343922,0.9955612156868469,0.09352316526210465,-0.004347595386304483,0.009611544820768937
1668680398.7284522,8120,1668680398,728165560,,-0.09879818042605837,-0.6160097982720756,0.07088206676343922,0.9955612156868469,0.09352316526210465,-0.004347595386304483,0.009611544820768937
1668680398.7355182,8121,1668680398,735301699,,-0.09879818042605837,-0.6160097982720756,0.07088206676343922,0.9955612156868469,0.09352316526210465,-0.004347595386304483,0.009611544820768937
1668680398.7440407,8122,1668680398,743901194,,-0.09879818042605837,-0.6160097982720756,0.07088206676343922,0.9955612156868469,0.09352316526210465,-0.004347595386304483,0.009611544820768937
1668680398.7529755,8123,1668680398,752750981,,-0.09879818042605837,-0.6160097982720756,0.07088206676343922,0.9955612156868469,0.09352316526210465,-0.004347595386304483,0.009611544820768937
1668680398.760274,8124,1668680398,759957494,,-0.09879818042605837,-0.6160097982720756,0.07088206676343922,0.9955612156868469,0.09352316526210465,-0.004347595386304483,0.009611544820768937
1668680398.7677653,8125,1668680398,767611360,,-0.09879818042605837,-0.6160097982720756,0.07088206676343922,0.9955612156868469,0.09352316526210465,-0.004347595386304483,0.009611544820768937
1668680398.7753944,8126,1668680398,775236960,,-0.09879818042605837,-0.6160097982720756,0.07088206676343922,0.9955612156868469,0.09352316526210465,-0.004347595386304483,0.009611544820768937
1668680398.7839496,8127,1668680398,783599387,,-0.09879818042605837,-0.6160097982720756,0.07088206676343922,0.9955612156868469,0.09352316526210465,-0.004347595386304483,0.009611544820768937
1668680398.792435,8128,1668680398,792157767,,-0.09879818042605837,-0.6160097982720756,0.07088206676343922,0.9955612156868469,0.09352316526210465,-0.004347595386304483,0.009611544820768937
1668680398.7998137,8129,1668680398,799656563,,-0.09879818042605837,-0.6160097982720756,0.07088206676343922,0.9955612156868469,0.09352316526210465,-0.004347595386304483,0.009611544820768937
1668680398.807806,8130,1668680398,807598916,,-0.09879818042605837,-0.6160097982720756,0.07088206676343922,0.9955612156868469,0.09352316526210465,-0.004347595386304483,0.009611544820768937
1668680398.8155174,8131,1668680398,815389005,,-0.09879818042605837,-0.6160097982720756,0.07088206676343922,0.9955612156868469,0.09352316526210465,-0.004347595386304483,0.009611544820768937
1668680398.824198,8132,1668680398,823866808,,-0.09879818042605837,-0.6160097982720756,0.07088206676343922,0.9955612156868469,0.09352316526210465,-0.004347595386304483,0.009611544820768937
1668680398.831793,8133,1668680398,831638390,,-0.09879818042605837,-0.6160097982720756,0.07088206676343922,0.9955612156868469,0.09352316526210465,-0.004347595386304483,0.009611544820768937
1668680398.8404455,8134,1668680398,840195438,,-0.09879818042605837,-0.6160097982720756,0.07088206676343922,0.9955612156868469,0.09352316526210465,-0.004347595386304483,0.009611544820768937
1668680398.8476844,8135,1668680398,847528111,,-0.09879818042605837,-0.6160097982720756,0.07088206676343922,0.9955612156868469,0.09352316526210465,-0.004347595386304483,0.009611544820768937
1668680398.8561487,8136,1668680398,855838287,,-0.09879818042605837,-0.6160097982720756,0.07088206676343922,0.9955612156868469,0.09352316526210465,-0.004347595386304483,0.009611544820768937
1668680398.8634837,8137,1668680398,863309141,,-0.09879818042605837,-0.6160097982720756,0.07088206676343922,0.9955612156868469,0.09352316526210465,-0.004347595386304483,0.009611544820768937
1668680398.871839,8138,1668680398,871629657,,-0.09879818042605837,-0.6160097982720756,0.07088206676343922,0.9955612156868469,0.09352316526210465,-0.004347595386304483,0.009611544820768937
1668680398.879706,8139,1668680398,879521703,,-0.09879818042605837,-0.6160097982720756,0.07088206676343922,0.9955612156868469,0.09352316526210465,-0.004347595386304483,0.009611544820768937
1668680398.8885474,8140,1668680398,888339311,,-0.09879818042605837,-0.6160097982720756,0.07088206676343922,0.9955612156868469,0.09352316526210465,-0.004347595386304483,0.009611544820768937
1668680398.8964186,8141,1668680398,896067794,,-0.09879818042605837,-0.6160097982720756,0.07088206676343922,0.9955612156868469,0.09352316526210465,-0.004347595386304483,0.009611544820768937
1668680398.903784,8142,1668680398,903548900,,-0.09879818042605837,-0.6160097982720756,0.07088206676343922,0.9955612156868469,0.09352316526210465,-0.004347595386304483,0.009611544820768937
1668680398.911717,8143,1668680398,911546865,,-0.09879818042605837,-0.6160097982720756,0.07088206676343922,0.9955612156868469,0.09352316526210465,-0.004347595386304483,0.009611544820768937
1668680398.9202056,8144,1668680398,919824053,,-0.09879818042605837,-0.6160097982720756,0.07088206676343922,0.9955612156868469,0.09352316526210465,-0.004347595386304483,0.009611544820768937
1668680398.927667,8145,1668680398,927544970,,-0.09879818042605837,-0.6160097982720756,0.07088206676343922,0.9955612156868469,0.09352316526210465,-0.004347595386304483,0.009611544820768937
1668680398.9360478,8146,1668680398,935863346,,-0.09879818042605837,-0.6160097982720756,0.07088206676343922,0.9955612156868469,0.09352316526210465,-0.004347595386304483,0.009611544820768937
1668680398.9435291,8147,1668680398,943393607,,-0.09879818042605837,-0.6160097982720756,0.07088206676343922,0.9955612156868469,0.09352316526210465,-0.004347595386304483,0.009611544820768937
1668680398.9520702,8148,1668680398,951721279,,-0.09879818042605837,-0.6160097982720756,0.07088206676343922,0.9955612156868469,0.09352316526210465,-0.004347595386304483,0.009611544820768937
1668680398.9598327,8149,1668680398,959714480,,-0.09879818042605837,-0.6160097982720756,0.07088206676343922,0.9955612156868469,0.09352316526210465,-0.004347595386304483,0.009611544820768937
1668680398.9676776,8150,1668680398,967552389,,-0.09879818042605837,-0.6160097982720756,0.07088206676343922,0.9955612156868469,0.09352316526210465,-0.004347595386304483,0.009611544820768937
1668680398.9757109,8151,1668680398,975536909,,-0.09879818042605837,-0.6160097982720756,0.07088206676343922,0.9955612156868469,0.09352316526210465,-0.004347595386304483,0.009611544820768937
1668680398.9841754,8152,1668680398,983949113,,-0.09879739085812189,-0.6160090541218269,0.07088206676343922,0.9955612156868469,0.09352316526210465,-0.004347595386304483,0.009611544820768937
1668680398.9918077,8153,1668680398,991675011,,-0.0987950221592998,-0.6160068216757817,0.07088206676343922,0.9955612156868469,0.09352316526210465,-0.004347595386304483,0.009611544820768937
1668680398.9996355,8154,1668680398,999471380,,-0.09879107434455411,-0.6160031009480429,0.07088206676343922,0.9955612156868469,0.09352316526210465,-0.004347595386304483,0.009611544820768937
1668680399.0080347,8155,1668680399,7767582,,-0.09878554743882131,-0.6159978919621191,0.07088206676343922,0.9955612156868469,0.09352316526210465,-0.004347595386304483,0.009611544820768937
1668680399.0168138,8156,1668680399,15698041,,-0.0987784414770124,-0.6159911947509296,0.07088206676343922,0.9955612156868469,0.09352316526210465,-0.004347595386304483,0.009611544820768937
1668680399.0239925,8157,1668680399,23745118,,-0.09876975650401246,-0.6159830093568123,0.07088206676343922,0.9955612156868469,0.09352316526210465,-0.004347595386304483,0.009611544820768937
1668680399.0338311,8158,1668680399,33407474,,-0.0987594925746805,-0.6159733358315331,0.07088206676343922,0.9955612156868469,0.09352316526210465,-0.004347595386304483,0.009611544820768937
1668680399.0398078,8159,1668680399,39609277,,-0.09874764975384909,-0.6159621742362976,0.07088206676343922,0.9955612156868469,0.09352316526210465,-0.004347595386304483,0.009611544820768937
1668680399.0495062,8160,1668680399,48709382,,-0.09873422811632393,-0.615949524641765,0.07088206676343922,0.9955612156868469,0.09352316526210465,-0.004347595386304483,0.009611544820768937
1668680399.0566235,8161,1668680399,56285416,,-0.09871922774688335,-0.6159353871280643,0.07088206676343922,0.9955612156868469,0.09352316526210465,-0.004347595386304483,0.009611544820768937
1668680399.063393,8162,1668680399,63270536,,-0.09870264874027787,-0.6159197617848122,0.07088206676343922,0.9955612156868469,0.09352316526210465,-0.004347595386304483,0.009611544820768937
1668680399.071567,8163,1668680399,71448372,,-0.09868449120122949,-0.6159026487111336,0.07088206676343922,0.9955612156868469,0.09352316526210465,-0.004347595386304483,0.009611544820768937
1668680399.0809352,8164,1668680399,80555928,,-0.09866475524443108,-0.615884048015684,0.07088206676343922,0.9955612156868469,0.09352316526210465,-0.004347595386304483,0.009611544820768937
1668680399.0877998,8165,1668680399,87666910,,-0.09864344099454567,-0.6158639598166737,0.07088206676343922,0.9955612156868469,0.09352316526210465,-0.004347595386304483,0.009611544820768937
1668680399.0954628,8166,1668680399,95284587,,-0.09862054858620567,-0.6158423842418951,0.07088206676343922,0.9955612156868469,0.09352316526210465,-0.004347595386304483,0.009611544820768937
1668680399.1038604,8167,1668680399,103636502,,-0.09859607816401197,-0.6158193214287508,0.07088206676343922,0.9955612156868469,0.09352316526210465,-0.004347595386304483,0.009611544820768937
1668680399.1122417,8168,1668680399,111948900,,-0.09857002988253305,-0.6157947715242852,0.07088206676343922,0.9955612156868469,0.09352316526210465,-0.004347595386304483,0.009611544820768937
1668680399.1196032,8169,1668680399,119477049,,-0.098542403906304,-0.6157687346852169,0.07088206676343922,0.9955612156868469,0.09352316526210465,-0.004347595386304483,0.009611544820768937
1668680399.1277404,8170,1668680399,127549923,,-0.0985132004098255,-0.6157412110779739,0.07088206676343922,0.9955612156868469,0.09352316526210465,-0.004347595386304483,0.009611544820768937
1668680399.1354315,8171,1668680399,135250247,,-0.09848241957756274,-0.6157122008787316,0.07088206676343922,0.9955612156868469,0.09352316526210465,-0.004347595386304483,0.009611544820768937
1668680399.1446338,8172,1668680399,143874708,,-0.09845006160394415,-0.6156817042734511,0.07088206676343922,0.9955612156868469,0.09352316526210465,-0.004347595386304483,0.009611544820768937
1668680399.1518955,8173,1668680399,151689390,,-0.09841612669336028,-0.6156497214579215,0.07088206676343922,0.9955612156868469,0.09352316526210465,-0.004347595386304483,0.009611544820768937
1668680399.159787,8174,1668680399,159564316,,-0.09838061506016249,-0.615616252637803,0.07088206676343922,0.9955612156868469,0.09352316526210465,-0.004347595386304483,0.009611544820768937
1668680399.167747,8175,1668680399,167557398,,-0.09834352692866155,-0.6155812980286723,0.07088206676343922,0.9955612156868469,0.09352316526210465,-0.004347595386304483,0.009611544820768937
1668680399.176531,8176,1668680399,176196060,,-0.09830486253312626,-0.6155448578560716,0.07088206676343922,0.9955612156868469,0.09352316526210465,-0.004347595386304483,0.009611544820768937
1668680399.1840048,8177,1668680399,183702431,,-0.09826462211778192,-0.6155069323555565,0.07088206676343922,0.9955612156868469,0.09352316526210465,-0.004347595386304483,0.009611544820768937
1668680399.1917953,8178,1668680399,191572673,,-0.0982228059368089,-0.6154675217727498,0.07088206676343922,0.9955612156868469,0.09352316526210465,-0.004347595386304483,0.009611544820768937
1668680399.1996694,8179,1668680399,199533477,,-0.09817941425434093,-0.6154266263633941,0.07088206676343922,0.9955612156868469,0.09352316526210465,-0.004347595386304483,0.009611544820768937
1668680399.208101,8180,1668680399,207789682,,-0.09813444734446342,-0.6153842463934087,0.07088206676343922,0.9955612156868469,0.09352316526210465,-0.004347595386304483,0.009611544820768937
1668680399.2155023,8181,1668680399,215355128,,-0.09808790549121185,-0.6153403821389474,0.07088206676343922,0.9955612156868469,0.09352316526210465,-0.004347595386304483,0.009611544820768937
1668680399.2236218,8182,1668680399,223432737,,-0.09803978898856983,-0.6152950338864587,0.07088206676343922,0.9955612156868469,0.09352316526210465,-0.004347595386304483,0.009611544820768937
1668680399.2317894,8183,1668680399,231624892,,-0.09799009814046739,-0.615248201932748,0.07088206676343922,0.9955612156868469,0.09352316526210465,-0.004347595386304483,0.009611544820768937
1668680399.2405286,8184,1668680399,240011754,,-0.09793883326077887,-0.6151998865850422,0.07088206676343922,0.9955612156868469,0.09352316526210465,-0.004347595386304483,0.009611544820768937
1668680399.247767,8185,1668680399,247633200,,-0.09788599467332115,-0.6151500881610557,0.07088206676343922,0.9955612156868469,0.09352316526210465,-0.004347595386304483,0.009611544820768937
1668680399.2559385,8186,1668680399,255683115,,-0.09783158271185147,-0.6150988069890589,0.07088206676343922,0.9955612156868469,0.09352316526210465,-0.004347595386304483,0.009611544820768937
1668680399.2635615,8187,1668680399,263329596,,-0.09777559772006533,-0.6150460434079489,0.07088206676343922,0.9955612156868469,0.09352316526210465,-0.004347595386304483,0.009611544820768937
1668680399.2728744,8188,1668680399,272513268,,-0.0977180400515944,-0.6149917977673213,0.07088206676343922,0.9955612156868469,0.09352316526210465,-0.004347595386304483,0.009611544820768937
1668680399.280743,8189,1668680399,280517505,,-0.09765891007000416,-0.6149360704275453,0.07088206676343922,0.9955612156868469,0.09352316526210465,-0.004347595386304483,0.009611544820768937
1668680399.288534,8190,1668680399,288335224,,-0.09759820814879172,-0.61487886175984,0.07088206676343922,0.9955612156868469,0.09352316526210465,-0.004347595386304483,0.009611544820768937
1668680399.2964897,8191,1668680399,296321984,,-0.09753593467138338,-0.6148201721463525,0.07088206676343922,0.9955612156868469,0.09352316526210465,-0.004347595386304483,0.009611544820768937
1668680399.3041666,8192,1668680399,303887387,,-0.09747209003113233,-0.6147600019802392,0.07088206676343922,0.9955612156868469,0.09352316526210465,-0.004347595386304483,0.009611544820768937
1668680399.312743,8193,1668680399,312476430,,-0.09740667463131597,-0.6146983516657473,0.07088206676343922,0.9955612156868469,0.09352316526210465,-0.004347595386304483,0.009611544820768937
1668680399.3203862,8194,1668680399,320200761,,-0.09733968888513356,-0.6146352216182998,0.07088206676343922,0.9955612156868469,0.09352316526210465,-0.004347595386304483,0.009611544820768937
1668680399.3279614,8195,1668680399,327640675,,-0.09727113321570341,-0.614570612264582,0.07088206676343922,0.9955612156868469,0.09352316526210465,-0.004347595386304483,0.009611544820768937
1668680399.3360548,8196,1668680399,335801893,,-0.09720100805606047,-0.6145045240426298,0.07088206676343922,0.9955612156868469,0.09352316526210465,-0.004347595386304483,0.009611544820768937
1668680399.3434978,8197,1668680399,343347361,,-0.09712931384915327,-0.6144369574019197,0.07088206676343922,0.9955612156868469,0.09352316526210465,-0.004347595386304483,0.009611544820768937
1668680399.3517416,8198,1668680399,351524478,,-0.09705605104784146,-0.6143679128034619,0.07088206676343922,0.9955612156868469,0.09352316526210465,-0.004347595386304483,0.009611544820768937
1668680399.3596952,8199,1668680399,359493740,,-0.09698122011489269,-0.6142973907198935,0.07088206676343922,0.9955612156868469,0.09352316526210465,-0.004347595386304483,0.009611544820768937
1668680399.36947,8200,1668680399,368494784,,-0.0969048215229798,-0.6142253916355758,0.07088206676343922,0.9955612156868469,0.09352316526210465,-0.004347595386304483,0.009611544820768937
1668680399.375833,8201,1668680399,375627045,,-0.09682685575467781,-0.6141519160466912,0.07088206676343922,0.9955612156868469,0.09352316526210465,-0.004347595386304483,0.009611544820768937
1668680399.3837867,8202,1668680399,383533780,,-0.09674732330246089,-0.6140769644613444,0.07088206676343922,0.9955612156868469,0.09352316526210465,-0.004347595386304483,0.009611544820768937
1668680399.3922985,8203,1668680399,392158728,,-0.09666622466869923,-0.6140005373996638,0.07088206676343922,0.9955612156868469,0.09352316526210465,-0.004347595386304483,0.009611544820768937
1668680399.4008355,8204,1668680399,400416775,,-0.09658356036565591,-0.6139226353939049,0.07088206676343922,0.9955612156868469,0.09352316526210465,-0.004347595386304483,0.009611544820768937
1668680399.4086893,8205,1668680399,408369499,,-0.09649933091548354,-0.6138432589885567,0.07088206676343922,0.9955612156868469,0.09352316526210465,-0.004347595386304483,0.009611544820768937
1668680399.4156365,8206,1668680399,415431796,,-0.09641353685022117,-0.6137624087404491,0.07088206676343922,0.9955612156868469,0.09352316526210465,-0.004347595386304483,0.009611544820768937
1668680399.4239037,8207,1668680399,423727601,,-0.09632617871179067,-0.613680085218862,0.07088206676343922,0.9955612156868469,0.09352316526210465,-0.004347595386304483,0.009611544820768937
1668680399.4321496,8208,1668680399,431855307,,-0.09623725705199357,-0.6135962890056369,0.07088206676343922,0.9955612156868469,0.09352316526210465,-0.004347595386304483,0.009611544820768937
1668680399.4399726,8209,1668680399,439812456,,-0.09614677243250741,-0.6135110206952903,0.07088206676343922,0.9955612156868469,0.09352316526210465,-0.004347595386304483,0.009611544820768937
1668680399.4477022,8210,1668680399,447548218,,-0.09605472542488219,-0.613424280895128,0.07088206676343922,0.9955612156868469,0.09352316526210465,-0.004347595386304483,0.009611544820768937
1668680399.4558868,8211,1668680399,455664829,,-0.09596111661053686,-0.6133360702253626,0.07088206676343922,0.9955612156868469,0.09352316526210465,-0.004347595386304483,0.009611544820768937
1668680399.4642863,8212,1668680399,463879608,,-0.09586594658075553,-0.6132463893192316,0.07088206676343922,0.9955612156868469,0.09352316526210465,-0.004347595386304483,0.009611544820768937
1668680399.4719768,8213,1668680399,471708774,,-0.09576921593668389,-0.6131552388231182,0.07088206676343922,0.9955612156868469,0.09352316526210465,-0.004347595386304483,0.009611544820768937
1668680399.4799664,8214,1668680399,479794852,,-0.09567092528932525,-0.6130626193966732,0.07088206676343922,0.9955612156868469,0.09352316526210465,-0.004347595386304483,0.009611544820768937
1668680399.4876559,8215,1668680399,487531158,,-0.0955710752595367,-0.6129685317129392,0.07088206676343922,0.9955612156868469,0.09352316526210465,-0.004347595386304483,0.009611544820768937
1668680399.496523,8216,1668680399,495855645,,-0.09546966647802535,-0.6128729764584763,0.07088206676343922,0.9955612156868469,0.09352316526210465,-0.004347595386304483,0.009611544820768937
1668680399.5046551,8217,1668680399,504435858,,-0.09536669958534419,-0.6127759543334896,0.07088206676343922,0.9955612156868469,0.09352316526210465,-0.004347595386304483,0.009611544820768937
1668680399.512084,8218,1668680399,511820811,,-0.09526217523188801,-0.6126774660519583,0.07088206676343922,0.9955612156868469,0.09352316526210465,-0.004347595386304483,0.009611544820768937
1668680399.519598,8219,1668680399,519466344,,-0.09515609407788952,-0.6125775123417669,0.07088206676343922,0.9955612156868469,0.09352316526210465,-0.004347595386304483,0.009611544820768937
1668680399.5281448,8220,1668680399,527898148,,-0.09504845679341486,-0.6124760939448378,0.07088206676343922,0.9955612156868469,0.09352316526210465,-0.004347595386304483,0.009611544820768937
1668680399.5354657,8221,1668680399,535323986,,-0.0949392640583597,-0.6123732116172657,0.07088206676343922,0.9955612156868469,0.09352316526210465,-0.004347595386304483,0.009611544820768937
1668680399.543874,8222,1668680399,543661474,,-0.09482851656244462,-0.6122688661294534,0.07088206676343922,0.9955612156868469,0.09352316526210465,-0.004347595386304483,0.009611544820768937
1668680399.5516956,8223,1668680399,551476358,,-0.09471621500521105,-0.6121630582662503,0.07088206676343922,0.9955612156868469,0.09352316526210465,-0.004347595386304483,0.009611544820768937
1668680399.5602782,8224,1668680399,559957745,,-0.09460236009601664,-0.6120557888270909,0.07088206676343922,0.9955612156868469,0.09352316526210465,-0.004347595386304483,0.009611544820768937
1668680399.5677629,8225,1668680399,567557899,,-0.09448695255403086,-0.6119470586261365,0.07088206676343922,0.9955612156868469,0.09352316526210465,-0.004347595386304483,0.009611544820768937
1668680399.5754838,8226,1668680399,575330002,,-0.09436999310823052,-0.6118368684924178,0.07088206676343922,0.9955612156868469,0.09352316526210465,-0.004347595386304483,0.009611544820768937
1668680399.5846474,8227,1668680399,584313181,,-0.09425148249739498,-0.6117252192699789,0.07088206676343922,0.9955612156868469,0.09352316526210465,-0.004347595386304483,0.009611544820768937
1668680399.5920885,8228,1668680399,591780382,,-0.09413142147010173,-0.6116121118180237,0.07088206676343922,0.9955612156868469,0.09352316526210465,-0.004347595386304483,0.009611544820768937
1668680399.5996993,8229,1668680399,599578470,,-0.09400981078472143,-0.6114975470110631,0.07088206676343922,0.9955612156868469,0.09352316526210465,-0.004347595386304483,0.009611544820768937
1668680399.607733,8230,1668680399,607607247,,-0.09388665120941325,-0.6113815257390641,0.07088206676343922,0.9955612156868469,0.09352316526210465,-0.004347595386304483,0.009611544820768937
1668680399.6154878,8231,1668680399,615347782,,-0.09376194352212006,-0.6112640489076009,0.07088206676343922,0.9955612156868469,0.09352316526210465,-0.004347595386304483,0.009611544820768937
1668680399.6240444,8232,1668680399,623831504,,-0.09363568851056334,-0.6111451174380066,0.07088206676343922,0.9955612156868469,0.09352316526210465,-0.004347595386304483,0.009611544820768937
1668680399.6325498,8233,1668680399,632240191,,-0.09350788697223839,-0.611024732267527,0.07088206676343922,0.9955612156868469,0.09352316526210465,-0.004347595386304483,0.009611544820768937
1668680399.6399004,8234,1668680399,639684412,,-0.09337853971440918,-0.6109028943494762,0.07088206676343922,0.9955612156868469,0.09352316526210465,-0.004347595386304483,0.009611544820768937
1668680399.6477375,8235,1668680399,647598740,,-0.09324764755410325,-0.6107796046533932,0.07088206676343922,0.9955612156868469,0.09352316526210465,-0.004347595386304483,0.009611544820768937
1668680399.6559713,8236,1668680399,655678694,,-0.09311521131810671,-0.6106548641652,0.07088206676343922,0.9955612156868469,0.09352316526210465,-0.004347595386304483,0.009611544820768937
1668680399.6637816,8237,1668680399,663529613,,-0.09298123184295873,-0.6105286738873617,0.07088206676343922,0.9955612156868469,0.09352316526210465,-0.004347595386304483,0.009611544820768937
1668680399.6717587,8238,1668680399,671597875,,-0.09284570997494651,-0.610401034839047,0.07088206676343922,0.9955612156868469,0.09352316526210465,-0.004347595386304483,0.009611544820768937
1668680399.67977,8239,1668680399,679588693,,-0.09270864657009983,-0.6102719480562916,0.07088206676343922,0.9955612156868469,0.09352316526210465,-0.004347595386304483,0.009611544820768937
1668680399.6880271,8240,1668680399,687768967,,-0.09257004249418563,-0.6101414145921621,0.07088206676343922,0.9955612156868469,0.09352316526210465,-0.004347595386304483,0.009611544820768937
1668680399.695674,8241,1668680399,695510566,,-0.09242989862270262,-0.6100094355169208,0.07088206676343922,0.9955612156868469,0.09352316526210465,-0.004347595386304483,0.009611544820768937
1668680399.703484,8242,1668680399,703284520,,-0.09228821584087563,-0.6098760119181932,0.07088206676343922,0.9955612156868469,0.09352316526210465,-0.004347595386304483,0.009611544820768937
1668680399.7116826,8243,1668680399,711549386,,-0.09214499504365012,-0.609741144901136,0.07088206676343922,0.9955612156868469,0.09352316526210465,-0.004347595386304483,0.009611544820768937
1668680399.7201755,8244,1668680399,719899229,,-0.0920002371356865,-0.6096048355886066,0.07088206676343922,0.9955612156868469,0.09352316526210465,-0.004347595386304483,0.009611544820768937
1668680399.7279203,8245,1668680399,727741103,,-0.09185394303135438,-0.609467085121334,0.07088206676343922,0.9955612156868469,0.09352316526210465,-0.004347595386304483,0.009611544820768937
1668680399.735693,8246,1668680399,735554389,,-0.0917061136547268,-0.6093278946580911,0.07088206676343922,0.9955612156868469,0.09352316526210465,-0.004347595386304483,0.009611544820768937
1668680399.7434857,8247,1668680399,743337017,,-0.09155674993957452,-0.6091872653758683,0.07088206676343922,0.9955612156868469,0.09352316526210465,-0.004347595386304483,0.009611544820768937
1668680399.7524748,8248,1668680399,752204977,,-0.09140585282935987,-0.6090451984700479,0.07088206676343922,0.9955612156868469,0.09352316526210465,-0.004347595386304483,0.009611544820768937
1668680399.7601578,8249,1668680399,759589215,,-0.09125342327723104,-0.6089016951545805,0.07088206676343922,0.9955612156868469,0.09352316526210465,-0.004347595386304483,0.009611544820768937
1668680399.768199,8250,1668680399,767986762,,-0.09109946224601595,-0.6087567566621623,0.07088206676343922,0.9955612156868469,0.09352316526210465,-0.004347595386304483,0.009611544820768937
1668680399.7758172,8251,1668680399,775644195,,-0.09094397070821611,-0.6086103842444135,0.07088206676343922,0.9955612156868469,0.09352316526210465,-0.004347595386304483,0.009611544820768937
1668680399.7836924,8252,1668680399,783436064,,-0.09078694964600059,-0.6084625791720581,0.07088206676343922,0.9955612156868469,0.09352316526210465,-0.004347595386304483,0.009611544820768937
1668680399.7916791,8253,1668680399,791523808,,-0.09062840005119976,-0.608313342735105,0.07088206676343922,0.9955612156868469,0.09352316526210465,-0.004347595386304483,0.009611544820768937
1668680399.7996864,8254,1668680399,799514960,,-0.09046832292529908,-0.6081626762430296,0.07088206676343922,0.9955612156868469,0.09352316526210465,-0.004347595386304483,0.009611544820768937
1668680399.8078125,8255,1668680399,807650317,,-0.0903067192794326,-0.6080105810249574,0.07088206676343922,0.9955612156868469,0.09352316526210465,-0.004347595386304483,0.009611544820768937
1668680399.816535,8256,1668680399,815437028,,-0.09014359013437681,-0.6078570584298487,0.07088206676343922,0.9955612156868469,0.09352316526210465,-0.004347595386304483,0.009611544820768937
1668680399.823757,8257,1668680399,823631885,,-0.08997893652054403,-0.6077021098266836,0.07088206676343922,0.9955612156868469,0.09352316526210465,-0.004347595386304483,0.009611544820768937
1668680399.8318875,8258,1668680399,831645539,,-0.08981275947797604,-0.6075457366046487,0.07088206676343922,0.9955612156868469,0.09352316526210465,-0.004347595386304483,0.009611544820768937
1668680399.8395998,8259,1668680399,839471190,,-0.08964506005633727,-0.6073879401733248,0.07088206676343922,0.9955612156868469,0.09352316526210465,-0.004347595386304483,0.009611544820768937
1668680399.8481905,8260,1668680399,847930136,,-0.08947583931490846,-0.6072287219628757,0.07088206676343922,0.9955612156868469,0.09352316526210465,-0.004347595386304483,0.009611544820768937
1668680399.8555694,8261,1668680399,855334065,,-0.0893050983225798,-0.607068083424238,0.07088206676343922,0.9955612156868469,0.09352316526210465,-0.004347595386304483,0.009611544820768937
1668680399.8637989,8262,1668680399,863599036,,-0.08913283815784415,-0.6069060260293114,0.07088206676343922,0.9955612156868469,0.09352316526210465,-0.004347595386304483,0.009611544820768937
1668680399.8717647,8263,1668680399,871623349,,-0.08895905990879036,-0.6067425512711511,0.07088206676343922,0.9955612156868469,0.09352316526210465,-0.004347595386304483,0.009611544820768937
1668680399.8802438,8264,1668680399,879984787,,-0.08878376467309626,-0.6065776606641601,0.07088206676343922,0.9955612156868469,0.09352316526210465,-0.004347595386304483,0.009611544820768937
1668680399.887704,8265,1668680399,887544726,,-0.08860695355802187,-0.6064113557442827,0.07088206676343922,0.9955612156868469,0.09352316526210465,-0.004347595386304483,0.009611544820768937
1668680399.8957314,8266,1668680399,895526478,,-0.0884286276804023,-0.6062436380692,0.07088206676343922,0.9955612156868469,0.09352316526210465,-0.004347595386304483,0.009611544820768937
1668680399.9041727,8267,1668680399,903967035,,-0.08824878816664067,-0.6060745092185242,0.07088206676343922,0.9955612156868469,0.09352316526210465,-0.004347595386304483,0.009611544820768937
1668680399.9124324,8268,1668680399,912058236,,-0.0880674361527011,-0.6059039707939956,0.07088206676343922,0.9955612156868469,0.09352316526210465,-0.004347595386304483,0.009611544820768937
1668680399.919964,8269,1668680399,919740435,,-0.0878845727841015,-0.60573202441968,0.07088206676343922,0.9955612156868469,0.09352316526210465,-0.004347595386304483,0.009611544820768937
1668680399.9278462,8270,1668680399,927641377,,-0.08770019921590627,-0.6055586717421664,0.07088206676343922,0.9955612156868469,0.09352316526210465,-0.004347595386304483,0.009611544820768937
1668680399.9356627,8271,1668680399,935486972,,-0.08751431661271905,-0.6053839144307661,0.07088206676343922,0.9955612156868469,0.09352316526210465,-0.004347595386304483,0.009611544820768937
1668680399.9440508,8272,1668680399,943642535,,-0.08732692614867543,-0.6052077541777126,0.07088206676343922,0.9955612156868469,0.09352316526210465,-0.004347595386304483,0.009611544820768937
1668680399.9518492,8273,1668680399,951563800,,-0.08713802900743542,-0.6050301926983613,0.07088206676343922,0.9955612156868469,0.09352316526210465,-0.004347595386304483,0.009611544820768937
1668680399.9600096,8274,1668680399,959818781,,-0.08694762638217601,-0.604851231731392,0.07088206676343922,0.9955612156868469,0.09352316526210465,-0.004347595386304483,0.009611544820768937
1668680399.9680564,8275,1668680399,967725091,,-0.08675571947558366,-0.6046708730390096,0.07088206676343922,0.9955612156868469,0.09352316526210465,-0.004347595386304483,0.009611544820768937
1668680399.9766896,8276,1668680399,976449850,,-0.0865623094998467,-0.6044891184071473,0.07088206676343922,0.9955612156868469,0.09352316526210465,-0.004347595386304483,0.009611544820768937
1668680399.9837906,8277,1668680399,983452761,,-0.08636739767664767,-0.6043059696456701,0.07088206676343922,0.9955612156868469,0.09352316526210465,-0.004347595386304483,0.009611544820768937
1668680399.991693,8278,1668680399,991538536,,-0.08617098523715555,-0.6041214285885785,0.07088206676343922,0.9955612156868469,0.09352316526210465,-0.004347595386304483,0.009611544820768937
1668680399.9996383,8279,1668680399,999437520,,-0.08597307342201807,-0.6039354970942135,0.07088206676343922,0.9955612156868469,0.09352316526210465,-0.004347595386304483,0.009611544820768937
1668680400.0081744,8280,1668680400,7915219,,-0.08577366348135385,-0.6037481770454612,0.07088206676343922,0.9955612156868469,0.09352316526210465,-0.004347595386304483,0.009611544820768937
1668680400.01647,8281,1668680400,16312633,,-0.08557275667474437,-0.6035594703499592,0.07088206676343922,0.9955612156868469,0.09352316526210465,-0.004347595386304483,0.009611544820768937
1668680400.0234678,8282,1668680400,23277153,,-0.0853703542712263,-0.6033693789403028,0.07088206676343922,0.9955612156868469,0.09352316526210465,-0.004347595386304483,0.009611544820768937
1668680400.0318441,8283,1668680400,31705253,,-0.08516645754928318,-0.6031779047742521,0.07088206676343922,0.9955612156868469,0.09352316526210465,-0.004347595386304483,0.009611544820768937
1668680400.0403566,8284,1668680400,40032040,,-0.08496106779683751,-0.6029850498349392,0.07088206676343922,0.9955612156868469,0.09352316526210465,-0.004347595386304483,0.009611544820768937
1668680400.047922,8285,1668680400,47716189,,-0.08475418631124262,-0.6027908161310759,0.07088206676343922,0.9955612156868469,0.09352316526210465,-0.004347595386304483,0.009611544820768937
1668680400.0561035,8286,1668680400,55881120,,-0.08454581439927442,-0.602595205697163,0.07088206676343922,0.9955612156868469,0.09352316526210465,-0.004347595386304483,0.009611544820768937
1668680400.0646038,8287,1668680400,64313437,,-0.08433595337712313,-0.6023982205936982,0.07088206676343922,0.9955612156868469,0.09352316526210465,-0.004347595386304483,0.009611544820768937
1668680400.072132,8288,1668680400,71837009,,-0.08412460457038504,-0.6021998629073859,0.07088206676343922,0.9955612156868469,0.09352316526210465,-0.004347595386304483,0.009611544820768937
1668680400.079916,8289,1668680400,79703763,,-0.08391176931405406,-0.6020001347513468,0.07088206676343922,0.9955612156868469,0.09352316526210465,-0.004347595386304483,0.009611544820768937
1668680400.0879953,8290,1668680400,87812453,,-0.08369744895251338,-0.6017990382653278,0.07088206676343922,0.9955612156868469,0.09352316526210465,-0.004347595386304483,0.009611544820768937
1668680400.0954933,8291,1668680400,95255447,,-0.08348164483952683,-0.6015965756159121,0.07088206676343922,0.9955612156868469,0.09352316526210465,-0.004347595386304483,0.009611544820768937
1668680400.1040611,8292,1668680400,103786295,,-0.08326435833823051,-0.6013927489967305,0.07088206676343922,0.9955612156868469,0.09352316526210465,-0.004347595386304483,0.009611544820768937
1668680400.1119754,8293,1668680400,111784599,,-0.08304559082112406,-0.601187560628672,0.07088206676343922,0.9955612156868469,0.09352316526210465,-0.004347595386304483,0.009611544820768937
1668680400.1197107,8294,1668680400,119551625,,-0.082825343670062,-0.600981012760095,0.07088206676343922,0.9955612156868469,0.09352316526210465,-0.004347595386304483,0.009611544820768937
1668680400.127791,8295,1668680400,127624398,,-0.08260361827624507,-0.600773107667039,0.07088206676343922,0.9955612156868469,0.09352316526210465,-0.004347595386304483,0.009611544820768937
1668680400.1362522,8296,1668680400,135935353,,-0.08238041604021132,-0.6005638476534356,0.07088206676343922,0.9955612156868469,0.09352316526210465,-0.004347595386304483,0.009611544820768937
1668680400.1446097,8297,1668680400,144390218,,-0.08215573837182741,-0.6003532350513218,0.07088206676343922,0.9955612156868469,0.09352316526210465,-0.004347595386304483,0.009611544820768937
1668680400.1523182,8298,1668680400,152086691,,-0.08192958669027958,-0.6001412722210501,0.07088206676343922,0.9955612156868469,0.09352316526210465,-0.004347595386304483,0.009611544820768937
1668680400.1603134,8299,1668680400,160149425,,-0.08170196242406477,-0.5999279615515024,0.07088206676343922,0.9955612156868469,0.09352316526210465,-0.004347595386304483,0.009611544820768937
1668680400.1688488,8300,1668680400,168449447,,-0.08147286701098158,-0.5997133054603013,0.07088206676343922,0.9955612156868469,0.09352316526210465,-0.004347595386304483,0.009611544820768937
1668680400.1758082,8301,1668680400,175632424,,-0.08124230189812115,-0.5994973063940227,0.07088206676343922,0.9955612156868469,0.09352316526210465,-0.004347595386304483,0.009611544820768937
1668680400.1835165,8302,1668680400,183387322,,-0.08101026854185803,-0.599279966828408,0.07088206676343922,0.9955612156868469,0.09352316526210465,-0.004347595386304483,0.009611544820768937
1668680400.191834,8303,1668680400,191611410,,-0.08077676840784098,-0.5990612892685768,0.07088206676343922,0.9955612156868469,0.09352316526210465,-0.004347595386304483,0.009611544820768937
1668680400.2003336,8304,1668680400,199826233,,-0.08054180297098379,-0.5988412762492396,0.07088206676343922,0.9955612156868469,0.09352316526210465,-0.004347595386304483,0.009611544820768937
1668680400.2081268,8305,1668680400,207893533,,-0.08030537371545585,-0.5986199303349089,0.07088206676343922,0.9955612156868469,0.09352316526210465,-0.004347595386304483,0.009611544820768937
1668680400.219896,8306,1668680400,219076867,,-0.08006748213467282,-0.5983972541201134,0.07088206676343922,0.9955612156868469,0.09352316526210465,-0.004347595386304483,0.009611544820768937
1668680400.2266765,8307,1668680400,225892486,,-0.07982812973128722,-0.5981732502296085,0.07088206676343922,0.9955612156868469,0.09352316526210465,-0.004347595386304483,0.009611544820768937
1668680400.2373316,8308,1668680400,236441876,,-0.07958731801717894,-0.5979479213185899,0.07088206676343922,0.9955612156868469,0.09352316526210465,-0.004347595386304483,0.009611544820768937
1668680400.2433472,8309,1668680400,243031234,,-0.07934504851344565,-0.5977212700729042,0.07088206676343922,0.9955612156868469,0.09352316526210465,-0.004347595386304483,0.009611544820768937
1668680400.2489216,8310,1668680400,248587350,,-0.07910132275039317,-0.5974932992092618,0.07088206676343922,0.9955612156868469,0.09352316526210465,-0.004347595386304483,0.009611544820768937
1668680400.2558253,8311,1668680400,255597161,,-0.07885614226752588,-0.5972640114754482,0.07088206676343922,0.9955612156868469,0.09352316526210465,-0.004347595386304483,0.009611544820768937
1668680400.2641048,8312,1668680400,263826029,,-0.078609508613537,-0.5970334096505351,0.07088206676343922,0.9955612156868469,0.09352316526210465,-0.004347595386304483,0.009611544820768937
1668680400.2717617,8313,1668680400,271564324,,-0.07836142334629873,-0.5968014965450921,0.07088206676343922,0.9955612156868469,0.09352316526210465,-0.004347595386304483,0.009611544820768937
1668680400.2797647,8314,1668680400,279558774,,-0.0781118880328524,-0.596568275001397,0.07088206676343922,0.9955612156868469,0.09352316526210465,-0.004347595386304483,0.009611544820768937
1668680400.2877696,8315,1668680400,287565878,,-0.07786090424939873,-0.5963337478936466,0.07088206676343922,0.9955612156868469,0.09352316526210465,-0.004347595386304483,0.009611544820768937
1668680400.2957983,8316,1668680400,295566558,,-0.07760847358128767,-0.5960979181281673,0.07088206676343922,0.9955612156868469,0.09352316526210465,-0.004347595386304483,0.009611544820768937
1668680400.303983,8317,1668680400,303709742,,-0.07735459762300853,-0.5958607886436242,0.07088206676343922,0.9955612156868469,0.09352316526210465,-0.004347595386304483,0.009611544820768937
1668680400.311819,8318,1668680400,311607158,,-0.07709927797817984,-0.5956223624112312,0.07088206676343922,0.9955612156868469,0.09352316526210465,-0.004347595386304483,0.009611544820768937
1668680400.319572,8319,1668680400,319451338,,-0.07684251625953925,-0.5953826424349598,0.07088206676343922,0.9955612156868469,0.09352316526210465,-0.004347595386304483,0.009611544820768937
1668680400.3283699,8320,1668680400,328085388,,-0.07658431408893329,-0.5951416317517472,0.07088206676343922,0.9955612156868469,0.09352316526210465,-0.004347595386304483,0.009611544820768937
1668680400.3354492,8321,1668680400,335241537,,-0.0763246730973072,-0.5948993334317053,0.07088206676343922,0.9955612156868469,0.09352316526210465,-0.004347595386304483,0.009611544820768937
1668680400.3437169,8322,1668680400,343481568,,-0.07606359492469464,-0.5946557505783279,0.07088206676343922,0.9955612156868469,0.09352316526210465,-0.004347595386304483,0.009611544820768937
1668680400.3518116,8323,1668680400,351605914,,-0.0758010812202072,-0.5944108863286973,0.07088206676343922,0.9955612156868469,0.09352316526210465,-0.004347595386304483,0.009611544820768937
1668680400.3601174,8324,1668680400,359806000,,-0.07553713364202416,-0.5941647438536912,0.07088206676343922,0.9955612156868469,0.09352316526210465,-0.004347595386304483,0.009611544820768937
1668680400.3677573,8325,1668680400,367635367,,-0.07527175385738183,-0.5939173263581887,0.07088206676343922,0.9955612156868469,0.09352316526210465,-0.004347595386304483,0.009611544820768937
1668680400.3754468,8326,1668680400,375286444,,-0.07500494354256318,-0.593668637081275,0.07088206676343922,0.9955612156868469,0.09352316526210465,-0.004347595386304483,0.009611544820768937
1668680400.384052,8327,1668680400,383741849,,-0.07473670438288715,-0.5934186792964464,0.07088206676343922,0.9955612156868469,0.09352316526210465,-0.004347595386304483,0.009611544820768937
1668680400.39214,8328,1668680400,391887855,,-0.07446703807269808,-0.5931674563118142,0.07088206676343922,0.9955612156868469,0.09352316526210465,-0.004347595386304483,0.009611544820768937
1668680400.3997216,8329,1668680400,399562022,,-0.07419594631535495,-0.5929149714703075,0.07088206676343922,0.9955612156868469,0.09352316526210465,-0.004347595386304483,0.009611544820768937
1668680400.4076207,8330,1668680400,407486899,,-0.07392343082322061,-0.5926612281498757,0.07088206676343922,0.9955612156868469,0.09352316526210465,-0.004347595386304483,0.009611544820768937
1668680400.415651,8331,1668680400,415495993,,-0.07364949331765103,-0.5924062297636905,0.07088206676343922,0.9955612156868469,0.09352316526210465,-0.004347595386304483,0.009611544820768937
1668680400.4242008,8332,1668680400,423619991,,-0.07337413552898439,-0.5921499797603462,0.07088206676343922,0.9955612156868469,0.09352316526210465,-0.004347595386304483,0.009611544820768937
1668680400.4315736,8333,1668680400,431433033,,-0.07309735919653015,-0.5918924816240603,0.07088206676343922,0.9955612156868469,0.09352316526210465,-0.004347595386304483,0.009611544820768937
1668680400.439868,8334,1668680400,439734207,,-0.07281916606855801,-0.5916337388748715,0.07088206676343922,0.9955612156868469,0.09352316526210465,-0.004347595386304483,0.009611544820768937
1668680400.4475992,8335,1668680400,447425680,,-0.072539557902287,-0.5913737550688392,0.07088206676343922,0.9955612156868469,0.09352316526210465,-0.004347595386304483,0.009611544820768937
1668680400.4557798,8336,1668680400,455457844,,-0.07225853646387423,-0.5911125337982398,0.07088206676343922,0.9955612156868469,0.09352316526210465,-0.004347595386304483,0.009611544820768937
1668680400.4636192,8337,1668680400,463515501,,-0.07197610352840386,-0.5908500786917635,0.07088206676343922,0.9955612156868469,0.09352316526210465,-0.004347595386304483,0.009611544820768937
1668680400.4716983,8338,1668680400,471499321,,-0.07169226087987579,-0.5905863934147094,0.07088206676343922,0.9955612156868469,0.09352316526210465,-0.004347595386304483,0.009611544820768937
1668680400.4796023,8339,1668680400,479447010,,-0.07140701031119448,-0.5903214816691799,0.07088206676343922,0.9955612156868469,0.09352316526210465,-0.004347595386304483,0.009611544820768937
1668680400.4885285,8340,1668680400,488260177,,-0.07112035362415756,-0.5900553471942735,0.07088206676343922,0.9955612156868469,0.09352316526210465,-0.004347595386304483,0.009611544820768937
1668680400.49545,8341,1668680400,495264730,,-0.0708322926294444,-0.5897879937662778,0.07088206676343922,0.9955612156868469,0.09352316526210465,-0.004347595386304483,0.009611544820768937
1668680400.503861,8342,1668680400,503620514,,-0.07054282914660487,-0.5895194251988592,0.07088206676343922,0.9955612156868469,0.09352316526210465,-0.004347595386304483,0.009611544820768937
1668680400.5117257,8343,1668680400,511545424,,-0.07025196500404762,-0.5892496453432545,0.07088206676343922,0.9955612156868469,0.09352316526210465,-0.004347595386304483,0.009611544820768937
1668680400.5202868,8344,1668680400,519847367,,-0.06995970203902865,-0.5889786580884578,0.07088206676343922,0.9955612156868469,0.09352316526210465,-0.004347595386304483,0.009611544820768937
1668680400.5280573,8345,1668680400,527775415,,-0.06966604209763971,-0.5887064673614092,0.07088206676343922,0.9955612156868469,0.09352316526210465,-0.004347595386304483,0.009611544820768937
1668680400.535489,8346,1668680400,535334596,,-0.06937098703479658,-0.5884330771271805,0.07088206676343922,0.9955612156868469,0.09352316526210465,-0.004347595386304483,0.009611544820768937
