Time,header.seq,header.stamp.secs,header.stamp.nsecs,header.frame_id,twist.linear.x,twist.linear.y,twist.linear.z,twist.angular.x,twist.angular.y,twist.angular.z
1668680495.0954607,20166,1668680495,95274456,,-1.9674633639963597e-05,1.656928501022572e-09,-9.268571333602067e-12,1.512161888548482e-06,-5.255601525605804e-07,-6.876306001439228e-09
1668680495.1038666,20167,1668680495,103753533,,-1.8274588808596635e-05,1.6187409564132934e-09,-9.086336575862892e-12,1.5015380353620083e-06,-5.190348936404873e-07,-6.801773633748417e-09
1668680495.1117656,20168,1668680495,111644204,,-1.694911801770849e-05,1.5804416597763886e-09,-8.895546920947082e-12,1.490806293281478e-06,-5.124949846578533e-07,-6.726962107555872e-09
1668680495.1196392,20169,1668680495,119530286,,-1.5694943536178722e-05,1.5421081234342428e-09,-8.697578852841675e-12,1.479968892432138e-06,-5.059413789282657e-07,-6.65188321756499e-09
1668680495.1278088,20170,1668680495,127667268,,-1.4508905978674618e-05,1.5038123602652007e-09,-8.493593546983267e-12,1.469028058746377e-06,-4.993750239490777e-07,-6.576548701660198e-09
1668680495.1362545,20171,1668680495,136105277,,-1.3387961186785518e-05,1.4656213737272587e-09,-8.284704110747239e-12,1.4579860137094534e-06,-4.927968613340118e-07,-6.500970226544663e-09
1668680495.1437562,20172,1668680495,143633306,,-1.232917712967172e-05,1.4275971480806869e-09,-8.072009783873466e-12,1.446844974116974e-06,-4.862078267293202e-07,-6.4251593993277015e-09
1668680495.1524408,20173,1668680495,152274934,,-1.1329730828056488e-05,1.3897968900869513e-09,-7.85639137494037e-12,1.4356071518262259e-06,-4.796088497510236e-07,-6.3491277692730565e-09
1668680495.1601763,20174,1668680495,160072845,,-1.0386905306373141e-05,1.3522734471141298e-09,-7.63880562049566e-12,1.4242747535098544e-06,-4.7300085391230815e-07,-6.272886822648936e-09
1668680495.1686213,20175,1668680495,168499145,,-9.49808657657055e-06,1.31507528493451e-09,-7.419988034667978e-12,1.4128499804207692e-06,-4.663847565431556e-07,-6.196447981857264e-09
1668680495.1762872,20176,1668680495,176115728,,-8.660760656984821e-06,1.2782466897892796e-09,-7.200665507290571e-12,1.4013350281510735e-06,-4.5976146873724325e-07,-6.119822599497674e-09
1668680495.18362,20177,1668680495,183475604,,-7.872510629620959e-06,1.241828313449665e-09,-6.981601373318989e-12,1.389732086404522e-06,-4.5313189527644786e-07,-6.043021963259969e-09
1668680495.1916654,20178,1668680495,191534116,,-7.13101373843173e-06,1.2058567742669778e-09,-6.763263950708282e-12,1.3780433387533272e-06,-4.464969345674984e-07,-5.966057296806734e-09
1668680495.20086,20179,1668680495,200496198,,-6.434038531151555e-06,1.170365497458983e-09,-6.546291563778688e-12,1.3662709624235523e-06,-4.3985747858045805e-07,-5.88893975516886e-09
1668680495.208476,20180,1668680495,208341538,,-5.779442046761817e-06,1.1353843957141231e-09,-6.331188115994455e-12,1.3544171280452284e-06,-4.3321441278022155e-07,-5.8116804176846815e-09
1668680495.2161005,20181,1668680495,215912873,,-5.165167050778157e-06,1.100940371616363e-09,-6.118320225649319e-12,1.3424839994485854e-06,-4.265686160683209e-07,-5.734290301715131e-09
1668680495.2246344,20182,1668680495,224467004,,-4.589239319721711e-06,1.0670572071738405e-09,-5.9082054865745955e-12,1.3304737334371375e-06,-4.199209607281807e-07,-5.656780348545725e-09
1668680495.2324402,20183,1668680495,232298693,,-4.049764976598644e-06,1.0337559022184975e-09,-5.70108304116467e-12,1.3183884795481512e-06,-4.1327231234987e-07,-5.57916142898799e-09
1668680495.2400193,20184,1668680495,239880586,,-3.544927878217756e-06,1.001054932832332e-09,-5.497295309445035e-12,1.3062303798670175e-06,-4.066235297877631e-07,-5.501444349557726e-09
1668680495.2477214,20185,1668680495,247592069,,-3.07298705573583e-06,9.68970217056422e-10,-5.297153281264762e-12,1.2940015687952074e-06,-3.99975465100092e-07,-5.423639831388113e-09
1668680495.2555935,20186,1668680495,255424832,,-2.6322742090555413e-06,9.375153312880552e-10,-5.100918691204265e-12,1.2817041728474743e-06,-3.9332896349608347e-07,-5.34575853128696e-09
1668680495.2637887,20187,1668680495,263676593,,-2.2211912560683264e-06,9.067016560633602e-10,-4.9086986498369645e-12,1.2693403104162686e-06,-3.8668486326844346e-07,-5.267811026227522e-09
1668680495.2716393,20188,1668680495,271512443,,-1.8382079366285664e-06,8.765385114865978e-10,-4.720721715287186e-12,1.2569120916063078e-06,-3.8004399575966604e-07,-5.189807816521494e-09
1668680495.2798166,20189,1668680495,279609252,,-1.481859472509668e-06,8.47033310424224e-10,-4.537170987747419e-12,1.2444216180047073e-06,-3.7340718530139636e-07,-5.111759328588802e-09
1668680495.2877886,20190,1668680495,287616635,,-1.1507442827268457e-06,8.181916731661661e-10,-4.358092154788816e-12,1.2318709824778054e-06,-3.667752491645579e-07,-5.0336759147682956e-09
1668680495.2955236,20191,1668680495,295408747,,-8.435217549780473e-07,7.900175886840953e-10,-4.183633987921208e-12,1.2192622689933865e-06,-3.6014899751429047e-07,-4.955567842761809e-09
1668680495.303856,20192,1668680495,303719226,,-5.589100727104119e-07,7.625133722847283e-10,-4.013797370505132e-12,1.2065975523962547e-06,-3.535292333569468e-07,-4.877445313699788e-09
1668680495.3119216,20193,1668680495,311800169,,-2.9568409800917273e-07,7.356799833784168e-10,-3.848724541220154e-12,1.1938788982461194e-06,-3.469167524993206e-07,-4.799318441321534e-09
1668680495.319851,20194,1668680495,319743491,,-5.2673309898204074e-08,7.095170722158651e-10,-3.68838689004094e-12,1.1811083625977574e-06,-3.4031234350342724e-07,-4.721197261997276e-09
1668680495.3281198,20195,1668680495,327975659,,1.7124020208619453e-07,6.840228593369445e-10,-3.532817867700609e-12,1.1682879918340802e-06,-3.337167876398687e-07,-4.643091728018687e-09
1668680495.3362684,20196,1668680495,336048245,,3.7712368974024075e-07,6.591946001869939e-10,-3.382015860218131e-12,1.155419822479232e-06,-3.271308588481041e-07,-4.5650117132243485e-09
1668680495.3435407,20197,1668680495,343375612,,5.659956435591095e-07,6.350284656348198e-10,-3.2359506467828278e-12,1.1425058810033982e-06,-3.205553236927107e-07,-4.486967005489586e-09
1668680495.3517354,20198,1668680495,351623262,,7.388276365441123e-07,6.115196515802915e-10,-3.094610401322317e-12,1.1295481836630795e-06,-3.139909413306296e-07,-4.408967316615128e-09
1668680495.3597322,20199,1668680495,359593148,,8.965461147385423e-07,5.886623981466882e-10,-2.9579422711639813e-12,1.116548736300147e-06,-3.074384634620954e-07,-4.3310222701541585e-09
1668680495.3676095,20200,1668680495,367496843,,1.04003413529432e-06,5.66450144646558e-10,-2.8259277383794285e-12,1.1035095341849744e-06,-3.008986343039956e-07,-4.2531414143842545e-09
1668680495.3754413,20201,1668680495,375234586,,1.1701330530195584e-06,5.448756999194603e-10,-2.6984945380973483e-12,1.090432561845859e-06,-2.943721905492125e-07,-4.1753342052593665e-09
1668680495.3838613,20202,1668680495,383705431,,1.2876441556344215e-06,5.239312351448175e-10,-2.5755724933235287e-12,1.077319792892197e-06,-2.878598613312266e-07,-4.097610017642111e-09
1668680495.391912,20203,1668680495,391752672,,1.3933302490736861e-06,5.036080859211416e-10,-2.4570867087330535e-12,1.064173189853189e-06,-2.813623681918742e-07,-4.019978144017761e-09
1668680495.3999045,20204,1668680495,399700460,,1.4879171932734665e-06,4.83897200103876e-10,-2.3429889390782894e-12,1.0509947040105303e-06,-2.748804250497818e-07,-3.942447788763013e-09
1668680495.4078267,20205,1668680495,407660735,,1.5720953896007995e-06,4.647890846915975e-10,-2.2331735199213165e-12,1.0377862752397162e-06,-2.684147381642081e-07,-3.865028070741079e-09
1668680495.4154344,20206,1668680495,415246404,,1.6465212207491457e-06,4.462737298239278e-10,-2.1275060988012697e-12,1.0245498318502573e-06,-2.619660061140549e-07,-3.787728013958494e-09
1668680495.4242892,20207,1668680495,424092269,,1.711818443812528e-06,4.2834084019757887e-10,-2.0259082308199846e-12,1.0112872904411903e-06,-2.5553491976703065e-07,-3.710556568393654e-09
1668680495.4319017,20208,1668680495,431726139,,1.7685795376901846e-06,4.1097980177565206e-10,-1.928288059121435e-12,9.980005557439256e-07,-2.491221622464182e-07,-3.633522586945662e-09
1668680495.4396408,20209,1668680495,439477280,,1.817367005864369e-06,3.9417959658518213e-10,-1.8345347068101385e-12,9.84691520456573e-07,-2.4272840891145695e-07,-3.5566348449834245e-09
1668680495.4478772,20210,1668680495,447724999,,1.8587146351546228e-06,3.7792899822879817e-10,-1.744567861623139e-12,9.713620651181453e-07,-2.3635432732887846e-07,-3.4799020255657743e-09
1668680495.4561381,20211,1668680495,455988800,,1.893128711838539e-06,3.6221669714520315e-10,-1.6582807271177555e-12,9.580140579602584e-07,-2.3000057725136406e-07,-3.403332721958852e-09
1668680495.464285,20212,1668680495,464142059,,1.9210891959079613e-06,3.470311969625203e-10,-1.5755628165630304e-12,9.446493547599339e-07,-2.236678105965632e-07,-3.3269354367789083e-09
1668680495.4740832,20213,1668680495,473930867,,1.94305085439733e-06,3.3236077400421544e-10,-1.496296961964566e-12,9.312697987015104e-07,-2.1735667142050493e-07,-3.250718573917116e-09
1668680495.4800308,20214,1668680495,479926282,,1.9594443547554297e-06,3.1819368650199775e-10,-1.4204489473966117e-12,9.178772202478484e-07,-2.1106779589818052e-07,-3.1746904691183063e-09
1668680495.4884357,20215,1668680495,488126186,,1.9706773197358358e-06,3.0451817553650773e-10,-1.3478283047006937e-12,9.044734369924834e-07,-2.0480181231130726e-07,-3.0988593508916684e-09
1668680495.4961395,20216,1668680495,496011060,,1.9771353440238334e-06,2.913223017191763e-10,-1.2784260148044916e-12,8.910602535513906e-07,-1.985593410271149e-07,-3.0232333572498153e-09
1668680495.503331,20217,1668680495,503151759,,1.9791829741039046e-06,2.7859428776248156e-10,-1.2120168439926316e-12,8.776394614078968e-07,-1.9234099447748427e-07,-2.9478205474952467e-09
1668680495.511751,20218,1668680495,511595735,,1.9771646523785598e-06,2.6632223144777786e-10,-1.1485668494344874e-12,8.642128388093491e-07,-1.8614737714941386e-07,-2.8726288784178763e-09
1668680495.5200813,20219,1668680495,519905100,,1.971405626085201e-06,2.544943617359006e-10,-1.08797179284531e-12,8.507821506343861e-07,-1.799790855636277e-07,-2.797666220264991e-09
1668680495.5276396,20220,1668680495,527492532,,1.9622128223796594e-06,2.430988911760058e-10,-1.0300902350816794e-12,8.373491482831796e-07,-1.7383670826985818e-07,-2.7229403595885526e-09
1668680495.535426,20221,1668680495,535269166,,1.9498756905684585e-06,2.3212415392016487e-10,-9.748937433125473e-13,8.239155695428463e-07,-1.6772082582919155e-07,-2.648458976340579e-09
1668680495.543791,20222,1668680495,543547048,,1.934667012016804e-06,2.2155856847480207e-10,-9.22242351940554e-13,8.104831384891888e-07,-1.6163201080330607e-07,-2.574229663660681e-09
1668680495.551777,20223,1668680495,551657021,,1.916843679031608e-06,2.1139071296121035e-10,-8.72040706163398e-13,7.970535653681547e-07,-1.555708277514485e-07,-2.5002599299851758e-09
1668680495.559763,20224,1668680495,559612299,,1.896647443678785e-06,2.0160914800648496e-10,-8.242482555999189e-13,7.836285464857494e-07,-1.495378332097937e-07,-2.4265571720707796e-09
1668680495.5677493,20225,1668680495,567642244,,1.8743056370716946e-06,1.922027739540983e-10,-7.787449036098616e-13,7.702097641010674e-07,-1.4353357569214595e-07,-2.3531287095175543e-09
1668680495.5753577,20226,1668680495,575253710,,1.8500318604356682e-06,1.831603382544676e-10,-7.354092983123909e-13,7.567988863281155e-07,-1.375585956806529e-07,-2.2799817678566237e-09
1668680495.583808,20227,1668680495,583675654,,1.8240266486119005e-06,1.7447104992360738e-10,-6.941429449555024e-13,7.43397567026219e-07,-1.3161342562383474e-07,-2.207123469874862e-09
1668680495.59211,20228,1668680495,591956990,,1.7964781069154945e-06,1.6612415934116617e-10,-6.548718569897218e-13,7.30007445709297e-07,-1.2569858992570948e-07,-2.134560854906917e-09
1668680495.5998392,20229,1668680495,599617684,,1.767562522131085e-06,1.5810909180870272e-10,-6.175583351781176e-13,7.166301474516414e-07,-1.1981460495072713e-07,-2.0623008622837608e-09
1668680495.6087008,20230,1668680495,608436685,,1.7374449486200153e-06,1.5041532405548988e-10,-5.820235954258593e-13,7.032672827753333e-07,-1.139619790121445e-07,-1.990350338112344e-09
1668680495.6160955,20231,1668680495,615848740,,1.7062797702400578e-06,1.4303276338811306e-10,-5.482602305493046e-13,6.899204475843328e-07,-1.0814121237731336e-07,-1.918716037075116e-09
1668680495.623812,20232,1668680495,623658685,,1.67421123894848e-06,1.3595133000252283e-10,-5.161790078473657e-13,6.765912230614182e-07,-1.0235279726620101e-07,-1.8474046184273704e-09
1668680495.6317334,20233,1668680495,631618597,,1.6413739908279444e-06,1.2916133922984338e-10,-4.85694157319145e-13,6.632811755952545e-07,-9.659721785143288e-08,-1.7764226453911932e-09
1668680495.6398125,20234,1668680495,639683811,,1.607893540143756e-06,1.226530319381142e-10,-4.567881493545178e-13,6.499918566829002e-07,-9.08749502633808e-08,-1.7057765975534847e-09
1668680495.6478026,20235,1668680495,647605982,,1.5738867526971815e-06,1.164170732779933e-10,-4.2933517041736913e-13,6.36724802854034e-07,-8.518646258775195e-08,-1.6354728471113435e-09
1668680495.655749,20236,1668680495,655576429,,1.5394622984509873e-06,1.1044408075670774e-10,-4.0332197798829333e-13,6.234815355946896e-07,-7.953221487107169e-08,-1.5655176773983708e-09
1668680495.6636343,20237,1668680495,663511662,,1.5047210849622235e-06,1.0472523034418922e-10,-3.786404494959322e-13,6.102635612744207e-07,-7.391265912737466e-08,-1.4959172730811117e-09
1668680495.6716409,20238,1668680495,671491540,,1.4697566714535622e-06,9.925171906393825e-11,-3.5522865458279473e-13,5.970723710712827e-07,-6.832823934245732e-08,-1.426677735304004e-09
1668680495.6796808,20239,1668680495,679583367,,1.4346556650789346e-06,9.401487284566924e-11,-3.3305691794847676e-13,5.839094408948382e-07,-6.277939148211227e-08,-1.357805054256522e-09
1668680495.6878567,20240,1668680495,687709278,,1.399498099182509e-06,8.900638261986418e-11,-3.1206024300711237e-13,5.707762313293272e-07,-5.7266543499017803e-08,-1.2893051366678665e-09
1668680495.6952798,20241,1668680495,695179668,,1.3643577950326156e-06,8.421805614696988e-11,-2.921651113766593e-13,5.576741875623754e-07,-5.179011534239767e-08,-1.2211837927956908e-09
1668680495.7037568,20242,1668680495,703591866,,1.3293027068948539e-06,7.964200032828914e-11,-2.7334835462824895e-13,5.44604739324572e-07,-4.635051896390393e-08,-1.1534467342831082e-09
1668680495.712327,20243,1668680495,712126462,,1.2943952516335549e-06,7.527040567574148e-11,-2.55537328747903e-13,5.315693008246077e-07,-4.094815833569785e-08,-1.0860995880551142e-09
1668680495.7196963,20244,1668680495,719587326,,1.2596926231314314e-06,7.109575865563453e-11,-2.3870285688468155e-13,5.185692707038819e-07,-3.558342945970932e-08,-1.019147879665495e-09
1668680495.7278063,20245,1668680495,727650521,,1.2252470920952208e-06,6.711081803863066e-11,-2.2278390335110235e-13,5.05606031961946e-07,-3.025672037376742e-08,-9.525970384196833e-10
1668680495.7355254,20246,1668680495,735355044,,1.1911062920058194e-06,6.33083741389498e-11,-2.0774488619948606e-13,4.92680951919599e-07,-2.4968411170713566e-08,-8.864524002614461e-10
1668680495.743686,20247,1668680495,743573626,,1.1573134914726919e-06,5.968149269209575e-11,-1.935394310309797e-13,4.797953821574183e-07,-1.971887401195714e-08,-8.20719212158398e-10
1668680495.7520308,20248,1668680495,751669023,,1.1239078539159712e-06,5.622352022278994e-11,-1.8014546257502744e-13,4.669506584760487e-07,-1.4508473142831356e-08,-7.554026187243864e-10
1668680495.7626593,20249,1668680495,762470850,,1.0909246844915919e-06,5.292789734833652e-11,-1.6749483052760504e-13,4.541481008468018e-07,-9.337564910561206e-09,-6.90507677996327e-10
1668680495.768377,20250,1668680495,768157006,,1.0583956654887462e-06,4.978834290182393e-11,-1.5559334776039957e-13,4.4138901336643845e-07,-4.206497778041129e-09,-6.260393449395078e-10
1668680495.776267,20251,1668680495,776025803,,1.0263490799173624e-06,4.679866743951705e-11,-1.4439853347687e-13,4.2867468421903513e-07,8.843876580436418e-10,-5.620024936667457e-10
1668680495.7839382,20252,1668680495,783770913,,9.948100244254485e-07,4.3952902798675034e-11,-1.3382690377197613e-13,4.1600638563224333e-07,5.93475864672628e-09,-4.984018917495712e-10
1668680495.7917538,20253,1668680495,791570208,,9.638006115307407e-07,4.1245339162654635e-11,-1.2386333577495565e-13,4.033853738524867e-07,1.0944290261188494e-08,-4.35242222260143e-10
1668680495.8001988,20254,1668680495,799885548,,9.333401617614507e-07,3.867034015501779e-11,-1.1447689800432518e-13,3.9081288909589036e-07,1.591266538245836e-08,-3.7252806852994955e-10
1668680495.8078208,20255,1668680495,807648846,,9.03445386181449e-07,3.622252860616268e-11,-1.0562553945266684e-13,3.782901555319763e-07,2.0839574679402222e-08,-3.102639213375182e-10
1668680495.8156025,20256,1668680495,815493146,,8.741305596482319e-07,3.38967658309337e-11,-9.730146629855004e-14,3.658183812506201e-07,2.5724716575347512e-08,-2.4845417891349776e-10
1668680495.823419,20257,1668680495,823292498,,8.454076849564829e-07,3.1687913555200674e-11,-8.942916716062445e-14,3.5339875821821625e-07,3.056779724115531e-08,-1.87103148771732e-10
1668680495.831844,20258,1668680495,831732719,,8.172866489454097e-07,2.959113502569004e-11,-8.204192772668811e-14,3.410324622785074e-07,3.536853055991261e-08,-1.2621504513300874e-10
1668680495.8397512,20259,1668680495,839588923,,7.897753699979731e-07,2.7601624517103072e-11,-7.516020431855399e-14,3.2872065311789707e-07,4.0126638104253394e-08,-6.579398862563386e-11
1668680495.8479083,20260,1668680495,847654419,,7.628799380757721e-07,2.571490598981833e-11,-6.865234999142572e-14,3.16464474230322e-07,4.48418491152798e-08,-5.843999098356677e-12
1668680495.855628,20261,1668680495,855488509,,7.366047470723106e-07,2.3926560342154836e-11,-6.252396018930432e-14,3.042650529299219e-07,4.9513900470955616e-08,5.363098214078e-11
1668680495.863923,20262,1668680495,863751906,,7.109526202634301e-07,2.223235774058212e-11,-5.679054622376145e-14,2.9212350031263726e-07,5.414253666508972e-08,1.1262711364065928e-10
1668680495.8719661,20263,1668680495,871809556,,-6.582960324210545e-05,4.8828254249871787e-11,-8.282974547289056e-13,2.80040160145462e-07,5.872744047240507e-08,1.7114058609125297e-10
1668680495.879837,20264,1668680495,879660287,,-0.00016216776149822942,2.312535581274317e-10,-5.7864540486458506e-12,2.680122989025288e-07,6.326990671891137e-08,2.2916741144714606e-10
1668680495.8876169,20265,1668680495,887513541,,-0.00037503472212120187,1.191976537449412e-09,-3.177173881532638e-11,2.560225815395204e-07,6.777566712695197e-08,2.86702467539382e-10
1668680495.895342,20266,1668680495,895228786,,-0.0006362063542776343,3.4771331219130783e-09,-9.348234264990109e-11,2.4405438147684093e-07,7.22509472928957e-08,3.437407606818321e-10
1668680495.9039273,20267,1668680495,903755543,,-0.0008754870020661772,6.574893559450976e-09,-1.7703498209046518e-10,2.3212074784777818e-07,7.669170830317134e-08,4.0027989473348513e-10
1668680495.9118328,20268,1668680495,911663779,,-0.0010884432365067028,1.0012856666371737e-08,-2.6967057019308444e-10,2.2023467608380547e-07,8.109361731922722e-08,4.563175588258306e-10
1668680495.9202595,20269,1668680495,919966009,,-0.001178857202588547,1.1179040124323468e-08,-3.007036530860701e-10,2.0847246671631253e-07,8.543088914016763e-08,5.118569778098103e-10
1668680495.9279761,20270,1668680495,927824059,,-0.0012050129963191475,1.0848853152306938e-08,-2.9118757797850074e-10,1.9681721539216e-07,8.97091970095346e-08,5.668935524998087e-10
1668680495.9354575,20271,1668680495,935354786,,-0.0011664577941748328,9.003506794783e-09,-2.4063441238541577e-10,1.8527355526312872e-07,9.392704406283324e-08,6.214246083859065e-10
1668680495.9436407,20272,1668680495,943528312,,-0.0011286480181236093,7.332027348636845e-09,-1.9481875091757043e-10,1.7379643754277239e-07,9.809983876616545e-08,6.754432705421282e-10
1668680495.9516592,20273,1668680495,951512556,,-0.0010597132749968212,5.134686066907034e-09,-1.3478475996893943e-10,1.6240687530903995e-07,1.0222058274967071e-07,7.289484324317363e-10
1668680495.9598844,20274,1668680495,959691420,,-0.0009772647267822427,2.9249653807265845e-09,-7.446372174067298e-11,1.5109199602318954e-07,1.0629378867415613e-07,7.819361432220145e-10
1668680495.96781,20275,1668680495,967607224,,-0.0008904773556946499,9.388259489248254e-10,-2.0262807194098203e-11,1.3984593405333925e-07,1.1032159576085593e-07,8.344031518243283e-10
1668680495.975549,20276,1668680495,975373973,,-0.0008040684772564703,-7.379021219149392e-10,2.548332139764558e-11,1.2866668454180377e-07,1.1430483412767272e-07,8.863466143763793e-10
1668680495.9838986,20277,1668680495,983731223,,-0.0007229009992386175,-2.056428582628404e-09,6.144734867802601e-11,1.1755311858438574e-07,1.1824403857893417e-07,9.377638502967162e-10
1668680495.9918215,20278,1668680495,991675098,,-0.0006442223904957013,-3.104217258762156e-09,9.000100685305106e-11,1.0650793864751471e-07,1.221384425587372e-07,9.886526066132245e-10
1668680495.9999597,20279,1668680495,999816850,,-0.0005691677943047706,-3.898871143786236e-09,1.1162100932233704e-10,9.553197060725222e-08,1.2598791947335256e-07,1.0390105606395902e-09
1668680496.0076933,20280,1668680496,7547493,,-0.0004980267357826133,1.790178814653317e-07,1.2748971526511724e-10,8.462643858901526e-08,1.2979220895011401e-07,1.0888355024465252e-09
1668680496.0153594,20281,1668680496,15237100,,-0.000430570300767832,8.977295900228549e-07,1.389391400979277e-10,7.379269995048778e-08,1.3355100680021852e-07,1.1381253286818147e-09
1668680496.0244455,20282,1668680496,24191191,,-0.0003666210730383656,2.475442616704125e-06,1.467754211912626e-10,6.303203973927843e-08,1.3726403493396237e-07,1.186878013296859e-09
1668680496.031818,20283,1668680496,31651652,,-0.0003054429392540648,5.208123539407827e-06,1.5145713496899016e-10,5.234579418500407e-08,1.40930999014503e-07,1.2350916330254244e-09
1668680496.03979,20284,1668680496,39631569,,-0.00024664046234823436,9.36607318613936e-06,1.528989966882627e-10,4.173511967903453e-08,1.4455166728241812e-07,1.282764316968242e-09
1668680496.0479083,20285,1668680496,47586218,,-0.00018980135963957376,1.5195415303354512e-05,1.5058577148140347e-10,3.1201101037397654e-08,1.4812583357766156e-07,1.3298942896358343e-09
1668680496.055923,20286,1668680496,55774814,,-0.0001345190952071074,2.2919519054056692e-05,1.435597227982194e-10,2.0744750782398177e-08,1.516533175435687e-07,1.3764798500505177e-09
1668680496.0642233,20287,1668680496,64017338,,-8.041938778986235e-05,3.274035389255447e-05,1.304047479854068e-10,1.0367012197461717e-08,1.5513396356223132e-07,1.4225193774113597e-09
1668680496.0721352,20288,1668680496,71915395,,-2.7110881089130885e-05,4.4839779400504506e-05,1.092269760781898e-10,6.876878305755889e-11,1.5856763747239141e-07,1.4680113226238486e-09
1668680496.0797641,20289,1668680496,79572091,,2.5745833522036004e-05,5.938077319698282e-05,7.763666606897206e-11,-1.0149155822870644e-08,1.6195422661627396e-07,1.5129542180238324e-09
1668680496.0875673,20290,1668680496,87391296,,7.846761606640237e-05,7.650859878510908e-05,3.273674422998148e-11,-2.0285989244700765e-08,1.6529363687263042e-07,1.5573466806640063e-09
1668680496.0955548,20291,1668680496,95428738,,0.00013134833007853104,9.635191620263902e-05,-2.8885167552008776e-11,-3.0341005900972996e-08,1.685857911098142e-07,1.6011874031252992e-09
1668680496.103735,20292,1668680496,103557826,,0.00018465802788930887,0.00011902383767563994,-1.1115680767031294e-10,-4.0313522933037694e-08,1.7183062778345468e-07,1.6444751537337144e-09
1668680496.1117635,20293,1668680496,111528868,,0.00023864802054195211,0.00014462293055832922,-2.1851610042576016e-10,-5.020289706143846e-08,1.7502809984121593e-07,1.68720878495612e-09
1668680496.1196873,20294,1668680496,119509411,,0.00029354661840272356,0.00017323416969875643,-3.558936019106225e-10,-6.000852136283816e-08,1.7817817361067578e-07,1.7293872297207379e-09
1668680496.1277885,20295,1668680496,127623344,,0.000349562530348508,0.00020492984138781805,-5.286898508547024e-10,-6.972982286391677e-08,1.8128082796334865e-07,1.7710094847881927e-09
1668680496.135465,20296,1668680496,135362848,,0.00040688587285392375,0.00023977040090983478,-7.427445680319649e-10,-7.936626041015245e-08,1.843360535603304e-07,1.8120746317308242e-09
1668680496.143914,20297,1668680496,143744173,,0.0004656891009509133,0.00027780528566850757,-1.0042983772164915e-09,-8.89173228498028e-08,1.8734385222417164e-07,1.85258183587559e-09
1668680496.1516016,20298,1668680496,151486507,,0.000526128352846423,0.0003190736857970804,-1.3199490476337128e-09,-9.838252755350683e-08,1.903042364076018e-07,1.8925303394735915e-09
1668680496.1599536,20299,1668680496,159753233,,0.0005883440179634841,0.00036360527407858895,-1.696601669230515e-09,-1.0776141900642048e-07,1.9321722870010866e-07,1.931919455465912e-09
1668680496.1676583,20300,1668680496,167544087,,0.000652461861343796,0.0004114208969623843,-2.141414875348025e-09,-1.1705356768447708e-07,1.9608286141636338e-07,1.9707485703025426e-09
1668680496.175462,20301,1668680496,175302997,,0.0007185939187931294,0.00046253322837837567,-2.661743854280136e-09,-1.2625856902033548e-07,1.9890117622899784e-07,2.009017152507578e-09
1668680496.1838155,20302,1668680496,183666654,,0.0007868393456357184,0.0005169473880000348,-3.2650806703041447e-09,-1.353760425077392e-07,2.0167222383815503e-07,2.0467247479087278e-09
1668680496.1919215,20303,1668680496,191793190,,0.0008572852592641657,0.0005746615255451035,-3.958993347685271e-09,-1.4440563087945243e-07,2.043960636760474e-07,2.0838709668437316e-09
1668680496.2001204,20304,1668680496,199783342,,0.0009300074838187382,0.0006356673726418514,-4.751064362095654e-09,-1.5334699934516063e-07,2.0707276361392745e-07,2.1204555012907522e-09
1668680496.208083,20305,1668680496,207860876,,0.0010050713029849238,0.0006999507637377416,-5.6488294244483934e-09,-1.6219983488636655e-07,2.0970239970413912e-07,2.156478114351615e-09
1668680496.2163923,20306,1668680496,216209618,,0.0010825321608423247,0.0007674921274657936,-6.6597174037917015e-09,-1.7096384559318878e-07,2.1228505593416316e-07,2.1919386462149193e-09
1668680496.2242405,20307,1668680496,223981297,,0.001162436327113106,0.0008382669498345215,-7.790991840111947e-09,-1.796387600487721e-07,2.1482082398254285e-07,2.226837006241364e-09
1668680496.232769,20308,1668680496,232592028,,0.0012448215278335621,0.0009122462105539756,-9.049694989026885e-09,-1.8822432669010453e-07,2.173098029858754e-07,2.2611731764331927e-09
1668680496.2402828,20309,1668680496,240169946,,0.0013297175445196496,0.0009893967937585754,-1.0442594737309582e-08,-1.9672031323264062e-07,2.1975209931319973e-07,2.294947215771004e-09
1668680496.2475982,20310,1668680496,247450882,,0.0014171467793825537,0.0010696818743402916,-1.1976134747481736e-08,-2.051265060805801e-07,2.2214782634031964e-07,2.328159257828505e-09
1668680496.2554638,20311,1668680496,255304688,,0.0015071247922953423,0.0011530612810567973,-1.3656388323712669e-08,-2.1344270976273725e-07,2.2449710422874867e-07,2.3608094940757995e-09
1668680496.2636905,20312,1668680496,263572992,,0.0015996608082366193,0.0012394918375327288,-1.548901656038355e-08,-2.2166874634290589e-07,2.268000597048411e-07,2.392898196647633e-09
1668680496.2717526,20313,1668680496,271593164,,0.0016947581973545374,0.001328927682228929,-1.7479230157154974e-08,-2.2980445489102801e-07,2.2905682584925687e-07,2.424425700128796e-09
1668680496.279793,20314,1668680496,279607466,,0.0017924149283122142,0.001421320568409365,-1.9631756242188327e-08,-2.3784969090973892e-07,2.3126754187495762e-07,2.4553924102277414e-09
1668680496.2877858,20315,1668680496,287649027,,0.0018926239967433894,0.0015166201450945462,-2.195080918465874e-08,-2.458043257962251e-07,2.3343235291781335e-07,2.485798804643946e-09
1668680496.2958102,20316,1668680496,295634957,,0.0019953738295835485,0.0016147742199496193,-2.44400661085064e-08,-2.5366824630115495e-07,2.3555140982184234e-07,2.5156454280805818e-09
1668680496.3033614,20317,1668680496,303228267,,0.0021006486664687397,0.0017157290050156609,-2.7102646981328255e-08,-2.614413539873771e-07,2.376248689321827e-07,2.544932897665525e-09
1668680496.3119256,20318,1668680496,311709391,,0.002208428919258251,0.0018194293461543827,-2.99410989382696e-08,-2.691235647187905e-07,2.3965289189355275e-07,2.5736618890735696e-09
1668680496.3197832,20319,1668680496,319669981,,0.0023186915107102617,0.001925818937040986,-3.295738490678556e-08,-2.76714808149712e-07,2.4163564544414423e-07,2.601833146501087e-09
1668680496.328574,20320,1668680496,328426037,,0.002431410193266275,0.0020348405185033093,-3.6152876828783027e-08,-2.842150272103413e-07,2.43573301218311e-07,2.6294474891712383e-09
1668680496.3362336,20321,1668680496,335856859,,0.002546555848912278,0.002146436063971614,-3.952835250563912e-08,-2.916241776144892e-07,2.454660355506944e-07,2.656505787481528e-09
1668680496.3442419,20322,1668680496,344027912,,0.0026640967710052635,0.0022605469517702733,-4.3083996318710965e-08,-2.9894222740652646e-07,2.4731402929007926e-07,2.6830089916267397e-09
1668680496.3521483,20323,1668680496,351922683,,0.0027839989289389537,0.002377114124951147,-4.681940376151059e-08,-3.061691564825869e-07,2.491174676114407e-07,2.708958109481213e-09
1668680496.3599455,20324,1668680496,359803515,,0.002906226216479094,0.002496078239337116,-5.0733589326424066e-08,-3.133049561382788e-07,2.508765398403644e-07,2.734354208767248e-09
1668680496.3677714,20325,1668680496,367652110,,0.0030307406845724687,0.0026173798004145202,-5.4824997349023716e-08,-3.2034962866254934e-07,2.5259143927550836e-07,2.759198437438104e-09
1668680496.375487,20326,1668680496,375342867,,0.0031575027593946895,0.0027409592896864544,-5.9091516105691264e-08,-3.273031869059455e-07,2.54262363026935e-07,2.7834919902845756e-09
1668680496.383701,20327,1668680496,383596478,,0.0032864714463739066,0.002866757281068333,-6.353049434948008e-08,-3.341656538903586e-07,2.5588951184641305e-07,2.8072361193433315e-09
1668680496.391709,20328,1668680496,391592800,,0.0034176045208955843,0.0029947145478835258,-6.813876008120047e-08,-3.4093706244180515e-07,2.574730899854887e-07,2.8304321464736604e-09
1668680496.4002113,20329,1668680496,399835334,,0.003550858706364622,0.003124772160990411,-7.291264197110556e-08,-3.476174548281643e-07,2.5901330503435975e-07,2.8530814637911517e-09
1668680496.4080944,20330,1668680496,407858610,,0.003686189840272619,0.0032568715785465732,-7.784799218714421e-08,-3.542068824224993e-07,2.605103677870413e-07,2.875185513284695e-09
1668680496.4159706,20331,1668680496,415787259,,0.0038235530288903336,0.0033909547278941346,-8.294021110929664e-08,-3.607054053855116e-07,2.61964492111587e-07,2.8967457954900966e-09
1668680496.4236834,20332,1668680496,423570966,,0.003962902791179087,0.003526964080026958,-8.818427323771519e-08,-3.671130923738091e-07,2.633758948071232e-07,2.9177638803321027e-09
1668680496.4317238,20333,1668680496,431553487,,0.004104193192488864,0.003664842717077453,-9.35747545915055e-08,-3.7343002024047323e-07,2.6474479550101253e-07,2.9382413854403544e-09
1668680496.439712,20334,1668680496,439589530,,0.004247377968586622,0.003804534393241898,-9.91058606637531e-08,-3.796562738089148e-07,2.6607141652690823e-07,2.9581799926292618e-09
1668680496.4476938,20335,1668680496,447504555,,0.004392410640534314,0.003945983589541206,-1.0477145527694695e-07,-3.8579194560156923e-07,2.673559828103437e-07,2.9775814348875773e-09
1668680496.455977,20336,1668680496,455853465,,0.00453924462091267,0.004089135562796811,-1.1056509004522234e-07,-3.918371356309539e-07,2.685987217835277e-07,2.996447516327716e-09
1668680496.4634607,20337,1668680496,463272644,,0.004687833311865378,0.004233936389179841,-1.1648003379892282e-07,-3.9779195119758986e-07,2.697998632794315e-07,3.014780080093371e-09
1668680496.471869,20338,1668680496,471695620,,0.004838130195416706,0.004380333002677634,-1.225093024062282e-07,-4.036565067122095e-07,2.709596394461774e-07,3.0325810395845365e-09
1668680496.4799802,20339,1668680496,479861366,,0.0049900889164944985,0.0045282732288021744,-1.2864568861080838e-07,-4.0943092350194187e-07,2.720782846578633e-07,3.0498523507019315e-09
1668680496.4878032,20340,1668680496,487661066,,0.005143663359071716,0.004677705813848886,-1.3488179143494042e-07,-4.1511532966755733e-07,2.7315603545930876e-07,3.066596030061597e-09
1668680496.496154,20341,1668680496,495963562,,0.0052988077158199675,0.0048285804499993935,-1.4121004524447924e-07,-4.207098599621654e-07,2.741931304642894e-07,3.0828141471886394e-09
1668680496.5041718,20342,1668680496,503929243,,0.005455476551650201,0.004980847796547133,-1.4762274854526633e-07,-4.262146556543005e-07,2.751898103193649e-07,3.098508825384594e-09
1668680496.512359,20343,1668680496,512177782,,0.005613624861498338,0.005134459497509185,-1.5411209192218985e-07,-4.316298644203555e-07,2.76146317630533e-07,3.113682242594784e-09
1668680496.5197268,20344,1668680496,519574424,,0.0057732081226968684,0.0052893681958743185,-1.606701854273759e-07,-4.3695564026215524e-07,2.770628969061325e-07,3.1283366218673447e-09
1668680496.5278046,20345,1668680496,527633431,,0.005934182342256684,0.005445527544725116,-1.6728908514169678e-07,-4.4219214340019655e-07,2.7793979450927396e-07,3.1424742348226675e-09
1668680496.535673,20346,1668680496,535542425,,0.006096504099368382,0.005602892215458337,-1.7396081862100224e-07,-4.4733954023712413e-07,2.7877725861005353e-07,3.1560974094596572e-09
1668680496.5436566,20347,1668680496,543396488,,0.006260130583416696,0.005761417903315924,-1.80677409723628e-07,-4.523980032928546e-07,2.795755391498962e-07,3.169208521482114e-09
1668680496.5517542,20348,1668680496,551587855,,0.006425019627787923,0.005921061330427679,-1.8743090204686164e-07,-4.573677111310135e-07,2.803348877889855e-07,3.1818100038397135e-09
1668680496.55966,20349,1668680496,559547571,,0.006591129739736048,0.006081780246556344,-1.942133815095628e-07,-4.622488483468665e-07,2.8105555788704613e-07,3.1939043276460466e-09
1668680496.5678847,20350,1668680496,567725311,,0.006758420126560174,0.006243533427723863,-2.010169978129578e-07,-4.6704160553814796e-07,2.817378044581598e-07,3.2054940160564094e-09
1668680496.5759485,20351,1668680496,575819586,,0.006926850718333045,0.006406280672888707,-2.0783398454960384e-07,-4.7174617925768096e-07,2.823818841572398e-07,3.2165816329920993e-09
1668680496.5834,20352,1668680496,583207564,,0.007096382187408626,0.0065699827988344554,-2.1465667811307054e-07,-4.763627720510738e-07,2.829880552335999e-07,3.2271698056918208e-09
1668680496.591675,20353,1668680496,591501095,,0.007266975964924561,0.00673460163342073,-2.2147753573107393e-07,-4.808915923845868e-07,2.8355657753014146e-07,3.2372611900172155e-09
1668680496.5996997,20354,1668680496,599589555,,0.007438594254504626,0.00690010000733759,-2.2828915197367576e-07,-4.853328546992742e-07,2.8408771244681566e-07,3.246858492136906e-09
1668680496.6077023,20355,1668680496,607519272,,0.007611200043355531,0.007066441744499281,-2.3508427395419318e-07,-4.896867793833851e-07,2.845817229236015e-07,3.255964459852878e-09
1668680496.6153018,20356,1668680496,615162520,,0.007784757110941885,0.00723359165120168,-2.4185581563946047e-07,-4.939535928006334e-07,2.8503887343719913e-07,3.2645818982129926e-09
1668680496.62364,20357,1668680496,623467704,,0.007959230035413819,0.007401515504162734,-2.48596870581001e-07,-4.981335273040693e-07,2.854594299660912e-07,3.272713622673451e-09
1668680496.631791,20358,1668680496,631585022,,0.008134584197952226,0.00757018003755743,-2.553007238129465e-07,-5.022268212405174e-07,2.8584365998040586e-07,3.2803625267530112e-09
1668680496.6423566,20359,1668680496,641938048,,0.008310785785187519,0.007739552929151547,-2.619608624020663e-07,-5.0623371896293e-07,2.8619183244319043e-07,3.2875315317260068e-09
1668680496.6480794,20360,1668680496,647957423,,0.008487801789839456,0.007909602785632115,-2.6857098470643564e-07,-5.101544708721492e-07,2.8650421778664043e-07,3.2942235883570703e-09
1668680496.6560743,20361,1668680496,655911412,,0.00866560000971747,0.008080299127227408,-2.7512500867589926e-07,-5.139893334409491e-07,2.867810878952673e-07,3.3004417063914326e-09
1668680496.6636739,20362,1668680496,663574704,,0.008844149045212926,0.008251612371701612,-2.8161707910166327e-07,-5.177385692137443e-07,2.8702271611107544e-07,3.3061889163910063e-09
1668680496.671803,20363,1668680496,671665238,,0.00902341829540758,0.008423513817804942,-2.880415736732296e-07,-5.214024468568903e-07,2.8722937721404663e-07,3.311468307898302e-09
1668680496.6796036,20364,1668680496,679461335,,0.009203377952915266,0.008595975628255073,-2.9439310801427883e-07,-5.249812411727711e-07,2.8740134741303265e-07,3.316282994741959e-09
1668680496.6881678,20365,1668680496,687917174,,0.009383998997566952,0.008768970812318942,-3.0066653985686133e-07,-5.284752331459865e-07,2.8753890433767804e-07,3.3206361237103632e-09
1668680496.696035,20366,1668680496,695892842,,0.009565253189043478,0.008942473208061984,-3.0685697208717865e-07,-5.318847099389744e-07,2.876423270364414e-07,3.324530890164157e-09
1668680496.7039876,20367,1668680496,703770445,,0.009747113058553216,0.009116457464323829,-3.129597551240033e-07,-5.352099649208643e-07,2.877118959460209e-07,3.327970531097346e-09
1668680496.712539,20368,1668680496,712314253,,0.009929551899646777,0.009290899022479216,-3.1897048824583435e-07,-5.384512977233677e-07,2.877478929199772e-07,3.3309582904428314e-09
1668680496.7205353,20369,1668680496,720304699,,0.010112543758255283,0.009465774098034964,-3.248850201178189e-07,-5.416090142367939e-07,2.877506011681266e-07,3.3334974745835577e-09
1668680496.7286797,20370,1668680496,728500783,,0.010296063422032877,0.009641059662113215,-3.306994486332202e-07,-5.446834266245647e-07,2.877203052980117e-07,3.3355914124538755e-09
1668680496.7370586,20371,1668680496,736830413,,0.010480086409079818,0.009816733422865329,-3.3641012000294645e-07,-5.476748533539378e-07,2.876572912713707e-07,3.3372434642131577e-09
1668680496.7434282,20372,1668680496,743285811,,0.010664588956117138,0.009992773806858252,-3.420136270964052e-07,-5.505836192187482e-07,2.8756184640329726e-07,3.3384570229805233e-09
1668680496.7519119,20373,1668680496,751710590,,0.010849548006179805,0.010169159940472296,-3.475068071938716e-07,-5.534100553622711e-07,2.8743425936627893e-07,3.3392355269779017e-09
1668680496.760013,20374,1668680496,759844130,,0.01103494119589047,0.010345871631345488,-3.528867392088732e-07,-5.561544992419991e-07,2.87274820136177e-07,3.3395824265702867e-09
1668680496.7678072,20375,1668680496,767660991,,0.01122074684237214,0.010522889349897318,-3.5815074017756055e-07,-5.58817294714318e-07,2.870838200292789e-07,3.339501212021312e-09
1668680496.7756703,20376,1668680496,775473038,,0.011406943929854465,0.010700194210961108,-3.632963615678865e-07,-5.61398791959833e-07,2.868615516716155e-07,3.3389954048196335e-09
1668680496.7841225,20377,1668680496,783917410,,0.011593512096023748,0.010877767955553364,-3.683213846401244e-07,-5.638993475571343e-07,2.866083089565416e-07,3.33806855247476e-09
1668680496.7919583,20378,1668680496,791785235,,0.011780431618164252,0.01105559293280383,-3.7322381589565695e-07,-5.663193244354996e-07,2.863243870802434e-07,3.336724221578158e-09
1668680496.7998874,20379,1668680496,799698298,,0.011967683399134663,0.01123365208206963,-3.780018817591556e-07,-5.686590919046143e-07,2.8601008248671555e-07,3.3349660255588276e-09
1668680496.8076565,20380,1668680496,807547148,,0.01215524895322013,0.011411928915253822,-3.826540231696843e-07,-5.709190256376309e-07,2.856656928805815e-07,3.3327975847846636e-09
1668680496.816321,20381,1668680496,816184475,,0.01234311039189799,0.011590407499346284,-3.871788896069667e-07,-5.730995076541607e-07,2.8529151717193507e-07,3.3302225681958175e-09
1668680496.8238285,20382,1668680496,823706256,,0.012531250409551692,0.011769072439204458,-3.9157533315884343e-07,-5.752009263348967e-07,2.848878555101672e-07,3.327244641262994e-09
1668680496.832892,20383,1668680496,832623247,,0.012719652269165835,0.01194790886058755,-3.9584240205619794e-07,-5.77223676384426e-07,2.8445500923035246e-07,3.3238675336416668e-09
1668680496.840569,20384,1668680496,840358456,,0.012908299788031154,0.01212690239345813,-3.999793342506391e-07,-5.791681588130688e-07,2.839932808245717e-07,3.3200949593747975e-09
1668680496.8480866,20385,1668680496,847955194,,0.013097177323487823,0.012306039155562753,-4.0398555063587887e-07,-5.810347809315935e-07,2.835029739613193e-07,3.3159306741387118e-09
1668680496.8560266,20386,1668680496,855892488,,0.013286269758731477,0.012485305736300783,-4.0786064821952735e-07,-5.828239563205332e-07,2.8298439343530475e-07,3.3113784561611403e-09
1668680496.8636997,20387,1668680496,863579089,,0.013475562488705514,0.012664689180891397,-4.116043932713158e-07,-5.845361048077431e-07,2.824378451401306e-07,3.3064421044864956e-09
1668680496.871827,20388,1668680496,871619850,,0.01366504140610015,0.012844176974845066,-4.152167140998998e-07,-5.861716524141361e-07,2.81863636072304e-07,3.3011254389758715e-09
1668680496.8797784,20389,1668680496,879589906,,0.013854692887478018,0.013023757028746911,-4.186976940462706e-07,-5.877310313719922e-07,2.812620742872183e-07,3.2954323089806614e-09
1668680496.8877916,20390,1668680496,887613960,,0.0140445037795433,0.013203417663355938,-4.22047564419843e-07,-5.892146800287628e-07,2.8063346887486663e-07,3.289366569056429e-09
1668680496.895827,20391,1668680496,895691861,,0.014234461385570253,0.013383147595025437,-4.252666972141121e-07,-5.906230428408634e-07,2.799781299640163e-07,3.2829321101879305e-09
1668680496.903486,20392,1668680496,903268437,,0.014424553452005356,0.013562935921446655,-4.2835559815754196e-07,-5.919565703478021e-07,2.7929636864501345e-07,3.276132823359923e-09
1668680496.9116511,20393,1668680496,911543546,,0.014614768155255886,0.013742772107719233,-4.313148994541764e-07,-5.932157190997818e-07,2.7858849697970367e-07,3.2689726411905262e-09
1668680496.919966,20394,1668680496,919801833,,0.01480509408867593,0.013922645972748657,-4.34145352853924e-07,-5.944009515750976e-07,2.778548279684179e-07,3.261455494563137e-09
1668680496.9279778,20395,1668680496,927698394,,0.014995520249760221,0.014102547675972374,-4.368478226754547e-07,-5.955127362270693e-07,2.7709567551798854e-07,3.2535853351778332e-09
1668680496.9358673,20396,1668680496,935672241,,0.015186036027554781,0.014282467704414378,-4.394232787502439e-07,-5.965515473407368e-07,2.763113544188185e-07,3.245366149429163e-09
1668680496.9434803,20397,1668680496,943322391,,0.01537663119029152,0.014462396860067008,-4.418727898348119e-07,-5.975178650320743e-07,2.755021803049285e-07,3.236801920242227e-09
1668680496.9519093,20398,1668680496,951780469,,0.015567295873254148,0.014642326247600212,-4.441975168029002e-07,-5.984121751404642e-07,2.7466846962506284e-07,3.227896644419914e-09
1668680496.9598033,20399,1668680496,959643392,,0.01575802056688047,0.014822247262394743,-4.4639870608832435e-07,-5.992349692328445e-07,2.7381053963396185e-07,3.2186543395817946e-09
1668680496.9677558,20400,1668680496,967597398,,0.015948796105106525,0.015002151578898277,-4.4847768330730897e-07,-5.999867444690373e-07,2.729287083154375e-07,3.2090790372252265e-09
1668680496.975348,20401,1668680496,975227619,,0.016139613653955824,0.015182031139301454,-4.504358470090987e-07,-6.006680035843876e-07,2.720232944040577e-07,3.1991747861948028e-09
1668680496.9839518,20402,1668680496,983832428,,0.016330464700377106,0.01536187814253073,-4.522746624179137e-07,-6.012792548145611e-07,2.7109461733147797e-07,3.1889456388045634e-09
1668680496.9920475,20403,1668680496,991912086,,0.016521341041333376,0.015541685033553989,-4.539956555655598e-07,-6.018210118414552e-07,2.70142997173099e-07,3.17839566818523e-09
1668680496.9998333,20404,1668680496,999670941,,0.016712234773143063,0.015721444492996256,-4.5560040751977036e-07,-6.022937936500715e-07,2.6916875463630285e-07,3.167528954406418e-09
1668680497.0080163,20405,1668680497,7825991,,0.016903138281075224,0.015901149427060293,-4.5709054870000973e-07,-6.026981245347901e-07,2.681722110251623e-07,3.1563495879460834e-09
1668680497.0160856,20406,1668680497,15907197,,0.0170940442291988,0.016080792957748273,-4.5846775336546544e-07,-6.030345339839158e-07,2.67153688198699e-07,3.144861676629418e-09
1668680497.023501,20407,1668680497,23384537,,0.017284945550486052,0.01626036841337964,-4.5973373448980775e-07,-6.033035566185428e-07,2.661135085625351e-07,3.1330693352205063e-09
1668680497.0317912,20408,1668680497,31675368,,0.017475835437169508,0.016439869319400613,-4.608902385868186e-07,-6.035057320864518e-07,2.650519949983117e-07,3.1209766958306684e-09
1668680497.0404062,20409,1668680497,40037744,,0.017666707331351596,0.01661928938947947,-4.6193904084193283e-07,-6.036416050660945e-07,2.63969470842547e-07,3.108587866285095e-09
1668680497.0477324,20410,1668680497,47517823,,0.01785755491586536,0.016798622516884167,-4.6288194039305994e-07,-6.037117250547674e-07,2.6286625984175017e-07,3.095907013389576e-09
1668680497.0562854,20411,1668680497,56122137,,0.01804837210538462,0.016977862766134798,-4.6372075587712343e-07,-6.037166463677447e-07,2.617426861514457e-07,3.0829382727248777e-09
1668680497.063631,20412,1668680497,63497486,,0.018239153037781154,0.01715700436492683,-4.6445732103808275e-07,-6.036569280343576e-07,2.605990742782769e-07,3.0696858041578956e-09
1668680497.0718584,20413,1668680497,71685113,,0.01842989206572674,0.01733604169631933,-4.6509348061249303e-07,-6.035331337272769e-07,2.594357490266633e-07,3.056153757147184e-09
1668680497.0798817,20414,1668680497,79660750,,0.018620583748537204,0.017514969291182125,-4.6563108635500166e-07,-6.033458316829869e-07,2.582530354699607e-07,3.0423463158457675e-09
1668680497.0879598,20415,1668680497,87779705,,0.01881122284425525,0.0176937818208971,-4.660719934066318e-07,-6.030955945311321e-07,2.570512589566412e-07,3.0282676262427533e-09
1668680497.095798,20416,1668680497,95512443,,0.019001804301969176,0.017872474090306505,-4.664180565985061e-07,-6.027829993411106e-07,2.5583074502268967e-07,3.013921900246741e-09
1668680497.1039133,20417,1668680497,103751338,,0.019192323254363527,0.018051041030903974,-4.666711271525574e-07,-6.024086273849862e-07,2.5459181935755986e-07,2.99931330466352e-09
1668680497.1120968,20418,1668680497,111824863,,0.019382775010498753,0.01822947769426167,-4.668330494587598e-07,-6.019730641721832e-07,2.533348078107337e-07,2.9844460305850085e-09
1668680497.1202893,20419,1668680497,120012612,,0.019573155048815263,0.01840777924568775,-4.6690565798093574e-07,-6.014768992731133e-07,2.5206003629343844e-07,2.969324265633677e-09
1668680497.1281064,20420,1668680497,127878930,,0.01976345901035846,0.0185859409581088,-4.6689077456504405e-07,-6.009207262801448e-07,2.5076783080905853e-07,2.953952207840338e-09
1668680497.135586,20421,1668680497,135421264,,0.019953682692220608,0.01876395820617098,-4.667902056728152e-07,-6.003051426532388e-07,2.4945851737501884e-07,2.938334048296909e-09
1668680497.1436567,20422,1668680497,143529577,,0.020143822041195084,0.018941826460554645,-4.6660573989206987e-07,-5.996307497331229e-07,2.481324219685203e-07,2.922473985034202e-09
1668680497.1518955,20423,1668680497,151773250,,0.02033387314763923,0.019119541282496617,-4.663391456808571e-07,-5.988981525079974e-07,2.467898705484409e-07,2.9063762160830287e-09
1668680497.159994,20424,1668680497,159818369,,0.020523832239540834,0.019297098318514047,-4.6599216908105093e-07,-5.981079596247029e-07,2.4543118897163516e-07,2.8900449290658603e-09
1668680497.167874,20425,1668680497,167681208,,0.02071369567678444,0.019474493295324836,-4.655665317759534e-07,-5.972607831970333e-07,2.440567029819295e-07,2.8734843393607434e-09
1668680497.175704,20426,1668680497,175558097,,0.02090345994561264,0.019651722014958715,-4.6506392912972783e-07,-5.963572388687822e-07,2.426667381233319e-07,2.856698634590149e-09
1668680497.1835353,20427,1668680497,183359408,,0.02109312165327807,0.019828780350054052,-4.6448602872834446e-07,-5.953979455581692e-07,2.412616197998256e-07,2.839692009315442e-09
1668680497.191759,20428,1668680497,191597374,,0.02128267752288151,0.020005664239333944,-4.638344685272996e-07,-5.943835254096743e-07,2.3984167312683354e-07,2.822468675445222e-09
1668680497.2000039,20429,1668680497,199787581,,0.021472124388391578,0.02018236968325772,-4.631108555520215e-07,-5.933146037253808e-07,2.3840722300114917e-07,2.8050328240714073e-09
1668680497.207712,20430,1668680497,207605832,,0.021661459189841643,0.02035889273984115,-4.623167645569078e-07,-5.921918088644699e-07,2.3695859396416453e-07,2.7873886393470215e-09
1668680497.2155538,20431,1668680497,215368935,,0.021850678968699293,0.02053522952064167,-4.614537370538128e-07,-5.910157721121946e-07,2.3549611026388653e-07,2.7695403297112176e-09
1668680497.2237742,20432,1668680497,223661994,,0.022039780863403843,0.020711376186901918,-4.6052327995122184e-07,-5.897871276163184e-07,2.3402009572933216e-07,2.7514920723781255e-09
1668680497.2316642,20433,1668680497,231540943,,0.022204706992275374,0.020887327332075573,-7.716386901916783e-05,-5.882858541664704e-07,2.3245535250306613e-07,2.7332107029043318e-09
1668680497.2399738,20434,1668680497,239758994,,0.022358737753902066,0.021063080416975882,-0.00018820813274407323,-5.866315100724363e-07,2.308428478988312e-07,2.7147181551334665e-09
1668680497.2484837,20435,1668680497,248308012,,0.022295830511525044,0.021238498617171836,-6.533642373405911e-05,-5.82915883133063e-07,2.285295219092427e-07,2.695677611685987e-09
1668680497.2561038,20436,1668680497,255837476,,0.022137029613251945,0.02141366311080673,0.00016685016051673618,-5.78287235625984e-07,2.2590803287276173e-07,2.67627614861099e-09
1668680497.264008,20437,1668680497,263826817,,0.02200683628877054,0.02158865044258103,0.00038036445178302576,-5.739040768282624e-07,2.2337481881724722e-07,2.6567226786566867e-09
1668680497.2717805,20438,1668680497,271659845,,0.021523787434717823,0.02176316078092074,0.0016648454941734035,-5.663865503192814e-07,2.1977327478852693e-07,2.636380717901954e-09
1668680497.2797217,20439,1668680497,279589001,,0.020690376461292116,0.02193732420614225,0.0038678975447674004,-5.560922227445229e-07,2.152254751081181e-07,2.6152866677842113e-09
1668680497.287866,20440,1668680497,287645805,,0.01972772809190108,0.022111397261937834,0.006430762251455576,-5.452736378438452e-07,2.1050220604335252e-07,2.593862156313742e-09
1668680497.2954729,20441,1668680497,295303281,,0.018750038461508696,0.022285465228091987,0.009042389830093034,-5.349787118825934e-07,2.059622790552421e-07,2.5723214704120867e-09
1668680497.303848,20442,1668680497,303645196,,0.017874148837779602,0.02245952463268803,0.011429917630926137,-5.259926831636285e-07,2.018745466886144e-07,2.550839359183321e-09
1668680497.3121204,20443,1668680497,311958144,,0.01712987775408488,0.022633529746983058,0.01364828347945155,-5.183137396447078e-07,1.9823856270987034e-07,2.529435137038627e-09
1668680497.3198059,20444,1668680497,319669890,,0.016491893217498714,0.02280741614728671,0.015686773821814368,-5.115992738546432e-07,1.9493732264459556e-07,2.5080542902927716e-09
1668680497.3277678,20445,1668680497,327622165,,0.016041947562945167,0.02298112972045008,0.01742327999430143,-5.061336536576924e-07,1.9206801474703356e-07,2.4867707112269377e-09
1668680497.335576,20446,1668680497,335461437,,0.015715714059644226,0.023154617851218785,0.01893003573683299,-5.014095298600571e-07,1.894573397443573e-07,2.4654892485237445e-09
1668680497.3437386,20447,1668680497,343601008,,0.015565826654256303,0.023327852158182946,0.020177548043557644,-4.97586665816491e-07,1.8715989133152866e-07,2.4442543492680935e-09
1668680497.351799,20448,1668680497,351617906,,0.015460718669323335,0.023500807551344642,0.02128671578887157,-4.939653747314178e-07,1.8493684942897715e-07,2.422922407846473e-09
1668680497.3596282,20449,1668680497,359468924,,0.015572397713273971,0.023673455320929463,0.02208993215734733,-4.913341604910183e-07,1.8305752896613688e-07,2.4016739100934936e-09
1668680497.367937,20450,1668680497,367779893,,0.015801399227042694,0.023845791271557535,0.022692800191681912,-4.89223057430045e-07,1.8136170053543923e-07,2.3804139440836147e-09
1668680497.375937,20451,1668680497,375784081,,0.016118867309921518,0.024017809807218148,0.023119986436819145,-4.875220206003683e-07,1.798120103769607e-07,2.3591250966625843e-09
1668680497.3836308,20452,1668680497,383424838,,0.016451099827749404,0.024189502832541565,0.02341552058821435,-4.858931950195943e-07,1.7829325547636396e-07,2.337736979690641e-09
1668680497.3922808,20453,1668680497,392082033,,0.016790050683341513,0.0243608951419378,0.023641524981542865,-4.843016418185287e-07,1.7679360666850597e-07,2.3162462017833896e-09
1668680497.4002876,20454,1668680497,399995390,,0.017138376290684362,0.024531975438600896,0.02377537541704748,-4.827657156539146e-07,1.753194339330715e-07,2.2946615267638304e-09
1668680497.4083517,20455,1668680497,408249815,,0.017550249520149396,0.0247027861150855,0.023867155877095952,-4.81597601980133e-07,1.7397756335384672e-07,2.2730613970928237e-09
1668680497.4159744,20456,1668680497,415849969,,0.017992525965711385,0.02487331063316168,0.023912766599475416,-4.806408543779015e-07,1.7271470798316908e-07,2.251415647663846e-09
1668680497.4242883,20457,1668680497,424168898,,0.01843119982716906,0.025043532014842492,0.02390761266041644,-4.797069337262184e-07,1.7146653723092153e-07,2.2296848117830947e-09
1668680497.4326208,20458,1668680497,432400191,,0.018845046433808237,0.025213453109370166,0.023878747090276403,-4.786579168339458e-07,1.7018595575493808e-07,2.207839789464261e-09
1668680497.440568,20459,1668680497,440349884,,0.01918824875655068,0.02538305954482822,0.023839889732198253,-4.771758149808082e-07,1.6876421150770378e-07,2.185805144522268e-09
1668680497.4481819,20460,1668680497,447969288,,0.019498113117908104,0.025552356537758697,0.023775445031690143,-4.754762152564627e-07,1.672750199987181e-07,2.163635274415876e-09
1668680497.4557588,20461,1668680497,455633156,,0.019773745087612822,0.02572134545195119,0.023694055964832778,-4.7353837088502985e-07,1.6571129697151403e-07,2.1413270115400174e-09
1668680497.4633512,20462,1668680497,463214344,,0.02015415723438285,0.025890045838231936,0.023517599687379938,-4.723326274577548e-07,1.6440514338886963e-07,2.1191319116153906e-09
1668680497.471988,20463,1668680497,471849261,,0.02053369339361157,0.02605844077070931,0.023308702473600833,-4.7114292081303164e-07,1.6311174571193195e-07,2.0968747398153464e-09
1668680497.47963,20464,1668680497,479517578,,0.020963385038375786,0.026226538482121666,0.023041390976680284,-4.7035344055286715e-07,1.6196270044007777e-07,2.0746614599886914e-09
1668680497.4877908,20465,1668680497,487633613,,0.021425854307017208,0.026394334713682414,0.02272641860861748,-4.6986203197025883e-07,1.6092322581770643e-07,2.052473344060779e-09
1668680497.495815,20466,1668680497,495632327,,0.021899844026628378,0.02656182472361951,0.022379181163490084,-4.695211935424378e-07,1.599429796312929e-07,2.030278185155554e-09
1668680497.5035267,20467,1668680497,503378475,,0.022387575411578257,0.026729007522118698,0.022000869477885678,-4.693583365703892e-07,1.5903146807387048e-07,2.0080898714691653e-09
1668680497.5118794,20468,1668680497,511729796,,0.022863292636640244,0.026895875385662533,0.021609057468693318,-4.691623210344197e-07,1.5811650689104284e-07,1.9858562710917127e-09
1668680497.519757,20469,1668680497,519620292,,0.023338053536514365,0.02706243822895516,0.021224569765025597,-4.6902249754122256e-07,1.572287639680335e-07,1.9636070443251885e-09
1668680497.5278432,20470,1668680497,527635938,,0.023806338433295583,0.02722868486281974,0.020838658985737717,-4.6888785553987123e-07,1.563508562371467e-07,1.9413329659101475e-09
1668680497.536621,20471,1668680497,536195760,,0.02425156703294914,0.02739461381706558,0.02048159500849258,-4.6859758793364194e-07,1.554277702295586e-07,1.9189919549245094e-09
1668680497.544044,20472,1668680497,543533940,,0.024608258620785608,0.027560194717538008,0.02017859245977754,-4.675036957152987e-07,1.5423752909636632e-07,1.8963948605899006e-09
1668680497.5518203,20473,1668680497,551644829,,0.02496063276397126,0.027725440424925234,0.019859733037896534,-4.663848817726304e-07,1.530467649995572e-07,1.873769309851392e-09
1668680497.559751,20474,1668680497,559637673,,0.025267570786501825,0.027890338707442196,0.01956190794676379,-4.6482694432252187e-07,1.5171361451241788e-07,1.850992858987155e-09
1668680497.567639,20475,1668680497,567537754,,0.025515385254789802,0.028054878092149717,0.019286067462349756,-4.626706970741964e-07,1.5018346764307262e-07,1.8280142538573685e-09
1668680497.575351,20476,1668680497,575231847,,0.02573583866022332,0.028219065470713626,0.019013509452310125,-4.602231398266902e-07,1.4856141065955081e-07,1.80492552501188e-09
1668680497.5837493,20477,1668680497,583641481,,0.025961883654162417,0.02838290867298995,0.018724986024657917,-4.5782003444468523e-07,1.469624745626362e-07,1.7818335106001282e-09
1668680497.5918853,20478,1668680497,591677934,,0.026175597147537373,0.028546402583407644,0.018447234852383948,-4.5527479011035223e-07,1.4532278016013683e-07,1.758682158237157e-09
1668680497.5999444,20479,1668680497,599730238,,0.026346694042238272,0.028709532946789417,0.018203014338967316,-4.522625865142069e-07,1.4353101817374345e-07,1.7353662777608303e-09
1668680497.6076975,20480,1668680497,607574755,,0.02650133807412264,0.02887230216677027,0.017967519757858885,-4.490558374940746e-07,1.4168046538569606e-07,1.7119735941373282e-09
1668680497.61534,20481,1668680497,615194533,,0.02665006024061038,0.02903470830826938,0.017728733930274722,-4.457661898403737e-07,1.3980937669036408e-07,1.6885425627166661e-09
1668680497.6238122,20482,1668680497,623657828,,0.026809941494444402,0.02919675317553246,0.017473847964464176,-4.425790776315969e-07,1.379813286542849e-07,1.6651391862576581e-09
1668680497.631893,20483,1668680497,631750090,,0.027021638421017364,0.02935845587903355,0.01720355097542606,-4.399429068347512e-07,1.3635008808132731e-07,1.6419248426158273e-09
1668680497.6400597,20484,1668680497,639779488,,0.027261371306624045,0.029519798027869623,0.016920075988163915,-4.376074800528293e-07,1.3483009774189602e-07,1.6188228500746416e-09
1668680497.6475918,20485,1668680497,647477426,,0.027509044073439348,0.029680756747594534,0.016598631217481567,-4.353562947627279e-07,1.3334727562918595e-07,1.5957637468366759e-09
1668680497.6556535,20486,1668680497,655521023,,0.02776200324787203,0.029841331902946574,0.01625560224117705,-4.331623964015435e-07,1.3189244938663792e-07,1.572742637512281e-09
1668680497.663951,20487,1668680497,663806384,,0.02801739209913011,0.030001522366412386,0.015907614428120876,-4.309952649680633e-07,1.304552152603302e-07,1.549752739332666e-09
1668680497.671842,20488,1668680497,671683549,,0.028269503053918246,0.030161320700819044,0.015555935737753409,-4.2878971194017235e-07,1.2901327387567635e-07,1.5267736762358819e-09
1668680497.680035,20489,1668680497,679701671,,0.028536486732623198,0.030320737182028767,0.01521640317819609,-4.2675977369197125e-07,1.2764003169403286e-07,1.5038897280272856e-09
1668680497.68786,20490,1668680497,687688506,,0.028810953680792194,0.030479760142482767,0.014881614100345074,-4.248230346541636e-07,1.263073255138112e-07,1.4810755469274461e-09
1668680497.6956272,20491,1668680497,695483229,,0.029107563807192996,0.030638391282711525,0.014540469202963856,-4.231611503314884e-07,1.2507750424110581e-07,1.4584072699497241e-09
1668680497.704275,20492,1668680497,703989106,,0.02940218493813644,0.030796611769986614,0.014197599510280443,-4.2148654731417184e-07,1.2385209239022983e-07,1.4357791067176606e-09
1668680497.7118955,20493,1668680497,711695811,,0.029738730877008113,0.030954432108203315,0.01378714786824129,-4.2034844379765907e-07,1.2281943910399766e-07,1.4134153777933811e-09
