Time,header.seq,header.stamp.secs,header.stamp.nsecs,header.frame_id,pose.position.x,pose.position.y,pose.position.z,pose.orientation.x,pose.orientation.y,pose.orientation.z,pose.orientation.w
1668680495.0954394,20166,1668680495,95274456,,-0.09879747506325634,-0.6160097986569371,0.07088206676543675,0.9955612156166443,0.09352316375751313,-0.004347527497149158,0.009611597440404622
1668680495.1038582,20167,1668680495,103753533,,-0.09879762686014631,-0.6160097986438337,0.07088206676536321,0.9955612156862186,0.09352316373640208,-0.0043475248537939585,0.009611591635027946
1668680495.1117496,20168,1668680495,111644204,,-0.09879776775497373,-0.6160097986310364,0.07088206676529143,0.9955612157552406,0.09352316371565397,-0.004347522240444745,0.009611585869730275
1668680495.119623,20169,1668680495,119530286,,-0.09879789833121982,-0.6160097986185455,0.07088206676522102,0.995561215823706,0.09352316369526868,-0.004347519657197783,0.009611580144931624
1668680495.1277988,20170,1668680495,127667268,,-0.09879801914661802,-0.6160097986063615,0.07088206676515217,0.9955612158916106,0.09352316367524553,-0.004347517104144995,0.009611574461043321
1668680495.1362402,20171,1668680495,136105277,,-0.0987981307340867,-0.6160097985944835,0.07088206676508522,0.9955612159589501,0.09352316365558433,-0.004347514581373391,0.009611568818468379
1668680495.1437395,20172,1668680495,143633306,,-0.09879823360264009,-0.61600979858291,0.07088206676501968,0.9955612160257203,0.09352316363628481,-0.004347512088965698,0.00961156321760119
1668680495.152434,20173,1668680495,152274934,,-0.09879832823827205,-0.6160097985716403,0.07088206676495616,0.9955612160919173,0.09352316361734664,-0.004347509627000029,0.009611557658827555
1668680495.1601675,20174,1668680495,160072845,,-0.09879841510481656,-0.6160097985606718,0.07088206676489411,0.9955612161575369,0.09352316359876932,-0.004347507195549657,0.009611552142525003
1668680495.1686063,20175,1668680495,168499145,,-0.0987984946447841,-0.6160097985500019,0.07088206676483377,0.9955612162225755,0.09352316358055228,-0.004347504794683822,0.009611546669062486
1668680495.1762774,20176,1668680495,176115728,,-0.09879856728017307,-0.6160097985396288,0.07088206676477556,0.9955612162870294,0.09352316356269505,-0.004347502424467058,0.009611541238800803
1668680495.1836057,20177,1668680495,183475604,,-0.09879863341325826,-0.616009798529548,0.07088206676471855,0.995561216350895,0.09352316354519712,-0.004347500084959497,0.009611535852092012
1668680495.1916568,20178,1668680495,191534116,,-0.09879869342735567,-0.6160097985197572,0.07088206676466362,0.9955612164141687,0.09352316352805783,-0.0043474977762169836,0.009611530509280269
1668680495.2008314,20179,1668680495,200496198,,-0.09879874768756478,-0.6160097985102522,0.07088206676461047,0.995561216476847,0.09352316351127639,-0.004347495498290766,0.009611525210700711
1668680495.2084663,20180,1668680495,208341538,,-0.09879879654148706,-0.6160097985010293,0.07088206676455873,0.9955612165389268,0.09352316349485233,-0.004347493251227879,0.009611519956680784
1668680495.2160823,20181,1668680495,215912873,,-0.09879884031992356,-0.6160097984920839,0.07088206676450917,0.9955612166004049,0.09352316347878471,-0.0043474910350712135,0.009611514747539462
1668680495.2246256,20182,1668680495,224467004,,-0.09879887933754904,-0.6160097984834116,0.07088206676446086,0.9955612166612782,0.09352316346307284,-0.0043474888498588014,0.009611509583586895
1668680495.2324317,20183,1668680495,232298693,,-0.09879891389356622,-0.6160097984750084,0.07088206676441433,0.9955612167215435,0.09352316344771609,-0.004347486695624956,0.009611504465125896
1668680495.24001,20184,1668680495,239880586,,-0.09879894427233762,-0.6160097984668691,0.07088206676436959,0.995561216781198,0.0935231634327133,-0.004347484572399608,0.009611499392450523
1668680495.2477102,20185,1668680495,247592069,,-0.09879897074399752,-0.616009798458989,0.07088206676432657,0.9955612168402391,0.09352316341806387,-0.004347482480208554,0.009611494365846913
1668680495.2555835,20186,1668680495,255424832,,-0.09879899356504245,-0.6160097984513629,0.07088206676428475,0.9955612168986641,0.09352316340376668,-0.004347480419072915,0.00961148938559224
1668680495.2637794,20187,1668680495,263676593,,-0.0987990129789044,-0.616009798443986,0.0708820667642447,0.9955612169564702,0.0935231633898207,-0.0043474783890103735,0.009611484451956778
1668680495.2716303,20188,1668680495,271512443,,-0.09879902921650112,-0.6160097984368529,0.07088206676420633,0.995561217013655,0.09352316337622504,-0.004347476390034127,0.009611479565201891
1668680495.2798116,20189,1668680495,279609252,,-0.09879904249677082,-0.6160097984299585,0.07088206676416917,0.995561217070216,0.09352316336297882,-0.004347474422153279,0.009611474725580826
1668680495.28778,20190,1668680495,287616635,,-0.09879905302718581,-0.6160097984232977,0.07088206676413367,0.9955612171261512,0.09352316335008064,-0.004347472485373053,0.009611469933339388
1668680495.2955103,20191,1668680495,295408747,,-0.09879906100424993,-0.6160097984168648,0.0708820667640993,0.9955612171814582,0.09352316333752979,-0.00434747057969439,0.00961146518871452
1668680495.303839,20192,1668680495,303719226,,-0.0987990666139772,-0.6160097984106546,0.07088206676406668,0.995561217236135,0.09352316332532486,-0.00434746870511449,0.009611460491936112
1668680495.31191,20193,1668680495,311800169,,-0.09879907003235393,-0.6160097984046621,0.07088206676403516,0.9955612172901794,0.09352316331346475,-0.004347466861626498,0.009611455843225201
1668680495.3198347,20194,1668680495,319743491,,-0.09879907142578351,-0.616009798398881,0.07088206676400502,0.9955612173435898,0.09352316330194808,-0.004347465049219601,0.00961145124279557
1668680495.3281085,20195,1668680495,327975659,,-0.09879907095151598,-0.6160097983933068,0.07088206676397614,0.9955612173963642,0.09352316329077377,-0.004347463267879157,0.009611446690853048
1668680495.3362582,20196,1668680495,336048245,,-0.09879906875806038,-0.616009798387934,0.07088206676394843,0.9955612174485009,0.09352316327994034,-0.004347461517586538,0.00961144218759524
1668680495.3435328,20197,1668680495,343375612,,-0.09879906498558312,-0.6160097983827573,0.07088206676392196,0.9955612174999984,0.09352316326944667,-0.004347459798319566,0.00961143773321254
1668680495.351725,20198,1668680495,351623262,,-0.09879905976629014,-0.616009798377771,0.07088206676389659,0.995561217550855,0.09352316325929122,-0.0043474581100518585,0.009611433327886852
1668680495.359721,20199,1668680495,359593148,,-0.09879905322479504,-0.6160097983729701,0.07088206676387246,0.9955612176010695,0.09352316324947284,-0.0043474564527536536,0.009611428971792867
1668680495.3676004,20200,1668680495,367496843,,-0.09879904547847408,-0.6160097983683497,0.07088206676384935,0.9955612176506404,0.09352316323998992,-0.004347454826391323,0.009611424665097621
1668680495.3754146,20201,1668680495,375234586,,-0.09879903663780532,-0.6160097983639048,0.07088206676382727,0.9955612176995666,0.0935231632308411,-0.004347453230927484,0.009611420407960251
1668680495.3838513,20202,1668680495,383705431,,-0.09879902680669657,-0.6160097983596294,0.07088206676380619,0.9955612177478469,0.09352316322202492,-0.004347451666321154,0.009611416200532423
1668680495.3919032,20203,1668680495,391752672,,-0.09879901608279897,-0.6160097983555192,0.07088206676378621,0.9955612177954801,0.09352316321353986,-0.004347450132527736,0.009611412042958114
1668680495.3998804,20204,1668680495,399700460,,-0.09879900455780909,-0.6160097983515692,0.07088206676376708,0.9955612178424653,0.09352316320538437,-0.004347448629498877,0.009611407935373842
1668680495.407817,20205,1668680495,407660735,,-0.09879899231775878,-0.6160097983477744,0.07088206676374868,0.9955612178888018,0.09352316319755662,-0.004347447157182931,0.009611403877908542
1668680495.4154325,20206,1668680495,415246404,,-0.09879897944329244,-0.6160097983441302,0.0708820667637312,0.9955612179344887,0.0935231631900554,-0.0043474457155246995,0.00961139987068406
1668680495.424277,20207,1668680495,424092269,,-0.09879896600993376,-0.616009798340632,0.07088206676371456,0.9955612179795255,0.0935231631828788,-0.004347444304465288,0.009611395913814701
1668680495.43186,20208,1668680495,431726139,,-0.09879895208834193,-0.6160097983372746,0.07088206676369867,0.9955612180239113,0.09352316317602548,-0.004347442923942514,0.009611392007406905
1668680495.4396315,20209,1668680495,439477280,,-0.09879893774455571,-0.6160097983340538,0.07088206676368362,0.9955612180676455,0.09352316316949362,-0.0043474415738907245,0.00961138815156046
1668680495.4478683,20210,1668680495,447724999,,-0.09879892304022901,-0.6160097983309654,0.0708820667636693,0.995561218110728,0.09352316316328145,-0.004347440254240939,0.00961138434636776
1668680495.4561286,20211,1668680495,455988800,,-0.0987989080328556,-0.616009798328005,0.07088206676365566,0.9955612181531583,0.09352316315738725,-0.004347438964920872,0.009611380591913804
1668680495.464257,20212,1668680495,464142059,,-0.09879889277598412,-0.6160097983251679,0.07088206676364264,0.9955612181949361,0.09352316315180889,-0.00434743770585476,0.009611376888276442
1668680495.474069,20213,1668680495,473930867,,-0.09879887731942377,-0.6160097983224503,0.07088206676363056,0.9955612182360615,0.09352316314654527,-0.004347436476963603,0.009611373235526627
1668680495.4800224,20214,1668680495,479926282,,-0.09879886170944294,-0.6160097983198483,0.07088206676361876,0.9955612182765341,0.09352316314159409,-0.004347435278165346,0.009611369633727777
1668680495.4884028,20215,1668680495,488126186,,-0.09879884598895629,-0.6160097983173572,0.07088206676360793,0.995561218316354,0.09352316313695344,-0.0043474341093746845,0.009611366082936966
1668680495.4961286,20216,1668680495,496011060,,-0.09879883019770554,-0.616009798314974,0.0708820667635972,0.9955612183555215,0.09352316313262184,-0.004347432970502935,0.009611362583203473
1668680495.5033262,20217,1668680495,503151759,,-0.09879881437243236,-0.6160097983126943,0.07088206676358728,0.9955612183940364,0.09352316312859707,-0.004347431861458549,0.009611359134570297
1668680495.5117404,20218,1668680495,511595735,,-0.09879879854704196,-0.6160097983105147,0.07088206676357788,0.995561218431899,0.09352316312487738,-0.00434743078214663,0.009611355737073264
1668680495.520071,20219,1668680495,519905100,,-0.09879878275276073,-0.6160097983084314,0.0708820667635688,0.9955612184691099,0.09352316312146097,-0.004347429732469508,0.009611352390741656
1668680495.5276296,20220,1668680495,527492532,,-0.09879876701828695,-0.616009798306441,0.07088206676356047,0.9955612185056694,0.09352316311834556,-0.004347428712326306,0.009611349095597448
1668680495.5354156,20221,1668680495,535269166,,-0.09879875136993295,-0.6160097983045401,0.07088206676355244,0.9955612185415778,0.09352316311552927,-0.004347427721613182,0.009611345851656395
1668680495.543774,20222,1668680495,543547048,,-0.09879873583176205,-0.6160097983027255,0.07088206676354483,0.9955612185768359,0.09352316311301027,-0.004347426760223565,0.00961134265892734
1668680495.5517666,20223,1668680495,551657021,,-0.09879872042571933,-0.6160097983009936,0.07088206676353785,0.9955612186114443,0.09352316311078601,-0.004347425828047608,0.009611339517412503
1668680495.5597522,20224,1668680495,559612299,,-0.09879870517175483,-0.6160097982993419,0.07088206676353116,0.9955612186454037,0.0935231631088549,-0.00434742492497284,0.0096113364271075
1668680495.5677392,20225,1668680495,567642244,,-0.09879869008794247,-0.6160097982977663,0.07088206676352472,0.9955612186787148,0.09352316310721487,-0.004347424050883895,0.009611333388001604
1668680495.5753493,20226,1668680495,575253710,,-0.09879867519059243,-0.6160097982962649,0.07088206676351859,0.9955612187113786,0.09352316310586345,-0.0043474232056626965,0.009611330400077354
1668680495.5837977,20227,1668680495,583675654,,-0.09879866049435844,-0.6160097982948345,0.07088206676351283,0.9955612187433962,0.0935231631047989,-0.004347422389188234,0.009611327463311137
1668680495.5921001,20228,1668680495,591956990,,-0.09879864601233944,-0.6160097982934722,0.07088206676350757,0.9955612187747683,0.09352316310401887,-0.004347421601337035,0.009611324577673015
1668680495.5998333,20229,1668680495,599617684,,-0.09879863175617692,-0.616009798292175,0.07088206676350223,0.9955612188054962,0.09352316310352118,-0.004347420841982605,0.00961132174312616
1668680495.6086936,20230,1668680495,608436685,,-0.098798617736147,-0.6160097982909409,0.07088206676349744,0.9955612188355811,0.0935231631033038,-0.004347420110996073,0.00961131895962827
1668680495.6160128,20231,1668680495,615848740,,-0.09879860396124811,-0.616009798289767,0.07088206676349287,0.995561218865024,0.09352316310336446,-0.004347419408245876,0.009611316227130361
1668680495.6237998,20232,1668680495,623658685,,-0.09879859043928425,-0.6160097982886514,0.07088206676348852,0.9955612188938266,0.09352316310370086,-0.004347418733597897,0.009611313545577727
1668680495.6317244,20233,1668680495,631618597,,-0.09879857717694329,-0.6160097982875908,0.07088206676348462,0.9955612189219902,0.09352316310431114,-0.0043474180869155455,0.00961131091490911
1668680495.6398017,20234,1668680495,639683811,,-0.09879856417987327,-0.6160097982865838,0.07088206676348073,0.9955612189495161,0.09352316310519264,-0.004347417468059578,0.009611308335057384
1668680495.6477988,20235,1668680495,647605982,,-0.09879855145275196,-0.616009798285627,0.07088206676347727,0.9955612189764059,0.09352316310634323,-0.004347416876888357,0.009611305805949488
1668680495.65572,20236,1668680495,655576429,,-0.09879853899935583,-0.6160097982847197,0.07088206676347386,0.9955612190026614,0.09352316310776054,-0.004347416313257883,0.00961130332750654
1668680495.663622,20237,1668680495,663511662,,-0.09879852682262218,-0.6160097982838592,0.07088206676347064,0.995561219028284,0.09352316310944259,-0.0043474157770217155,0.009611300899643719
1668680495.6716328,20238,1668680495,671491540,,-0.09879851492471127,-0.616009798283043,0.07088206676346773,0.9955612190532755,0.09352316311138656,-0.0043474152680311,0.009611298522270195
1668680495.679671,20239,1668680495,679583367,,-0.09879850330706186,-0.61600979828227,0.07088206676346497,0.995561219077638,0.09352316311359046,-0.0043474147861349635,0.009611296195289738
1668680495.687847,20240,1668680495,687709278,,-0.09879849197044689,-0.6160097982815378,0.0708820667634623,0.9955612191013727,0.09352316311605191,-0.0043474143311799975,0.009611293918600244
1668680495.6952717,20241,1668680495,695179668,,-0.09879848091502332,-0.616009798280845,0.07088206676345991,0.9955612191244824,0.0935231631187684,-0.004347413903010519,0.00961129169209407
1668680495.7037466,20242,1668680495,703591866,,-0.09879847014038128,-0.6160097982801894,0.0708820667634576,0.9955612191469685,0.09352316312173788,-0.00434741350146889,0.009611289515657841
1668680495.712307,20243,1668680495,712126462,,-0.09879845964558949,-0.6160097982795697,0.0708820667634555,0.9955612191688332,0.09352316312495773,-0.004347413126395264,0.009611287389173061
1668680495.7196875,20244,1668680495,719587326,,-0.09879844942923799,-0.6160097982789845,0.07088206676345349,0.9955612191900788,0.09352316312842548,-0.004347412777627436,0.009611285312515209
1668680495.7277958,20245,1668680495,727650521,,-0.0987984394894792,-0.6160097982784316,0.07088206676345164,0.9955612192107074,0.09352316313213883,-0.004347412455001321,0.009611283285554864
1668680495.7355158,20246,1668680495,735355044,,-0.09879842982406556,-0.6160097982779098,0.07088206676344991,0.9955612192307212,0.09352316313609546,-0.00434741215835075,0.009611281308156918
1668680495.7436726,20247,1668680495,743573626,,-0.09879842043038653,-0.616009798277418,0.07088206676344837,0.9955612192501226,0.09352316314029267,-0.004347411887507564,0.009611279380181265
1668680495.752014,20248,1668680495,751669023,,-0.09879841130550107,-0.6160097982769543,0.07088206676344683,0.9955612192689138,0.0935231631447283,-0.004347411642301681,0.009611277501482463
1668680495.7626452,20249,1668680495,762470850,,-0.09879840244617102,-0.6160097982765179,0.07088206676344556,0.9955612192870976,0.09352316314939955,-0.004347411422560988,0.009611275671909857
1668680495.7683637,20250,1668680495,768157006,,-0.09879839384888958,-0.616009798276107,0.07088206676344438,0.995561219304676,0.09352316315430444,-0.004347411228111479,0.00961127389130781
1668680495.7762628,20251,1668680495,776025803,,-0.09879838550991056,-0.6160097982757206,0.07088206676344311,0.9955612193216521,0.09352316315944002,-0.004347411058777338,0.00961127215951546
1668680495.7839272,20252,1668680495,783770913,,-0.09879837742527414,-0.6160097982753576,0.07088206676344198,0.995561219338028,0.09352316316480414,-0.004347410914381015,0.009611270476367345
1668680495.7917435,20253,1668680495,791570208,,-0.09879836959083156,-0.6160097982750167,0.07088206676344094,0.9955612193538066,0.09352316317039405,-0.004347410794743008,0.00961126884169262
1668680495.8001695,20254,1668680495,799885548,,-0.09879836200226845,-0.6160097982746969,0.07088206676343993,0.9955612193689907,0.09352316317620733,-0.00434741069968207,0.009611267255316067
1668680495.8078108,20255,1668680495,807648846,,-0.09879835465512647,-0.6160097982743976,0.07088206676343907,0.995561219383583,0.09352316318224145,-0.0043474106290155865,0.00961126571705754
1668680495.815593,20256,1668680495,815493146,,-0.09879834754482257,-0.6160097982741171,0.07088206676343808,0.9955612193975863,0.09352316318849394,-0.004347410582558714,0.00961126422673168
1668680495.823409,20257,1668680495,823292498,,-0.09879834066666963,-0.6160097982738548,0.07088206676343739,0.9955612194110034,0.09352316319496233,-0.004347410560125417,0.009611262784149227
1668680495.8318343,20258,1668680495,831732719,,-0.09879833401589223,-0.6160097982736095,0.07088206676343695,0.9955612194238375,0.09352316320164394,-0.0043474105615279686,0.009611261389115926
1668680495.8397377,20259,1668680495,839588923,,-0.0987983275876442,-0.6160097982733808,0.07088206676343614,0.9955612194360913,0.09352316320853611,-0.004347410586576887,0.009611260041432548
1668680495.8478813,20260,1668680495,847654419,,-0.09879832137702292,-0.6160097982731675,0.07088206676343549,0.995561219447768,0.09352316321563658,-0.004347410635081444,0.009611258740896298
1668680495.855616,20261,1668680495,855488509,,-0.09879831537908426,-0.616009798272969,0.07088206676343503,0.9955612194588707,0.09352316322294262,-0.004347410706849165,0.009611257487299286
1668680495.8639138,20262,1668680495,863751906,,-0.09879830958885473,-0.6160097982727843,0.07088206676343456,0.9955612194694023,0.09352316323045173,-0.00434741080168634,0.00961125628042967
1668680495.8719575,20263,1668680495,871809556,,-0.09879857006344937,-0.6160097982725572,0.07088206676343264,0.9955612194793664,0.09352316323816132,-0.004347410919397616,0.009611255120071492
1668680495.8798273,20264,1668680495,879660287,,-0.09879948205286802,-0.6160097982717256,0.07088206676341396,0.9955612194887656,0.09352316324606876,-0.004347411059788905,0.009611254006012235
1668680495.8876066,20265,1668680495,887513541,,-0.0988016308625926,-0.6160097982675372,0.0708820667633044,0.9955612194976033,0.0935231632541713,-0.004347411222679051,0.009611252938066337
1668680495.8953238,20266,1668680495,895228786,,-0.09880567582641335,-0.6160097982523357,0.07088206676289759,0.9955612195058812,0.09352316326246632,-0.004347411407918186,0.009611251916117352
1668680495.9039235,20267,1668680495,903755543,,-0.09881172259917459,-0.6160097982168862,0.07088206676194414,0.995561219513601,0.09352316327095132,-0.004347411615370406,0.00961125094007478
1668680495.9118266,20268,1668680495,911663779,,-0.09881957831936104,-0.6160097981560375,0.07088206676030637,0.9955612195207652,0.0935231632796231,-0.004347411844877974,0.0096112500097969
1668680495.920253,20269,1668680495,919966009,,-0.09882864752074079,-0.6160097980739669,0.07088206675809801,0.9955612195273774,0.09352316328847941,-0.004347412096224792,0.009611249125011257
1668680495.9279675,20270,1668680495,927824059,,-0.09883818300142154,-0.6160097979866755,0.07088206675575255,0.9955612195334437,0.09352316329751793,-0.004347412369116098,0.009611248285268369
1668680495.9354477,20271,1668680495,935354786,,-0.09884766888475109,-0.6160097979060634,0.07088206675359292,0.9955612195389693,0.0935231633067362,-0.004347412663274245,0.009611247490157758
1668680495.9436243,20272,1668680495,943528312,,-0.09885684930815926,-0.6160097978395794,0.07088206675181996,0.995561219543959,0.09352316331613175,-0.004347412978442565,0.009611246739314743
1668680495.951649,20273,1668680495,951512556,,-0.09886560275360846,-0.616009797787728,0.07088206675044795,0.9955612195484169,0.09352316332570208,-0.004347413314404822,0.009611246032463753
1668680495.9598591,20274,1668680495,959691420,,-0.09887375066592384,-0.6160097977532797,0.07088206674955103,0.9955612195523472,0.09352316333544426,-0.004347413670928273,0.009611245369291352
1668680495.9678006,20275,1668680495,967607224,,-0.09888122163455132,-0.6160097977356921,0.07088206674911446,0.9955612195557536,0.09352316334535601,-0.004347414047799404,0.009611244749525238
1668680495.9755397,20276,1668680495,975373973,,-0.09888799981815213,-0.6160097977329618,0.07088206674908318,0.99556121955864,0.09352316335543474,-0.004347414444812758,0.00961124417291018
1668680495.9838886,20277,1668680495,983731223,,-0.09889410769628564,-0.6160097977425087,0.07088206674938678,0.9955612195610094,0.09352316336567779,-0.004347414861766598,0.00961124363919774
1668680495.991807,20278,1668680495,991675098,,-0.09889957619004218,-0.6160097977617358,0.07088206674995418,0.9955612195628658,0.0935231633760823,-0.004347415298459587,0.009611243148138684
1668680495.9999526,20279,1668680495,999816850,,-0.09890442975094865,-0.6160097977885503,0.07088206675072807,0.9955612195642126,0.09352316338664597,-0.004347415754687155,0.009611242699475777
1668680496.0076864,20280,1668680496,7547493,,-0.09890869852921046,-0.6160097970870752,0.07088206675165712,0.9955612195650536,0.09352316339736595,-0.004347416230243971,0.009611242292948128
1668680496.0153487,20281,1668680496,15237100,,-0.0989124129174785,-0.6160097927792606,0.07088206675269912,0.9955612195653925,0.0935231634082397,-0.0043474167249231525,0.0096112419282898
1668680496.0244262,20282,1668680496,24191191,,-0.09891560168307927,-0.6160097792858998,0.07088206675382155,0.9955612195652328,0.09352316341926428,-0.004347417238515876,0.009611241605229347
1668680496.0318086,20283,1668680496,31651652,,-0.0989182899392196,-0.6160097485510931,0.07088206675499704,0.9955612195645787,0.09352316343043765,-0.004347417770812074,0.009611241323491159
1668680496.0397797,20284,1668680496,39631569,,-0.09892049827290265,-0.6160096902538782,0.07088206675620043,0.9955612195634339,0.09352316344175671,-0.0043474183215997456,0.009611241082793784
1668680496.0478814,20285,1668680496,47586218,,-0.09892224404025073,-0.6160095920075976,0.07088206675740498,0.9955612195618024,0.09352316345321891,-0.004347418890665746,0.009611240882851728
1668680496.0559108,20286,1668680496,55774814,,-0.09892354132211095,-0.6160094395476254,0.07088206675857847,0.9955612195596882,0.09352316346482165,-0.004347419477795938,0.009611240723375243
1668680496.0641909,20287,1668680496,64017338,,-0.09892440107606015,-0.616009216907985,0.07088206675967988,0.9955612195570952,0.09352316347656252,-0.004347420082774786,0.009611240604070925
1668680496.0721223,20288,1668680496,71915395,,-0.09892483119712445,-0.6160089065873853,0.07088206676065613,0.9955612195540275,0.09352316348843885,-0.0043474207053860675,0.009611240524641494
1668680496.0797477,20289,1668680496,79572091,,-0.09892483665726969,-0.6160084897051893,0.07088206676143749,0.9955612195504894,0.09352316350044788,-0.004347421345412634,0.00961124048478649
1668680496.0875633,20290,1668680496,87391296,,-0.09892441980338564,-0.6160079461477975,0.07088206676193429,0.9955612195464846,0.09352316351258709,-0.004347422002636678,0.009611240484202099
1668680496.095546,20291,1668680496,95428738,,-0.09892358053946805,-0.6160072547059184,0.0708820667620323,0.9955612195420176,0.09352316352485397,-0.0043474226768398195,0.009611240522581825
1668680496.1036892,20292,1668680496,103557826,,-0.09892231651384822,-0.6160063932031747,0.0708820667615898,0.9955612195370925,0.09352316353724578,-0.004347423367802985,0.009611240599616131
1668680496.1117487,20293,1668680496,111528868,,-0.09892062328940371,-0.616005338616471,0.07088206676043199,0.9955612195317136,0.09352316354975983,-0.004347424075306807,0.009611240714993006
1668680496.1196818,20294,1668680496,119509411,,-0.0989184945105251,-0.6160040671885453,0.07088206675834777,0.9955612195258849,0.09352316356239404,-0.004347424799131132,0.009611240868397583
1668680496.1277788,20295,1668680496,127623344,,-0.09891592207352613,-0.616002554533093,0.07088206675508668,0.9955612195196109,0.09352316357514555,-0.004347425539055994,0.009611241059513076
1668680496.1354566,20296,1668680496,135362848,,-0.09891289627941852,-0.616000775732845,0.07088206675035384,0.9955612195128959,0.09352316358801163,-0.0043474262948607675,0.009611241288020314
1668680496.143905,20297,1668680496,143744173,,-0.09890940597892703,-0.6159987054309632,0.0708820667438075,0.9955612195057438,0.09352316360098971,-0.004347427066324809,0.009611241553598025
1668680496.1515927,20298,1668680496,151486507,,-0.09890543870840295,-0.6159963179161,0.07088206673505608,0.9955612194981595,0.09352316361407742,-0.004347427853227188,0.00961124185592303
1668680496.1599345,20299,1668680496,159753233,,-0.09890098081808665,-0.6159935872014588,0.0708820667236547,0.995561219490147,0.09352316362727228,-0.004347428655346955,0.009611242194669994
1668680496.1676483,20300,1668680496,167544087,,-0.09889601759359994,-0.6159904870981666,0.0708820667091041,0.9955612194817106,0.09352316364057155,-0.004347429472463187,0.009611242569512323
1668680496.1754503,20301,1668680496,175302997,,-0.09889053336936028,-0.6159869912832705,0.07088206669084769,0.9955612194728549,0.09352316365397265,-0.004347430304354785,0.009611242980121181
1668680496.1838057,20302,1668680496,183666654,,-0.09888451163502049,-0.6159830733626451,0.07088206666827061,0.9955612194635843,0.09352316366747335,-0.004347431150800566,0.009611243426166434
1668680496.1919122,20303,1668680496,191793190,,-0.09887793513514156,-0.6159787069290873,0.07088206664069911,0.995561219453903,0.0935231636810709,-0.004347432011579757,0.009611243907316326
1668680496.2000997,20304,1668680496,199783342,,-0.09887078596251798,-0.6159738656158713,0.07088206660739972,0.9955612194438156,0.09352316369476286,-0.004347432886471553,0.009611244423237873
1668680496.2080734,20305,1668680496,207860876,,-0.09886304564551213,-0.6159685231460076,0.07088206656757973,0.9955612194333263,0.0935231637085466,-0.004347433775255298,0.009611244973596788
1668680496.2163813,20306,1668680496,216209618,,-0.09885469522957473,-0.6159626533774547,0.07088206652038706,0.9955612194224397,0.0935231637224198,-0.004347434677710469,0.009611245558057055
1668680496.224227,20307,1668680496,223981297,,-0.0988457153533012,-0.6159562303445151,0.07088206646491196,0.9955612194111604,0.09352316373637988,-0.004347435593616956,0.00961124617628221
1668680496.2327507,20308,1668680496,232592028,,-0.09883608631930293,-0.6159492282956277,0.07088206640018839,0.9955612193994925,0.0935231637504242,-0.00434743652275481,0.00961124682793423
1668680496.2402742,20309,1668680496,240169946,,-0.0988257881601609,-0.6159416217277777,0.07088206632519549,0.9955612193874408,0.09352316376455022,-0.004347437464904425,0.009611247512674287
1668680496.2475896,20310,1668680496,247450882,,-0.09881480069972007,-0.615933385417715,0.07088206623885995,0.9955612193750095,0.09352316377875587,-0.004347438419846485,0.009611248230162281
1668680496.2554512,20311,1668680496,255304688,,-0.09880310360997764,-0.615924494450175,0.07088206614005985,0.9955612193622033,0.09352316379303834,-0.004347439387362287,0.009611248980057926
1668680496.263682,20312,1668680496,263572992,,-0.09879067646379044,-0.6159149242432848,0.07088206602762546,0.9955612193490265,0.09352316380739539,-0.004347440367233179,0.009611249762019481
1668680496.2717502,20313,1668680496,271593164,,-0.09877749878363434,-0.6159046505713234,0.07088206590034518,0.9955612193354838,0.09352316382182461,-0.004347441359241245,0.009611250575704737
1668680496.2797887,20314,1668680496,279607466,,-0.09876355008662996,-0.6158936495850029,0.07088206575696726,0.9955612193215794,0.0935231638363234,-0.004347442363168965,0.009611251420770888
1668680496.287774,20315,1668680496,287649027,,-0.09874880992604029,-0.615881897829427,0.07088206559620447,0.995561219307318,0.09352316385088938,-0.004347443378799337,0.009611252296874357
1668680496.2958024,20316,1668680496,295634957,,-0.09873325792943811,-0.6158693722598735,0.07088206541673858,0.9955612192927039,0.09352316386552001,-0.004347444405916026,0.009611253203671321
1668680496.3033512,20317,1668680496,303228267,,-0.09871687383372939,-0.6158560502555405,0.07088206521722391,0.995561219277742,0.09352316388021314,-0.004347445444303087,0.009611254140817305
1668680496.311921,20318,1668680496,311709391,,-0.09869963751721395,-0.6158419096313948,0.07088206499629161,0.9955612192624363,0.09352316389496634,-0.004347446493745153,0.009611255107967115
1668680496.319773,20319,1668680496,319669981,,-0.09868152902885337,-0.6158269286482457,0.0708820647525558,0.9955612192467918,0.09352316390977694,-0.004347447554027573,0.009611256104775666
1668680496.328564,20320,1668680496,328426037,,-0.09866252861490814,-0.6158110860211641,0.07088206448461669,0.9955612192308124,0.09352316392464298,-0.004347448624936554,0.009611257130897655
1668680496.3362112,20321,1668680496,335856859,,-0.09864261674310112,-0.6157943609263631,0.0708820641910653,0.995561219214503,0.09352316393956174,-0.004347449706258566,0.009611258185986748
1668680496.344218,20322,1668680496,344027912,,-0.09862177412445375,-0.6157767330066495,0.0708820638704889,0.9955612191978681,0.093523163954531,-0.004347450797780973,0.009611259269696954
1668680496.35214,20323,1668680496,351922683,,-0.09859998173293662,-0.6157581823755445,0.07088206352147554,0.9955612191809119,0.09352316396954852,-0.00434745189929199,0.00961126038168232
1668680496.3599174,20324,1668680496,359803515,,-0.09857722082306787,-0.6157386896201718,0.0708820631426178,0.9955612191636392,0.09352316398461154,-0.0043474530105803,0.009611261521596021
1668680496.3677614,20325,1668680496,367652110,,-0.09855347294558649,-0.6157182358030118,0.07088206273251876,0.9955612191460544,0.09352316399971822,-0.004347454131435536,0.009611262689091902
1668680496.375479,20326,1668680496,375342867,,-0.0985287199613237,-0.6156968024625948,0.07088206228979556,0.9955612191281619,0.09352316401486632,-0.004347455261648157,0.00961126388382338
1668680496.383693,20327,1668680496,383596478,,-0.0985029440533842,-0.6156743716132294,0.07088206181308306,0.9955612191099661,0.09352316403005341,-0.004347456401009097,0.009611265105443835
1668680496.391691,20328,1668680496,391592800,,-0.09847612773774972,-0.6156509257438351,0.0708820613010401,0.9955612190914717,0.09352316404527683,-0.004347457549310506,0.009611266353606932
1668680496.4001877,20329,1668680496,399835334,,-0.09844825387240713,-0.6156264478159538,0.07088206075235164,0.995561219072683,0.09352316406053476,-0.004347458706345232,0.009611267627966142
1668680496.4080896,20330,1668680496,407858610,,-0.09841930566509988,-0.6156009212610102,0.07088206016573355,0.9955612190536044,0.09352316407582488,-0.004347459871906789,0.009611268928175314
1668680496.41596,20331,1668680496,415787259,,-0.09838926667979701,-0.6155743299768875,0.07088205953993561,0.9955612190342404,0.09352316409114465,-0.004347461045789799,0.009611270253888063
1668680496.4236736,20332,1668680496,423570966,,-0.09835812084196655,-0.615546658323874,0.07088205887374621,0.9955612190145956,0.09352316410649215,-0.004347462227789796,0.00961127160475885
1668680496.4317138,20333,1668680496,431553487,,-0.09832585244273961,-0.6155178911200452,0.0708820581659943,0.9955612189946743,0.09352316412186518,-0.0043474634177028265,0.009611272980441492
1668680496.4397035,20334,1668680496,439589530,,-0.09829244614204367,-0.6154880136361296,0.07088205741555305,0.9955612189744809,0.0935231641372615,-0.004347464615326334,0.009611274380590586
1668680496.447687,20335,1668680496,447504555,,-0.09825788697077897,-0.615457011589916,0.07088205662134321,0.9955612189540199,0.09352316415267865,-0.004347465820458372,0.009611275804861161
1668680496.455964,20336,1668680496,455853465,,-0.09822216033211137,-0.6154248711402389,0.07088205578233434,0.9955612189332957,0.09352316416811475,-0.004347467032897935,0.009611277252907932
1668680496.463455,20337,1668680496,463272644,,-0.09818525200194882,-0.6153915788806008,0.07088205489754823,0.9955612189123126,0.09352316418356747,-0.00434746825244517,0.009611278724386225
1668680496.4718559,20338,1668680496,471695620,,-0.09814714812866239,-0.6153571218324636,0.07088205396606126,0.9955612188910752,0.09352316419903484,-0.004347469478901094,0.009611280218952007
1668680496.479973,20339,1668680496,479861366,,-0.09810783523211593,-0.6153214874382498,0.07088205298700556,0.9955612188695876,0.09352316421451468,-0.004347470712067656,0.009611281736261652
1668680496.4877946,20340,1668680496,487661066,,-0.09806730020205844,-0.615284663554093,0.07088205195957058,0.9955612188478543,0.09352316423000483,-0.004347471951747817,0.009611283275971088
1668680496.4961414,20341,1668680496,495963562,,-0.09802553029593264,-0.6152466384423727,0.07088205088300546,0.9955612188258799,0.09352316424550304,-0.0043474731977456126,0.009611284837737741
1668680496.5041938,20342,1668680496,503929243,,-0.09798251313615104,-0.6152074007640624,0.07088204975661923,0.9955612188036684,0.09352316426100742,-0.004347474449865795,0.009611286421218883
1668680496.5123484,20343,1668680496,512177782,,-0.09793823670688753,-0.6151669395709204,0.07088204857978248,0.9955612187812244,0.09352316427651602,-0.0043474757079144215,0.009611288026072414
1668680496.5197055,20344,1668680496,519574424,,-0.09789268935042718,-0.6151252442975564,0.07088204735192803,0.9955612187585519,0.09352316429202666,-0.004347476971698645,0.009611289651956983
1668680496.5277941,20345,1668680496,527633431,,-0.0978458597631184,-0.6150823047533953,0.0708820460725507,0.9955612187356556,0.0935231643075373,-0.00434747824102631,0.009611291298531239
1668680496.5356638,20346,1668680496,535542425,,-0.09779773699096504,-0.6150381111145634,0.07088204474120896,0.9955612187125397,0.09352316432304589,-0.004347479515706634,0.009611292965454932
1668680496.5436404,20347,1668680496,543396488,,-0.097748310424897,-0.6149926539157183,0.07088204335752374,0.9955612186892083,0.09352316433855032,-0.004347480795549736,0.009611294652387978
1668680496.551745,20348,1668680496,551587855,,-0.09769756979575368,-0.6149459240418488,0.07088204192117928,0.995561218665666,0.09352316435404877,-0.0043474820803667815,0.009611296358991354
1668680496.559651,20349,1668680496,559547571,,-0.0976455051690123,-0.6148979127200547,0.07088204043192292,0.9955612186419169,0.09352316436953924,-0.00434748336997011,0.009611298084926162
1668680496.567874,20350,1668680496,567725311,,-0.09759210693929216,-0.6148486115113317,0.07088203888956407,0.9955612186179652,0.09352316438501967,-0.004347484664173044,0.009611299829854621
1668680496.5759377,20351,1668680496,575819586,,-0.09753736582466375,-0.614798012302375,0.07088203729397348,0.9955612185938153,0.09352316440048804,-0.004347485962790005,0.009611301593439085
1668680496.5833712,20352,1668680496,583207564,,-0.09748127286078817,-0.6147461072974167,0.07088203564508394,0.9955612185694714,0.0935231644159427,-0.004347487265636643,0.009611303375343497
1668680496.5916543,20353,1668680496,591501095,,-0.0974238193949127,-0.614692889010108,0.07088203394288814,0.9955612185449377,0.09352316443138153,-0.004347488572529666,0.00961130517523171
1668680496.5996916,20354,1668680496,599589555,,-0.09736499707974629,-0.6146383502554663,0.07088203218743733,0.9955612185202183,0.09352316444680274,-0.004347489883286714,0.009611306992768482
1668680496.607689,20355,1668680496,607519272,,-0.09730479786723485,-0.6145824841418898,0.07088203037884155,0.9955612184953174,0.09352316446220434,-0.004347491197726888,0.009611308827619661
1668680496.615292,20356,1668680496,615162520,,-0.09724321400225779,-0.6145252840632546,0.07088202851726683,0.9955612184702395,0.09352316447758474,-0.004347492515669991,0.00961131067945133
1668680496.6236353,20357,1668680496,623467704,,-0.0971802380162646,-0.6144667436911044,0.07088202660293522,0.9955612184449885,0.09352316449294192,-0.004347493836937319,0.009611312547930751
1668680496.6317863,20358,1668680496,631585022,,-0.09711586272086793,-0.6144068569669392,0.07088202463612284,0.9955612184195684,0.09352316450827394,-0.004347495161351254,0.009611314432726394
1668680496.6423411,20359,1668680496,641938048,,-0.09705008120140916,-0.6143456180946092,0.07088202261715765,0.9955612183939837,0.09352316452357923,-0.004347496488735392,0.009611316333507055
1668680496.6480699,20360,1668680496,647957423,,-0.09698288681051294,-0.6142830215328272,0.07088202054641846,0.9955612183682382,0.09352316453885577,-0.004347497818914174,0.009611318249942298
1668680496.6560633,20361,1668680496,655911412,,-0.09691427316164188,-0.6142190619877979,0.0708820184243334,0.9955612183423364,0.09352316455410213,-0.004347499151713626,0.009611320181703171
1668680496.6636665,20362,1668680496,663574704,,-0.09684423412266618,-0.6141537344059722,0.07088201625137779,0.9955612183162819,0.09352316456931623,-0.004347500486960736,0.00961132212846123
1668680496.6717713,20363,1668680496,671665238,,-0.09677276380945872,-0.614087033966936,0.07088201402807211,0.995561218290079,0.0935231645844964,-0.0043475018244837635,0.00961132408988917
1668680496.6795943,20364,1668680496,679461335,,-0.09669985657952518,-0.614018956076427,0.07088201175498073,0.9955612182637319,0.09352316459964109,-0.004347503164112033,0.009611326065660371
1668680496.68816,20365,1668680496,687917174,,-0.09662550702568247,-0.6139494963594962,0.07088200943270936,0.9955612182372445,0.09352316461474844,-0.004347504505676179,0.00961132805544963
1668680496.6960204,20366,1668680496,695892842,,-0.09654970996978943,-0.613878650653803,0.07088200706190383,0.9955612182106207,0.09352316462981669,-0.004347505849008125,0.00961133005893259
1668680496.7039788,20367,1668680496,703770445,,-0.09647246045654134,-0.6138064150030603,0.07088200464324769,0.9955612181838649,0.09352316464484453,-0.004347507193940878,0.009611332075786001
1668680496.7125132,20368,1668680496,712314253,,-0.09639375374733508,-0.6137327856506182,0.07088200217746,0.9955612181569805,0.09352316465982999,-0.004347508540308734,0.009611334105687376
1668680496.7205317,20369,1668680496,720304699,,-0.09631358531420954,-0.6136577590331996,0.07088199966529385,0.995561218129972,0.09352316467477159,-0.004347509887947301,0.009611336148315906
1668680496.7286694,20370,1668680496,728500783,,-0.0962319508338697,-0.6135813317747809,0.07088199710753434,0.9955612181028431,0.09352316468966779,-0.004347511236693288,0.00961133820335145
1668680496.7370298,20371,1668680496,736830413,,-0.09614884618179752,-0.6135035006806199,0.07088199450499616,0.9955612180755978,0.09352316470451694,-0.004347512586384726,0.009611340270475098
1668680496.7434146,20372,1668680496,743285811,,-0.0960642674264561,-0.6134242627314355,0.07088199185852201,0.99556121804824,0.09352316471931726,-0.004347513936860864,0.009611342349369308
1668680496.7519066,20373,1668680496,751710590,,-0.09597821082358968,-0.6133436150777344,0.07088198916898074,0.9955612180207736,0.09352316473406737,-0.004347515287962403,0.009611344439717416
1668680496.7600052,20374,1668680496,759844130,,-0.09589067281062362,-0.6132615550342876,0.07088198643726486,0.9955612179932026,0.09352316474876587,-0.004347516639531119,0.009611346541204333
1668680496.7677968,20375,1668680496,767660991,,-0.09580165000116903,-0.613178080074752,0.07088198366428972,0.9955612179655307,0.09352316476341112,-0.004347517991410184,0.00961134865351605
1668680496.7756476,20376,1668680496,775473038,,-0.09571113917963155,-0.6130931878264448,0.07088198085098986,0.9955612179377616,0.09352316477800163,-0.004347519343443855,0.009611350776339579
1668680496.784114,20377,1668680496,783917410,,-0.09561913729592907,-0.6130068760652584,0.07088197799831937,0.9955612179098994,0.0935231647925361,-0.00434752069547807,0.009611352909363978
1668680496.79195,20378,1668680496,791785235,,-0.0955256414603201,-0.6129191427107241,0.0708819751072481,0.9955612178819477,0.09352316480701273,-0.004347522047359779,0.009611355052278758
1668680496.79987,20379,1668680496,799698298,,-0.0954306489383425,-0.6128299858212201,0.07088197217876122,0.9955612178539105,0.0935231648214305,-0.004347523398937336,0.009611357204775343
1668680496.807646,20380,1668680496,807547148,,-0.09533415714586581,-0.6127394035893178,0.07088196921385657,0.9955612178257914,0.09352316483578747,-0.004347524750060399,0.00961135936654618
1668680496.8163135,20381,1668680496,816184475,,-0.09523616364425619,-0.6126473943372744,0.07088196621354381,0.9955612177975941,0.09352316485008304,-0.004347526100579937,0.009611361537285515
1668680496.8238196,20382,1668680496,823706256,,-0.09513666613565736,-0.6125539565126582,0.07088196317884213,0.9955612177693224,0.09352316486431494,-0.004347527450348365,0.009611363716688526
1668680496.8328676,20383,1668680496,832623247,,-0.09503566245838249,-0.6124590886841148,0.07088196011077909,0.9955612177409799,0.09352316487848235,-0.004347528799219238,0.00961136590445227
1668680496.8405485,20384,1668680496,840358456,,-0.09493315058242466,-0.6123627895372679,0.07088195701038881,0.9955612177125704,0.09352316489258403,-0.0043475301470477035,0.009611368100275013
1668680496.8480778,20385,1668680496,847955194,,-0.09482912860507797,-0.6122650578707485,0.0708819538787106,0.9955612176840976,0.09352316490661843,-0.004347531493689933,0.009611370303856658
1668680496.8560157,20386,1668680496,855892488,,-0.09472359474667509,-0.61216589259236,0.0708819507167879,0.9955612176555648,0.09352316492058434,-0.004347532839004072,0.009611372514898504
1668680496.8636873,20387,1668680496,863579089,,-0.09461654734643543,-0.6120652927153664,0.070881947525666,0.9955612176269759,0.09352316493448035,-0.004347534182848951,0.009611374733103528
1668680496.871812,20388,1668680496,871619850,,-0.09450798485842853,-0.6119632573549095,0.07088194430639126,0.9955612175983344,0.09352316494830537,-0.004347535525085167,0.009611376958176187
1668680496.8797731,20389,1668680496,879589906,,-0.09439790584764655,-0.6118597857245454,0.07088194106001043,0.9955612175696439,0.09352316496205808,-0.004347536865574623,0.009611379189822548
1668680496.8877769,20390,1668680496,887613960,,-0.09428630898618888,-0.6117548771329057,0.07088193778756818,0.9955612175409077,0.09352316497573726,-0.004347538204180476,0.00961138142775041
1668680496.895817,20391,1668680496,895691861,,-0.09417319304955474,-0.6116485309804724,0.07088193449010724,0.9955612175121296,0.09352316498934173,-0.004347539540767413,0.00961138367166883
1668680496.903475,20392,1668680496,903268437,,-0.09405855691304511,-0.6115407467564723,0.0708819311686662,0.9955612174833129,0.09352316500287024,-0.004347540875201689,0.009611385921289019
1668680496.9116442,20393,1668680496,911543546,,-0.09394239954826906,-0.61143152403588,0.07088192782427939,0.9955612174544614,0.09352316501632169,-0.004347542207350673,0.009611388176323817
1668680496.9199564,20394,1668680496,919801833,,-0.09382472001975649,-0.6113208624765343,0.07088192445797546,0.995561217425578,0.09352316502969514,-0.004347543537083368,0.009611390436487434
1668680496.927958,20395,1668680496,927698394,,-0.09370551748167467,-0.6112087618163606,0.07088192107077596,0.9955612173966665,0.09352316504298898,-0.004347544864270085,0.009611392701496238
1668680496.9358432,20396,1668680496,935672241,,-0.09358479117464404,-0.6110952218706976,0.0708819176636956,0.9955612173677301,0.09352316505620252,-0.004347546188782292,0.009611394971067697
1668680496.9434702,20397,1668680496,943322391,,-0.09346254042265643,-0.6109802425297293,0.07088191423774064,0.9955612173387723,0.09352316506933457,-0.00434754751049376,0.009611397244921957
1668680496.9518986,20398,1668680496,951780469,,-0.09333876463008905,-0.6108638237560117,0.07088191079390807,0.9955612173097964,0.09352316508238409,-0.004347548829278625,0.009611399522780291
1668680496.959774,20399,1668680496,959643392,,-0.09321346327881677,-0.6107459655821007,0.07088190733318556,0.9955612172808056,0.09352316509535018,-0.004347550145013076,0.009611401804365857
1668680496.9677413,20400,1668680496,967597398,,-0.09308663592541687,-0.6106266681082729,0.07088190385655037,0.9955612172518034,0.09352316510823146,-0.004347551457574892,0.009611404089404273
1668680496.975336,20401,1668680496,975227619,,-0.09295828219846619,-0.6105059315003392,0.07088190036496846,0.9955612172227928,0.09352316512102746,-0.004347552766842691,0.009611406377622164
1668680496.983944,20402,1668680496,983832428,,-0.09282840179593077,-0.6103837559875441,0.07088189685939446,0.9955612171937771,0.09352316513373671,-0.004347554072696995,0.009611408668748553
1668680496.9920394,20403,1668680496,991912086,,-0.09269699448264006,-0.610260141860558,0.07088189334077111,0.9955612171647596,0.09352316514635849,-0.004347555375020018,0.009611410962514427
1668680496.999822,20404,1668680496,999670941,,-0.09256406008785073,-0.6101350894695482,0.07088188981002852,0.9955612171357434,0.09352316515889188,-0.004347556673694767,0.009611413258652423
1668680497.0080025,20405,1668680497,7825991,,-0.09242959850289335,-0.610008599222335,0.07088188626808363,0.9955612171067318,0.09352316517133555,-0.004347557968606158,0.009611415556897417
1668680497.0160737,20406,1668680497,15907197,,-0.09229360967890075,-0.6098806715826253,0.07088188271584048,0.9955612170777278,0.09352316518368917,-0.004347559259640658,0.009611417856986278
1668680497.0234902,20407,1668680497,23384537,,-0.09215609362461767,-0.6097513070683256,0.07088187915418934,0.9955612170487345,0.09352316519595152,-0.004347560546686021,0.009611420158657312
1668680497.031781,20408,1668680497,31675368,,-0.09201705040428804,-0.609620506249925,0.07088187558400648,0.9955612170197549,0.09352316520812178,-0.004347561829631464,0.009611422461651394
1668680497.0403876,20409,1668680497,40037744,,-0.0918764801356185,-0.6094882697489593,0.07088187200615413,0.9955612169907923,0.0935231652201992,-0.004347563108367774,0.009611424765711262
1668680497.0477247,20410,1668680497,47517823,,-0.09173438298781597,-0.6093545982365346,0.07088186842148031,0.9955612169618492,0.09352316523218278,-0.004347564382787375,0.009611427070581989
1668680497.056273,20411,1668680497,56122137,,-0.09159075917969722,-0.609219492431926,0.07088186483081822,0.9955612169329291,0.09352316524407187,-0.00434756565278388,0.00961142937601046
1668680497.0636213,20412,1668680497,63497486,,-0.09144560897786864,-0.6090829531012399,0.07088186123498655,0.9955612169040348,0.09352316525586586,-0.004347566918252526,0.0096114316817453
1668680497.071849,20413,1668680497,71685113,,-0.0912989326949749,-0.6089449810561394,0.0708818576347889,0.9955612168751691,0.09352316526756356,-0.004347568179090097,0.009611433987537837
1668680497.0798564,20414,1668680497,79660750,,-0.09115073068801223,-0.6088055771526327,0.0708818540310148,0.9955612168463349,0.09352316527916464,-0.004347569435195005,0.0096114362931416
1668680497.0879555,20415,1668680497,87779705,,-0.09100100335670801,-0.6086647422899178,0.07088185042443801,0.9955612168175353,0.09352316529066781,-0.004347570686466837,0.009611438598311593
1668680497.0957544,20416,1668680497,95512443,,-0.09084975114196012,-0.6085224774092884,0.07088184681581798,0.995561216788773,0.09352316530207304,-0.004347571932807079,0.009611440902805527
1668680497.1039007,20417,1668680497,103751338,,-0.09069697452434043,-0.608378783493093,0.07088184320589924,0.9955612167600506,0.09352316531337902,-0.004347573174118469,0.009611443206383175
1668680497.1120927,20418,1668680497,111824863,,-0.09054267402265306,-0.6082336615637475,0.07088183959541085,0.9955612167313713,0.09352316532458545,-0.004347574410305333,0.009611445508806252
1668680497.1202767,20419,1668680497,120012612,,-0.09038685019255231,-0.6080871126828004,0.07088183598506799,0.9955612167027375,0.09352316533569163,-0.004347575641273484,0.009611447809839406
1668680497.1280725,20420,1668680497,127878930,,-0.09022950362521463,-0.6079391379500468,0.07088183237557065,0.9955612166741521,0.09352316534669679,-0.004347576866930304,0.009611450109248706
1668680497.1355746,20421,1668680497,135421264,,-0.09007063494606352,-0.607789738502692,0.0708818287676042,0.9955612166456177,0.09352316535760045,-0.00434757808718446,0.009611452406802584
1668680497.1436422,20422,1668680497,143529577,,-0.08991024481354759,-0.6076389155145604,0.07088182516184018,0.9955612166171369,0.09352316536840223,-0.004347579301946708,0.009611454702272537
1668680497.1518831,20423,1668680497,151773250,,-0.08974833391796619,-0.6074866701953476,0.07088182155893497,0.9955612165887125,0.09352316537910131,-0.004347580511128904,0.009611456995431455
1668680497.1599858,20424,1668680497,159818369,,-0.0895849029803457,-0.6073330037899192,0.07088181795953136,0.9955612165603472,0.09352316538969686,-0.004347581714644298,0.009611459286054756
1668680497.167861,20425,1668680497,167681208,,-0.0894199527513606,-0.6071779175776467,0.07088181436425789,0.9955612165320431,0.09352316540018892,-0.00434758291240784,0.00961146157391996
1668680497.175696,20426,1668680497,175558097,,-0.08925348401030139,-0.6070214128717883,0.07088181077373011,0.9955612165038032,0.09352316541057643,-0.004347584104336183,0.009611463858807932
1668680497.1835222,20427,1668680497,183359408,,-0.08908549756408411,-0.6068634910189017,0.07088180718854907,0.9955612164756298,0.09352316542085913,-0.004347585290347397,0.00961146614050047
1668680497.1917486,20428,1668680497,191597374,,-0.08891599424630342,-0.6067041533983005,0.07088180360930323,0.9955612164475254,0.09352316543103659,-0.004347586470360968,0.009611468418782701
1668680497.1999888,20429,1668680497,199787581,,-0.08874497491632581,-0.6065434014215406,0.07088180003656744,0.9955612164194924,0.09352316544110822,-0.004347587644297831,0.009611470693441518
1668680497.2077029,20430,1668680497,207605832,,-0.08857244045842187,-0.6063812365319451,0.07088179647090483,0.9955612163915333,0.09352316545107367,-0.0043475888120808335,0.009611472964266845
1668680497.2155437,20431,1668680497,215368935,,-0.08839839178093604,-0.6062176602041573,0.07088179291286459,0.9955612163636505,0.09352316546093249,-0.004347589973633999,0.009611475231050076
1668680497.2237656,20432,1668680497,223661994,,-0.08822282981549294,-0.6060526739437309,0.0708817893629847,0.9955612163358462,0.09352316547068434,-0.004347591128882976,0.009611477493586018
1668680497.2316444,20433,1668680497,231540943,,-0.08804585175472553,-0.6058862792910711,0.07088147896909254,0.995561216308126,0.09352316548032888,-0.004347592277627276,0.009611479751388104
1668680497.2399642,20434,1668680497,239758994,,-0.08786759787368609,-0.6057184778219469,0.0708804175691124,0.9955612162805003,0.09352316548986678,-0.0043475934194818185,0.009611482003558757
1668680497.248471,20435,1668680497,248308012,,-0.08768897960939845,-0.605549271490395,0.0708794035593318,0.9955612162530042,0.09352316549929983,-0.004347594553094293,0.009611484247055505
1668680497.2560878,20436,1668680497,255837476,,-0.0875112482284447,-0.6053786627499945,0.07087980982207842,0.9955612162257123,0.09352316550863359,-0.004347595675571337,0.009611486475415949
1668680497.264003,20437,1668680497,263826817,,-0.08733467281088217,-0.6052066534251852,0.07088199888459036,0.9955612161986477,0.09352316551786921,-0.004347596786018674,0.009611488686615554
1668680497.2717695,20438,1668680497,271659845,,-0.08716055052378643,-0.605033245750408,0.07089018035679061,0.9955612161718499,0.09352316552700912,-0.004347597882914642,0.009611490877239025
1668680497.2796957,20439,1668680497,279589001,,-0.08699169428765552,-0.6048584431809808,0.07091231229381668,0.9955612161454531,0.0935231655360631,-0.00434759896103954,0.009611493035663967
1668680497.287854,20440,1668680497,287645805,,-0.08683002243010585,-0.604682247788288,0.07095350798482022,0.9955612161195467,0.09352316554503771,-0.004347600016904473,0.009611495154111511
1668680497.295462,20441,1668680497,295303281,,-0.08667611201547418,-0.6045046600758528,0.0710154016065647,0.9955612160941387,0.0935231655539326,-0.004347601050229445,0.009611497231923454
1668680497.303844,20442,1668680497,303645196,,-0.08652961592364851,-0.6043256801119065,0.07109729172905833,0.995561216069194,0.09352316556274427,-0.004347602062401494,0.00961149927213844
1668680497.312097,20443,1668680497,311958144,,-0.08638960044913488,-0.6041453081162685,0.07119760534251345,0.9955612160446541,0.09352316557146768,-0.004347603055708253,0.00961150127979296
1668680497.3197968,20444,1668680497,319669890,,-0.08625511397193401,-0.6039635447190471,0.0713149463014686,0.9955612160204663,0.09352316558009843,-0.004347604032235056,0.009611503259473006
1668680497.327759,20445,1668680497,327622165,,-0.08612497911063775,-0.6037803910293476,0.07144738715363548,0.9955612159965834,0.09352316558863236,-0.0043476049938403405,0.009611505215259185
1668680497.3355658,20446,1668680497,335461437,,-0.08599794889198839,-0.6035958485851639,0.07159280098623626,0.9955612159729575,0.09352316559706507,-0.004347605942411784,0.009611507151297702
1668680497.343731,20447,1668680497,343601008,,-0.08587282303276073,-0.603409919273137,0.0717492318330456,0.9955612159495536,0.09352316560539363,-0.004347606879347699,0.009611509070646505
1668680497.3517838,20448,1668680497,351617906,,-0.0857487171210054,-0.6032226051978465,0.07191508936233827,0.9955612159263416,0.09352316561361544,-0.004347607805823681,0.009611510975868192
1668680497.3596191,20449,1668680497,359468924,,-0.08562458474618574,-0.603033908667941,0.07208859637734748,0.995561215903301,0.0935231656217285,-0.004347608722667429,0.00961151286875059
1668680497.367926,20450,1668680497,367779893,,-0.08549908954216245,-0.6028438321568772,0.07226772769626955,0.9955612158803948,0.09352316562972975,-0.004347609631343055,0.009611514752495845
1668680497.3759286,20451,1668680497,375784081,,-0.08537140837024412,-0.6026523781738917,0.07245097920235533,0.9955612158576015,0.09352316563761731,-0.00434761053271116,0.00961151662896178
1668680497.3836195,20452,1668680497,383424838,,-0.08524112835866456,-0.602459549278971,0.0726371215600701,0.9955612158349078,0.09352316564539002,-0.0043476114273123005,0.00961151849929296
1668680497.3922708,20453,1668680497,392082033,,-0.08510816359285667,-0.6022653480084905,0.0728253500568434,0.9955612158123108,0.09352316565304729,-0.004347612315276514,0.009611520363720474
1668680497.400258,20454,1668680497,399995390,,-0.08497244969348086,-0.6020697767993306,0.0730150179519769,0.9955612157898087,0.09352316566058884,-0.004347613196704577,0.009611522222408828
1668680497.4083426,20455,1668680497,408249815,,-0.08483369494537912,-0.6018728380349189,0.07320558837183228,0.9955612157673943,0.09352316566801404,-0.0043476140718984625,0.00961152407596833
1668680497.4159625,20456,1668680497,415849969,,-0.08469152356509786,-0.60167453392113,0.07339670835061042,0.9955612157450533,0.09352316567532164,-0.004347614941432074,0.009611525925613047
1668680497.4242802,20457,1668680497,424168898,,-0.08454582837131708,-0.6014748667959022,0.0735879901432508,0.9955612157227792,0.09352316568251107,-0.004347615805590634,0.009611527771913375
1668680497.4326165,20458,1668680497,432400191,,-0.08439672310339996,-0.601273839078687,0.07377913584794138,0.9955612157005731,0.09352316568958226,-0.00434761666436199,0.009611529614778572
1668680497.440568,20459,1668680497,440349884,,-0.08424458968193185,-0.6010714532126171,0.07397001064667127,0.9955612156784444,0.0935231656965359,-0.004347617517391166,0.009611531453356283
1668680497.4481735,20460,1668680497,447969288,,-0.08408984400835817,-0.6008677117026751,0.07416047222468278,0.9955612156564091,0.09352316570337339,-0.004347618364078991,0.009611533286252432
1668680497.4557426,20461,1668680497,455633156,,-0.08393275636708517,-0.6006626170231061,0.07435035045716827,0.9955612156344772,0.09352316571009495,-0.004347619204064042,0.009611535112600374
1668680497.4633317,20462,1668680497,463214344,,-0.08377304445517701,-0.6004561715897883,0.07453919729869757,0.9955612156126448,0.09352316571670044,-0.004347620037520684,0.009611536932722202
1668680497.4719787,20463,1668680497,471849261,,-0.08361029274124593,-0.6002483777609653,0.0747265027158484,0.9955612155908898,0.09352316572318838,-0.004347620865334282,0.009611538748517234
1668680497.4796197,20464,1668680497,479517578,,-0.08344430406643688,-0.6000392379624881,0.07491190328815829,0.9955612155692057,0.09352316572955832,-0.004347621687783484,0.00961154056053578
1668680497.4877784,20465,1668680497,487633613,,-0.08327474671246024,-0.5998287545885893,0.07509497471433532,0.9955612155475765,0.0935231657358091,-0.004347622505533144,0.009611542370185262
1668680497.4958067,20466,1668680497,495632327,,-0.08310144350513313,-0.5996169300687527,0.07527539729089938,0.9955612155259904,0.09352316574193988,-0.004347623319045952,0.009611544178421517
1668680497.5035145,20467,1668680497,503378475,,-0.08292429339479775,-0.5994037668604479,0.07545291766070102,0.9955612155044407,0.09352316574795048,-0.00434762412862945,0.009611545985856403
1668680497.511869,20468,1668680497,511729796,,-0.08274328949352762,-0.5991892674471271,0.07562735752621919,0.9955612154829222,0.09352316575384059,-0.004347624934502195,0.009611547792902204
1668680497.5197492,20469,1668680497,519620292,,-0.08255848367909707,-0.5989734343267381,0.07579869219209548,0.995561215461435,0.09352316575961048,-0.004347625736689821,0.00961154959954251
1668680497.5278163,20470,1668680497,527635938,,-0.08236990568335625,-0.5987562699757438,0.07596694525939318,0.9955612154399771,0.09352316576526017,-0.00434762653529241,0.00961155140592549
1668680497.5366116,20471,1668680497,536195760,,-0.08217767365295252,-0.5985377769332377,0.07613222643082991,0.9955612154185508,0.0935231657707898,-0.004347627330258221,0.009611553211862392
1668680497.5440445,20472,1668680497,543533940,,-0.08198223401447664,-0.5983179578273252,0.0762948673376917,0.9955612153971723,0.09352316577620089,-0.0043476281209754875,0.009611555015921588
1668680497.5518157,20473,1668680497,551644829,,-0.08178395811184858,-0.5980968154119143,0.07645502078816051,0.9955612153758656,0.09352316578149565,-0.004347628906530783,0.009611556816003336
1668680497.559741,20474,1668680497,559637673,,-0.08158304499657426,-0.5978743524058511,0.07661270749841735,0.9955612153546379,0.0935231657866745,-0.004347629686673656,0.009611558611478459
1668680497.5676286,20475,1668680497,567537754,,-0.08137991291851487,-0.5976505716231826,0.07676809954260604,0.9955612153335112,0.0935231657917391,-0.00434763046058155,0.009611560400449156
1668680497.5753336,20476,1668680497,575231847,,-0.0811749077895322,-0.5974254759201199,0.07692129798774884,0.9955612153125069,0.09352316579669148,-0.004347631227425043,0.009611562181003137
1668680497.5837407,20477,1668680497,583641481,,-0.08096811665951031,-0.5971990680963538,0.0770722521003294,0.9955612152916331,0.09352316580153211,-0.004347631986923959,0.009611563952446965
1668680497.5918765,20478,1668680497,591677934,,-0.08075956650590099,-0.5969713509244599,0.07722094111486345,0.9955612152708905,0.09352316580626142,-0.004347632739079102,0.009611565714709695
1668680497.5999405,20479,1668680497,599730238,,-0.08054947714812676,-0.596742327242227,0.07736754224705578,0.9955612152502901,0.09352316581088027,-0.004347633483487704,0.009611567466824776
1668680497.6076884,20480,1668680497,607574755,,-0.080338084840319,-0.5965119999562443,0.07751222451827548,0.9955612152298485,0.09352316581538998,-0.004347634219527969,0.009611569207341469
