Time,header.seq,header.stamp.secs,header.stamp.nsecs,header.frame_id,wrench.force.x,wrench.force.y,wrench.force.z,wrench.torque.x,wrench.torque.y,wrench.torque.z
1668680495.0954738,20166,1668680495,95274456,,-1.5910748488742253e-183,-5e-324,5e-324,5e-324,-5e-324,0.0
1668680495.1039507,20167,1668680495,103753533,,-8.418023938322934e-184,-5e-324,5e-324,5e-324,-5e-324,0.0
1668680495.111844,20168,1668680495,111644204,,-4.4537896552332273e-184,-5e-324,5e-324,5e-324,-5e-324,0.0
1668680495.1197188,20169,1668680495,119530286,,-2.3564012692763085e-184,-5e-324,5e-324,5e-324,-5e-324,0.0
1668680495.127876,20170,1668680495,127667268,,-1.2467196189480188e-184,-5e-324,5e-324,5e-324,-5e-324,0.0
1668680495.136357,20171,1668680495,136105277,,-6.59611683517404e-185,-5e-324,5e-324,5e-324,-5e-324,0.0
1668680495.1438344,20172,1668680495,143633306,,-6.59611683517404e-185,-5e-324,5e-324,5e-324,-5e-324,0.0
1668680495.152496,20173,1668680495,152274934,,-3.489859038231792e-185,-5e-324,5e-324,5e-324,-5e-324,0.0
1668680495.1602771,20174,1668680495,160072845,,-1.846406971111023e-185,-5e-324,5e-324,5e-324,-5e-324,0.0
1668680495.1687546,20175,1668680495,168499145,,-9.768929534456878e-186,-5e-324,5e-324,5e-324,-5e-324,0.0
1668680495.1764314,20176,1668680495,176115728,,-5.168523827212393e-186,-5e-324,5e-324,5e-324,-5e-324,0.0
1668680495.183659,20177,1668680495,183475604,,-5.168523827212393e-186,-5e-324,5e-324,5e-324,-5e-324,0.0
1668680495.1917746,20178,1668680495,191534116,,-2.7345512584810997e-186,-5e-324,5e-324,5e-324,-5e-324,0.0
1668680495.2009497,20179,1668680495,200496198,,-1.4467903864329576e-186,-5e-324,5e-324,5e-324,-5e-324,0.0
1668680495.2086215,20180,1668680495,208341538,,-7.65464686676779e-187,-5e-324,5e-324,5e-324,-5e-324,0.0
1668680495.216159,20181,1668680495,215912873,,-7.65464686676779e-187,-5e-324,5e-324,5e-324,-5e-324,0.0
1668680495.2247252,20182,1668680495,224467004,,-4.04990378733299e-187,-5e-324,5e-324,5e-324,-5e-324,0.0
1668680495.2325213,20183,1668680495,232298693,,-2.1427142194973387e-187,-5e-324,5e-324,5e-324,-5e-324,0.0
1668680495.2401154,20184,1668680495,239880586,,-1.1336625429957631e-187,-5e-324,5e-324,5e-324,-5e-324,0.0
1668680495.2477665,20185,1668680495,247592069,,-5.997956935634256e-188,-5e-324,5e-324,5e-324,-5e-324,0.0
1668680495.255676,20186,1668680495,255424832,,-5.997956935634256e-188,-5e-324,5e-324,5e-324,-5e-324,0.0
1668680495.2638893,20187,1668680495,263676593,,-3.173385909589634e-188,-5e-324,5e-324,5e-324,-5e-324,0.0
1668680495.2717302,20188,1668680495,271512443,,-1.6789680618333972e-188,-5e-324,5e-324,5e-324,-5e-324,0.0
1668680495.2798584,20189,1668680495,279609252,,-8.883047423063412e-189,-5e-324,5e-324,5e-324,-5e-324,0.0
1668680495.2878656,20190,1668680495,287616635,,-4.699823261332744e-189,-5e-324,5e-324,5e-324,-5e-324,0.0
1668680495.2956116,20191,1668680495,295408747,,-4.699823261332744e-189,-5e-324,5e-324,5e-324,-5e-324,0.0
1668680495.303931,20192,1668680495,303719226,,-2.486572190351648e-189,-5e-324,5e-324,5e-324,-5e-324,0.0
1668680495.312066,20193,1668680495,311800169,,-1.315590164570752e-189,-5e-324,5e-324,5e-324,-5e-324,0.0
1668680495.3199465,20194,1668680495,319743491,,-6.960495608496827e-190,-5e-324,5e-324,5e-324,-5e-324,0.0
1668680495.3281605,20195,1668680495,327975659,,-3.6826437610006977e-190,-5e-324,5e-324,5e-324,-5e-324,0.0
1668680495.336343,20196,1668680495,336048245,,-1.948405089701099e-190,-5e-324,5e-324,5e-324,-5e-324,0.0
1668680495.3436184,20197,1668680495,343375612,,-1.948405089701099e-190,-5e-324,5e-324,5e-324,-5e-324,0.0
1668680495.351843,20198,1668680495,351623262,,-1.0308578944767576e-190,-5e-324,5e-324,5e-324,-5e-324,0.0
1668680495.3598201,20199,1668680495,359593148,,-5.454040354452553e-191,-5e-324,5e-324,5e-324,-5e-324,0.0
1668680495.367687,20200,1668680495,367496843,,-2.885611716937539e-191,-5e-324,5e-324,5e-324,-5e-324,0.0
1668680495.3754802,20201,1668680495,375234586,,-2.885611716937539e-191,-5e-324,5e-324,5e-324,-5e-324,0.0
1668680495.3838973,20202,1668680495,383705431,,-1.5267131227090098e-191,-5e-324,5e-324,5e-324,-5e-324,0.0
1668680495.3919652,20203,1668680495,391752672,,-8.07750032816473e-192,-5e-324,5e-324,5e-324,-5e-324,0.0
1668680495.399929,20204,1668680495,399700460,,-4.273626169907308e-192,-5e-324,5e-324,5e-324,-5e-324,0.0
1668680495.407883,20205,1668680495,407660735,,-2.2610807673301947e-192,-5e-324,5e-324,5e-324,-5e-324,0.0
1668680495.4155507,20206,1668680495,415246404,,-2.2610807673301947e-192,-5e-324,5e-324,5e-324,-5e-324,0.0
1668680495.4243624,20207,1668680495,424092269,,-1.1962876566953886e-192,-5e-324,5e-324,5e-324,-5e-324,0.0
1668680495.4319496,20208,1668680495,431726139,,-6.329292514621412e-193,-5e-324,5e-324,5e-324,-5e-324,0.0
1668680495.4396842,20209,1668680495,439477280,,-3.34868821152128e-193,-5e-324,5e-324,5e-324,-5e-324,0.0
1668680495.4479647,20210,1668680495,447724999,,-1.7717166195236813e-193,-5e-324,5e-324,5e-324,-5e-324,0.0
1668680495.4561973,20211,1668680495,455988800,,-1.7717166195236813e-193,-5e-324,5e-324,5e-324,-5e-324,0.0
1668680495.4643106,20212,1668680495,464142059,,-9.373759459291104e-194,-5e-324,5e-324,5e-324,-5e-324,0.0
1668680495.474149,20213,1668680495,473930867,,-4.9594481099506894e-194,-5e-324,5e-324,5e-324,-5e-324,0.0
1668680495.4801183,20214,1668680495,479926282,,-2.623933936230273e-194,-5e-324,5e-324,5e-324,-5e-324,0.0
1668680495.488486,20215,1668680495,488126186,,-1.3882652160200446e-194,-5e-324,5e-324,5e-324,-5e-324,0.0
1668680495.4962149,20216,1668680495,496011060,,-7.345003177862193e-195,-5e-324,5e-324,5e-324,-5e-324,0.0
1668680495.5033722,20217,1668680495,503151759,,-7.345003177862193e-195,-5e-324,5e-324,5e-324,-5e-324,0.0
1668680495.511827,20218,1668680495,511595735,,-3.88607818306288e-195,-5e-324,5e-324,5e-324,-5e-324,0.0
1668680495.5201719,20219,1668680495,519905100,,-2.0560377278519716e-195,-5e-324,5e-324,5e-324,-5e-324,0.0
1668680495.527743,20220,1668680495,527492532,,-1.0878039347676957e-195,-5e-324,5e-324,5e-324,-5e-324,0.0
1668680495.535473,20221,1668680495,535269166,,-1.0878039347676957e-195,-5e-324,5e-324,5e-324,-5e-324,0.0
1668680495.5438614,20222,1668680495,543547048,,-5.75532921631911e-196,-5e-324,5e-324,5e-324,-5e-324,0.0
1668680495.5519009,20223,1668680495,551657021,,-3.0450169676293775e-196,-5e-324,5e-324,5e-324,-5e-324,0.0
1668680495.5598798,20224,1668680495,559612299,,-1.6110509033714165e-196,-5e-324,5e-324,5e-324,-5e-324,0.0
1668680495.5678406,20225,1668680495,567642244,,-8.523712809635041e-197,-5e-324,5e-324,5e-324,-5e-324,0.0
1668680495.5754678,20226,1668680495,575253710,,-8.523712809635041e-197,-5e-324,5e-324,5e-324,-5e-324,0.0
1668680495.5839138,20227,1668680495,583675654,,-4.509707291625328e-197,-5e-324,5e-324,5e-324,-5e-324,0.0
1668680495.592216,20228,1668680495,591956990,,-2.3859860497821532e-197,-5e-324,5e-324,5e-324,-5e-324,0.0
1668680495.599887,20229,1668680495,599617684,,-1.2623722697761332e-197,-5e-324,5e-324,5e-324,-5e-324,0.0
1668680495.6087444,20230,1668680495,608436685,,-6.678931537111228e-198,-5e-324,5e-324,5e-324,-5e-324,0.0
1668680495.6162102,20231,1668680495,615848740,,-6.678931537111228e-198,-5e-324,5e-324,5e-324,-5e-324,0.0
1668680495.623907,20232,1668680495,623658685,,-3.533674459225065e-198,-5e-324,5e-324,5e-324,-5e-324,0.0
1668680495.6318412,20233,1668680495,631618597,,-1.869588738018472e-198,-5e-324,5e-324,5e-324,-5e-324,0.0
1668680495.639906,20234,1668680495,639683811,,-9.891579118728544e-199,-5e-324,5e-324,5e-324,-5e-324,0.0
1668680495.6478539,20235,1668680495,647605982,,-5.233415000443795e-199,-5e-324,5e-324,5e-324,-5e-324,0.0
1668680495.6558638,20236,1668680495,655576429,,-2.768883738190292e-199,-5e-324,5e-324,5e-324,-5e-324,0.0
1668680495.6637259,20237,1668680495,663511662,,-2.768883738190292e-199,-5e-324,5e-324,5e-324,-5e-324,0.0
1668680495.6716807,20238,1668680495,671491540,,-1.4649549395498936e-199,-5e-324,5e-324,5e-324,-5e-324,0.0
1668680495.6797886,20239,1668680495,679583367,,-7.750751486280504e-200,-5e-324,5e-324,5e-324,-5e-324,0.0
1668680495.6879003,20240,1668680495,687709278,,-4.100750608789181e-200,-5e-324,5e-324,5e-324,-5e-324,0.0
1668680495.6953652,20241,1668680495,695179668,,-4.100750608789181e-200,-5e-324,5e-324,5e-324,-5e-324,0.0
1668680495.7038486,20242,1668680495,703591866,,-2.1696161443507614e-200,-5e-324,5e-324,5e-324,-5e-324,0.0
1668680495.71237,20243,1668680495,712126462,,-1.1478957544353953e-200,-5e-324,5e-324,5e-324,-5e-324,0.0
1668680495.7197914,20244,1668680495,719587326,,-6.073261698765175e-201,-5e-324,5e-324,5e-324,-5e-324,0.0
1668680495.7278957,20245,1668680495,727650521,,-3.2132279886190616e-201,-5e-324,5e-324,5e-324,-5e-324,0.0
1668680495.7356198,20246,1668680495,735355044,,-3.2132279886190616e-201,-5e-324,5e-324,5e-324,-5e-324,0.0
1668680495.7437844,20247,1668680495,743573626,,-1.7000476216831167e-201,-5e-324,5e-324,5e-324,-5e-324,0.0
1668680495.7521484,20248,1668680495,751669023,,-8.994574696308794e-202,-5e-324,5e-324,5e-324,-5e-324,0.0
1668680495.7627528,20249,1668680495,762470850,,-4.758829866623488e-202,-5e-324,5e-324,5e-324,-5e-324,0.0
1668680495.7684784,20250,1668680495,768157006,,-2.5177912757521943e-202,-5e-324,5e-324,5e-324,-5e-324,0.0
1668680495.7763276,20251,1668680495,776025803,,-2.5177912757521943e-202,-5e-324,5e-324,5e-324,-5e-324,0.0
1668680495.7840023,20252,1668680495,783770913,,-1.3321074898505962e-202,-5e-324,5e-324,5e-324,-5e-324,0.0
1668680495.7918177,20253,1668680495,791570208,,-7.047885111071879e-203,-5e-324,5e-324,5e-324,-5e-324,0.0
1668680495.8002424,20254,1668680495,799885548,,-3.7288796074887145e-203,-5e-324,5e-324,5e-324,-5e-324,0.0
1668680495.8078785,20255,1668680495,807648846,,-1.9728674500243823e-203,-5e-324,5e-324,5e-324,-5e-324,0.0
1668680495.8157153,20256,1668680495,815493146,,-1.043800386461656e-203,-5e-324,5e-324,5e-324,-5e-324,0.0
1668680495.8235204,20257,1668680495,823292498,,-1.043800386461656e-203,-5e-324,5e-324,5e-324,-5e-324,0.0
1668680495.8319397,20258,1668680495,831732719,,-5.5225162073814804e-204,-5e-324,5e-324,5e-324,-5e-324,0.0
1668680495.8398278,20259,1668680495,839588923,,-2.9218407711244398e-204,-5e-324,5e-324,5e-324,-5e-324,0.0
1668680495.8479319,20260,1668680495,847654419,,-1.5458811112938283e-204,-5e-324,5e-324,5e-324,-5e-324,0.0
1668680495.8556728,20261,1668680495,855488509,,-1.5458811112938283e-204,-5e-324,5e-324,5e-324,-5e-324,0.0
1668680495.8640556,20262,1668680495,863751906,,-0.08314440531054423,-5e-324,5e-324,5e-324,-5e-324,0.0
1668680495.8720398,20263,1668680495,871809556,,-0.12712571999508385,-5e-324,5e-324,5e-324,-5e-324,0.0
1668680495.8799057,20264,1668680495,879660287,,-0.2827014944822194,-5e-324,5e-324,5e-324,-5e-324,0.0
1668680495.8877287,20265,1668680495,887513541,,-0.3650310929916242,-5e-324,5e-324,5e-324,-5e-324,0.0
1668680495.895423,20266,1668680495,895228786,,-0.3650310929916242,-5e-324,5e-324,5e-324,-5e-324,0.0
1668680495.9039955,20267,1668680495,903755543,,-0.35791727742106505,-5e-324,5e-324,5e-324,-5e-324,0.0
1668680495.911915,20268,1668680495,911663779,,-0.22845670652914993,-5e-324,5e-324,5e-324,-5e-324,0.0
1668680495.9203203,20269,1668680495,919966009,,-0.15997094444708848,-5e-324,5e-324,5e-324,-5e-324,0.0
1668680495.9280293,20270,1668680495,927824059,,-0.08463707667458521,-5e-324,5e-324,5e-324,-5e-324,0.0
1668680495.935541,20271,1668680495,935354786,,-0.08463707667458521,-5e-324,5e-324,5e-324,-5e-324,0.0
1668680495.9437084,20272,1668680495,943528312,,-0.04477959902517781,-5e-324,5e-324,5e-324,-5e-324,0.0
1668680495.951706,20273,1668680495,951512556,,-0.02369189210734909,-5e-324,5e-324,5e-324,-5e-324,0.0
1668680495.9599392,20274,1668680495,959691420,,-0.012534854349871914,-5e-324,5e-324,5e-324,-5e-324,0.0
1668680495.9678676,20275,1668680495,967607224,,-0.006631913266385521,-5e-324,5e-324,5e-324,-5e-324,0.0
1668680495.9755847,20276,1668680495,975373973,,-0.006631913266385521,-5e-324,5e-324,5e-324,-5e-324,0.0
1668680495.9839835,20277,1668680495,983731223,,-0.003508798135600969,-5e-324,5e-324,5e-324,-5e-324,0.0
1668680495.9919047,20278,1668680495,991675098,,-0.0018564272272376765,-5e-324,5e-324,5e-324,-5e-324,0.0
1668680496.0000536,20279,1668680495,999816850,,-0.000982194448595459,-5e-324,5e-324,5e-324,-5e-324,0.0
1668680496.0077958,20280,1668680496,7547493,,-0.0005196572861556223,-5e-324,5e-324,5e-324,-5e-324,0.0
1668680496.0154524,20281,1668680496,15237100,,-0.0005196572861556223,-5e-324,5e-324,5e-324,-5e-324,0.0
1668680496.0245945,20282,1668680496,24191191,,-0.00027493913800957597,-5e-324,5e-324,5e-324,-5e-324,0.0
1668680496.0318983,20283,1668680496,31651652,,-0.00014546419654512684,-5e-324,5e-324,5e-324,-5e-324,0.0
1668680496.0398877,20284,1668680496,39631569,,-7.696187828952279e-05,-5e-324,5e-324,5e-324,-5e-324,0.0
1668680496.048058,20285,1668680496,47586218,,-4.0718821885588916e-05,-5e-324,5e-324,5e-324,-5e-324,0.0
1668680496.0560195,20286,1668680496,55774814,,-4.0718821885588916e-05,-5e-324,5e-324,5e-324,-5e-324,0.0
1668680496.0643246,20287,1668680496,64017338,,-2.1543425038471677e-05,-5e-324,5e-324,5e-324,-5e-324,0.0
1668680496.0721946,20288,1668680496,71915395,,-1.1398148101934847e-05,-5e-324,5e-324,5e-324,-5e-324,0.0
1668680496.079815,20289,1668680496,79572091,,-6.030507216082736e-06,-5e-324,5e-324,5e-324,-5e-324,0.0
1668680496.0876236,20290,1668680496,87391296,,-3.190607540627816e-06,-5e-324,5e-324,5e-324,-5e-324,0.0
1668680496.0956593,20291,1668680496,95428738,,-3.190607540627816e-06,-5e-324,5e-324,5e-324,-5e-324,0.0
1668680496.10379,20292,1668680496,103557826,,-1.688079644637874e-06,-5e-324,5e-324,5e-324,-5e-324,0.0
1668680496.11182,20293,1668680496,111528868,,-8.931254785663839e-07,-5e-324,5e-324,5e-324,-5e-324,0.0
1668680496.1197488,20294,1668680496,119509411,,-4.725328707079746e-07,-5e-324,5e-324,5e-324,-5e-324,0.0
1668680496.127895,20295,1668680496,127623344,,-2.5000665556863634e-07,-5e-324,5e-324,5e-324,-5e-324,0.0
1668680496.135558,20296,1668680496,135362848,,-2.5000665556863634e-07,-5e-324,5e-324,5e-324,-5e-324,0.0
1668680496.143958,20297,1668680496,143744173,,-1.3227297338060072e-07,-5e-324,5e-324,5e-324,-5e-324,0.0
1668680496.1517189,20298,1668680496,151486507,,-6.998269484926472e-08,-5e-324,5e-324,5e-324,-5e-324,0.0
1668680496.1600518,20299,1668680496,159753233,,-3.7026290807518705e-08,-5e-324,5e-324,5e-324,-5e-324,0.0
1668680496.1677294,20300,1668680496,167544087,,-1.958978878872579e-08,-5e-324,5e-324,5e-324,-5e-324,0.0
1668680496.175536,20301,1668680496,175302997,,-1.958978878872579e-08,-5e-324,5e-324,5e-324,-5e-324,0.0
1668680496.1839056,20302,1668680496,183666654,,-1.0364522516766895e-08,-5e-324,5e-324,5e-324,-5e-324,0.0
1668680496.1920002,20303,1668680496,191793190,,-5.4836388569126205e-09,-5e-324,5e-324,5e-324,-5e-324,0.0
1668680496.2003527,20304,1668680496,199783342,,-2.901271627747119e-09,-5e-324,5e-324,5e-324,-5e-324,0.0
1668680496.2081277,20305,1668680496,207860876,,-1.5349984339978104e-09,-5e-324,5e-324,5e-324,-5e-324,0.0
1668680496.2164645,20306,1668680496,216209618,,-8.121336071539676e-10,-5e-324,5e-324,5e-324,-5e-324,0.0
1668680496.2242763,20307,1668680496,223981297,,-8.121336071539676e-10,-5e-324,5e-324,5e-324,-5e-324,0.0
1668680496.2328377,20308,1668680496,232592028,,-4.2968186889359115e-10,-5e-324,5e-324,5e-324,-5e-324,0.0
1668680496.2403867,20309,1668680496,240169946,,-2.273351414466056e-10,-5e-324,5e-324,5e-324,-5e-324,0.0
1668680496.247688,20310,1668680496,247450882,,-1.202779783788057e-10,-5e-324,5e-324,5e-324,-5e-324,0.0
1668680496.2555046,20311,1668680496,255304688,,-1.202779783788057e-10,-5e-324,5e-324,5e-324,-5e-324,0.0
1668680496.2637956,20312,1668680496,263572992,,-6.363640918353257e-11,-5e-324,5e-324,5e-324,-5e-324,0.0
1668680496.2718089,20313,1668680496,271593164,,-3.36686118968522e-11,-5e-324,5e-324,5e-324,-5e-324,0.0
1668680496.279836,20314,1668680496,279607466,,-1.781331538980356e-11,-5e-324,5e-324,5e-324,-5e-324,0.0
1668680496.2878711,20315,1668680496,287649027,,-9.424629864419187e-12,-5e-324,5e-324,5e-324,-5e-324,0.0
1668680496.29588,20316,1668680496,295634957,,-4.9863625124015465e-12,-5e-324,5e-324,5e-324,-5e-324,0.0
1668680496.3034577,20317,1668680496,303228267,,-4.9863625124015465e-12,-5e-324,5e-324,5e-324,-5e-324,0.0
1668680496.311971,20318,1668680496,311709391,,-2.6381737492898085e-12,-5e-324,5e-324,5e-324,-5e-324,0.0
1668680496.319887,20319,1668680496,319669981,,-1.3957991851037257e-12,-5e-324,5e-324,5e-324,-5e-324,0.0
1668680496.3286805,20320,1668680496,328426037,,-7.384863736365702e-13,-5e-324,5e-324,5e-324,-5e-324,0.0
1668680496.3362775,20321,1668680496,335856859,,-7.384863736365702e-13,-5e-324,5e-324,5e-324,-5e-324,0.0
1668680496.3442976,20322,1668680496,344027912,,-3.907167519992244e-13,-5e-324,5e-324,5e-324,-5e-324,0.0
1668680496.3521955,20323,1668680496,351922683,,-2.0671956280123794e-13,-5e-324,5e-324,5e-324,-5e-324,0.0
1668680496.360027,20324,1668680496,359803515,,-1.0937073321294344e-13,-5e-324,5e-324,5e-324,-5e-324,0.0
1668680496.3678577,20325,1668680496,367652110,,-5.786562781693933e-14,-5e-324,5e-324,5e-324,-5e-324,0.0
1668680496.3755865,20326,1668680496,375342867,,-5.786562781693933e-14,-5e-324,5e-324,5e-324,-5e-324,0.0
1668680496.383791,20327,1668680496,383596478,,-3.0615419539422757e-14,-5e-324,5e-324,5e-324,-5e-324,0.0
1668680496.391791,20328,1668680496,391592800,,-1.619793906911499e-14,-5e-324,5e-324,5e-324,-5e-324,0.0
1668680496.4002645,20329,1668680496,399835334,,-8.56997010114168e-15,-5e-324,5e-324,5e-324,-5e-324,0.0
1668680496.408151,20330,1668680496,407858610,,-4.5341809980320615e-15,-5e-324,5e-324,5e-324,-5e-324,0.0
1668680496.416004,20331,1668680496,415787259,,-4.5341809980320615e-15,-5e-324,5e-324,5e-324,-5e-324,0.0
1668680496.423771,20332,1668680496,423570966,,-2.398934544728016e-15,-5e-324,5e-324,5e-324,-5e-324,0.0
1668680496.4325447,20333,1668680496,431553487,,-1.269223031102456e-15,-5e-324,5e-324,5e-324,-5e-324,0.0
1668680496.4397957,20334,1668680496,439589530,,-6.715177394986191e-16,-5e-324,5e-324,5e-324,-5e-324,0.0
1668680496.4477468,20335,1668680496,447504555,,-3.552851338268334e-16,-5e-324,5e-324,5e-324,-5e-324,0.0
1668680496.4560525,20336,1668680496,455853465,,-1.8797347991521004e-16,-5e-324,5e-324,5e-324,-5e-324,0.0
1668680496.4635835,20337,1668680496,463272644,,-1.8797347991521004e-16,-5e-324,5e-324,5e-324,-5e-324,0.0
1668680496.4719536,20338,1668680496,471695620,,-9.94525967659985e-17,-5e-324,5e-324,5e-324,-5e-324,0.0
1668680496.4800835,20339,1668680496,479861366,,-5.261816192348935e-17,-5e-324,5e-324,5e-324,-5e-324,0.0
1668680496.4878619,20340,1668680496,487661066,,-2.783910178555655e-17,-5e-324,5e-324,5e-324,-5e-324,0.0
1668680496.4962418,20341,1668680496,495963562,,-2.783910178555655e-17,-5e-324,5e-324,5e-324,-5e-324,0.0
1668680496.5042458,20342,1668680496,503929243,,-1.4729050956844656e-17,-5e-324,5e-324,5e-324,-5e-324,0.0
1668680496.5124118,20343,1668680496,512177782,,-7.79281399811116e-18,-5e-324,5e-324,5e-324,-5e-324,0.0
1668680496.5197554,20344,1668680496,519574424,,-4.123004950358781e-18,-5e-324,5e-324,5e-324,-5e-324,0.0
1668680496.527862,20345,1668680496,527633431,,-2.1813904226128467e-18,-5e-324,5e-324,5e-324,-5e-324,0.0
1668680496.5357842,20346,1668680496,535542425,,-1.1541252637722338e-18,-5e-324,5e-324,5e-324,-5e-324,0.0
1668680496.5437057,20347,1668680496,543396488,,-1.1541252637722338e-18,-5e-324,5e-324,5e-324,-5e-324,0.0
1668680496.5518014,20348,1668680496,551587855,,-6.106220650230354e-19,-5e-324,5e-324,5e-324,-5e-324,0.0
1668680496.5597565,20349,1668680496,559547571,,-3.2306658384230615e-19,-5e-324,5e-324,5e-324,-5e-324,0.0
1668680496.5679088,20350,1668680496,567725311,,-1.7092736010383188e-19,-5e-324,5e-324,5e-324,-5e-324,0.0
1668680496.5760353,20351,1668680496,575819586,,-9.043387305672532e-20,-5e-324,5e-324,5e-324,-5e-324,0.0
1668680496.5834305,20352,1668680496,583207564,,-9.043387305672532e-20,-5e-324,5e-324,5e-324,-5e-324,0.0
1668680496.5917165,20353,1668680496,591501095,,-4.784655535001483e-20,-5e-324,5e-324,5e-324,-5e-324,0.0
1668680496.599794,20354,1668680496,599589555,,-2.5314550637746732e-20,-5e-324,5e-324,5e-324,-5e-324,0.0
1668680496.6077285,20355,1668680496,607519272,,-1.3393366968701642e-20,-5e-324,5e-324,5e-324,-5e-324,0.0
1668680496.615337,20356,1668680496,615162520,,-1.3393366968701642e-20,-5e-324,5e-324,5e-324,-5e-324,0.0
1668680496.6236851,20357,1668680496,623467704,,-7.086133241126147e-21,-5e-324,5e-324,5e-324,-5e-324,0.0
1668680496.6318405,20358,1668680496,631585022,,-3.749115844308165e-21,-5e-324,5e-324,5e-324,-5e-324,0.0
1668680496.6424408,20359,1668680496,641938048,,-1.983573993848404e-21,-5e-324,5e-324,5e-324,-5e-324,0.0
1668680496.648193,20360,1668680496,647957423,,-1.049464981202192e-21,-5e-324,5e-324,5e-324,-5e-324,0.0
1668680496.6561446,20361,1668680496,655911412,,-1.049464981202192e-21,-5e-324,5e-324,5e-324,-5e-324,0.0
1668680496.663748,20362,1668680496,663574704,,-5.5524863210819575e-22,-5e-324,5e-324,5e-324,-5e-324,0.0
1668680496.6718943,20363,1668680496,671665238,,-2.937697293194623e-22,-5e-324,5e-324,5e-324,-5e-324,0.0
1668680496.6796842,20364,1668680496,679461335,,-1.55427044523747e-22,-5e-324,5e-324,5e-324,-5e-324,0.0
1668680496.6882286,20365,1668680496,687917174,,-8.223300006215577e-23,-5e-324,5e-324,5e-324,-5e-324,0.0
1668680496.6961358,20366,1668680496,695892842,,-4.3507655440165914e-23,-5e-324,5e-324,5e-324,-5e-324,0.0
1668680496.7040627,20367,1668680496,703770445,,-4.3507655440165914e-23,-5e-324,5e-324,5e-324,-5e-324,0.0
1668680496.7125964,20368,1668680496,712314253,,-2.3018934983150794e-23,-5e-324,5e-324,5e-324,-5e-324,0.0
1668680496.7206025,20369,1668680496,720304699,,-1.217880766954292e-23,-5e-324,5e-324,5e-324,-5e-324,0.0
1668680496.728729,20370,1668680496,728500783,,-6.4435368691160536e-24,-5e-324,5e-324,5e-324,-5e-324,0.0
1668680496.7370954,20371,1668680496,736830413,,-3.409132364204267e-24,-5e-324,5e-324,5e-324,-5e-324,0.0
1668680496.7435126,20372,1668680496,743285811,,-3.409132364204267e-24,-5e-324,5e-324,5e-324,-5e-324,0.0
1668680496.7519813,20373,1668680496,751710590,,-1.8036962793477964e-24,-5e-324,5e-324,5e-324,-5e-324,0.0
1668680496.7600737,20374,1668680496,759844130,,-9.54295674258001e-25,-5e-324,5e-324,5e-324,-5e-324,0.0
1668680496.7678921,20375,1668680496,767660991,,-5.048966637758038e-25,-5e-324,5e-324,5e-324,-5e-324,0.0
1668680496.7757256,20376,1668680496,775473038,,-5.048966637758038e-25,-5e-324,5e-324,5e-324,-5e-324,0.0
1668680496.7842288,20377,1668680496,783917410,,-2.6712962027219398e-25,-5e-324,5e-324,5e-324,-5e-324,0.0
1668680496.7920523,20378,1668680496,791785235,,-1.4133235401700478e-25,-5e-324,5e-324,5e-324,-5e-324,0.0
1668680496.7999516,20379,1668680496,799698298,,-7.477581210063654e-26,-5e-324,5e-324,5e-324,-5e-324,0.0
1668680496.807704,20380,1668680496,807547148,,-3.9562222777644784e-26,-5e-324,5e-324,5e-324,-5e-324,0.0
1668680496.816394,20381,1668680496,816184475,,-2.093149411739618e-26,-5e-324,5e-324,5e-324,-5e-324,0.0
1668680496.823927,20382,1668680496,823706256,,-2.093149411739618e-26,-5e-324,5e-324,5e-324,-5e-324,0.0
1668680496.8330786,20383,1668680496,832623247,,-1.1074389031400965e-26,-5e-324,5e-324,5e-324,-5e-324,0.0
1668680496.8406072,20384,1668680496,840358456,,-5.859213476637871e-27,-5e-324,5e-324,5e-324,-5e-324,0.0
1668680496.8482528,20385,1668680496,847955194,,-3.0999798243923425e-27,-5e-324,5e-324,5e-324,-5e-324,0.0
1668680496.8561876,20386,1668680496,855892488,,-3.0999798243923425e-27,-5e-324,5e-324,5e-324,-5e-324,0.0
1668680496.8637798,20387,1668680496,863579089,,-1.6401305311636995e-27,-5e-324,5e-324,5e-324,-5e-324,0.0
1668680496.8718698,20388,1668680496,871619850,,-8.677566667010866e-28,-5e-324,5e-324,5e-324,-5e-324,0.0
1668680496.8798258,20389,1668680496,879589906,,-4.5911079532792666e-28,-5e-324,5e-324,5e-324,-5e-324,0.0
1668680496.8878436,20390,1668680496,887613960,,-2.4290533334415625e-28,-5e-324,5e-324,5e-324,-5e-324,0.0
1668680496.8959067,20391,1668680496,895691861,,-1.2851582138226983e-28,-5e-324,5e-324,5e-324,-5e-324,0.0
1668680496.9035113,20392,1668680496,903268437,,-1.2851582138226983e-28,-5e-324,5e-324,5e-324,-5e-324,0.0
1668680496.911744,20393,1668680496,911543546,,-6.799486910465907e-29,-5e-324,5e-324,5e-324,-5e-324,0.0
1668680496.9200082,20394,1668680496,919801833,,-3.597457631934457e-29,-5e-324,5e-324,5e-324,-5e-324,0.0
1668680496.9280236,20395,1668680496,927698394,,-1.9033349992399196e-29,-5e-324,5e-324,5e-324,-5e-324,0.0
1668680496.9359121,20396,1668680496,935672241,,-1.0070123097971284e-29,-5e-324,5e-324,5e-324,-5e-324,0.0
1668680496.9435222,20397,1668680496,943322391,,-1.0070123097971284e-29,-5e-324,5e-324,5e-324,-5e-324,0.0
1668680496.9519591,20398,1668680496,951780469,,-5.327878657660944e-30,-5e-324,5e-324,5e-324,-5e-324,0.0
1668680496.9599106,20399,1668680496,959643392,,-2.8188623629116958e-30,-5e-324,5e-324,5e-324,-5e-324,0.0
1668680496.9678304,20400,1668680496,967597398,,-1.4913975207777295e-30,-5e-324,5e-324,5e-324,-5e-324,0.0
1668680496.9754312,20401,1668680496,975227619,,-1.4913975207777295e-30,-5e-324,5e-324,5e-324,-5e-324,0.0
1668680496.984063,20402,1668680496,983832428,,-7.890653315490154e-31,-5e-324,5e-324,5e-324,-5e-324,0.0
1668680496.9921336,20403,1668680496,991912086,,-4.1747695619600695e-31,-5e-324,5e-324,5e-324,-5e-324,0.0
1668680496.9999704,20404,1668680496,999670941,,-2.208777929864687e-31,-5e-324,5e-324,5e-324,-5e-324,0.0
1668680497.0080903,20405,1668680497,7825991,,-1.1686153860829542e-31,-5e-324,5e-324,5e-324,-5e-324,0.0
1668680497.016162,20406,1668680497,15907197,,-6.182884671767228e-32,-5e-324,5e-324,5e-324,-5e-324,0.0
1668680497.0236042,20407,1668680497,23384537,,-6.182884671767228e-32,-5e-324,5e-324,5e-324,-5e-324,0.0
1668680497.031857,20408,1668680497,31675368,,-3.271227070910781e-32,-5e-324,5e-324,5e-324,-5e-324,0.0
1668680497.0404437,20409,1668680497,40037744,,-1.7307336490235594e-32,-5e-324,5e-324,5e-324,-5e-324,0.0
1668680497.0477953,20410,1668680497,47517823,,-9.156927657206047e-33,-5e-324,5e-324,5e-324,-5e-324,0.0
1668680497.0563307,20411,1668680497,56122137,,-4.8447272153407835e-33,-5e-324,5e-324,5e-324,-5e-324,0.0
1668680497.0637546,20412,1668680497,63497486,,-4.8447272153407835e-33,-5e-324,5e-324,5e-324,-5e-324,0.0
1668680497.0719972,20413,1668680497,71685113,,-2.5632376567475502e-33,-5e-324,5e-324,5e-324,-5e-324,0.0
1668680497.0799484,20414,1668680497,79660750,,-1.3561521615013195e-33,-5e-324,5e-324,5e-324,-5e-324,0.0
1668680497.088018,20415,1668680497,87779705,,-7.175100132846699e-34,-5e-324,5e-324,5e-324,-5e-324,0.0
1668680497.0958297,20416,1668680497,95512443,,-7.175100132846699e-34,-5e-324,5e-324,5e-324,-5e-324,0.0
1668680497.1039429,20417,1668680497,103751338,,-3.796186252388068e-34,-5e-324,5e-324,5e-324,-5e-324,0.0
1668680497.1121612,20418,1668680497,111824863,,-2.0084779021895868e-34,-5e-324,5e-324,5e-324,-5e-324,0.0
1668680497.1203573,20419,1668680497,120012612,,-1.0626410864446454e-34,-5e-324,5e-324,5e-324,-5e-324,0.0
1668680497.1281788,20420,1668680497,127878930,,-5.62219816991378e-35,-5e-324,5e-324,5e-324,-5e-324,0.0
1668680497.1356304,20421,1668680497,135421264,,-5.62219816991378e-35,-5e-324,5e-324,5e-324,-5e-324,0.0
1668680497.1436944,20422,1668680497,143529577,,-2.9745802853848554e-35,-5e-324,5e-324,5e-324,-5e-324,0.0
1668680497.1519952,20423,1668680497,151773250,,-1.573784417907834e-35,-5e-324,5e-324,5e-324,-5e-324,0.0
1668680497.160066,20424,1668680497,159818369,,-8.326544105125904e-36,-5e-324,5e-324,5e-324,-5e-324,0.0
1668680497.1679688,20425,1668680497,167681208,,-4.4053897055846444e-36,-5e-324,5e-324,5e-324,-5e-324,0.0
1668680497.175747,20426,1668680497,175558097,,-2.3307939299959673e-36,-5e-324,5e-324,5e-324,-5e-324,0.0
1668680497.183579,20427,1668680497,183359408,,-2.3307939299959673e-36,-5e-324,5e-324,5e-324,-5e-324,0.0
1668680497.1918144,20428,1668680497,191597374,,-1.2331713440060077e-36,-5e-324,5e-324,5e-324,-5e-324,0.0
1668680497.200049,20429,1668680497,199787581,,-6.52443591905276e-37,-5e-324,5e-324,5e-324,-5e-324,0.0
1668680497.207813,20430,1668680497,207605832,,-3.4519342562357217e-37,-5e-324,5e-324,5e-324,-5e-324,0.0
1668680497.2155948,20431,1668680497,215368935,,-3.4519342562357217e-37,-5e-324,5e-324,5e-324,-5e-324,0.0
1668680497.2238991,20432,1668680497,223661994,,-0.030085744444062507,-5e-324,-0.09591345299354176,5e-324,-5e-324,0.0
1668680497.2317245,20433,1668680497,231540943,,-0.045993952441182,-5e-324,-0.14662022832170135,5e-324,-5e-324,0.0
1668680497.2400222,20434,1668680497,239758994,,-0.320698831323904,-5e-324,0.13441838801735606,5e-324,-5e-324,0.0
1668680497.2485285,20435,1668680497,248308012,,-0.46607335558228663,-5e-324,0.28307350274249177,5e-324,-5e-324,0.0
1668680497.2561603,20436,1668680497,255837476,,-0.46607335558228663,-5e-324,0.28307350274249177,5e-324,-5e-324,0.0
1668680497.2640712,20437,1668680497,263826817,,-0.9410077280886344,-5e-324,1.644211410444901,5e-324,-5e-324,0.0
1668680497.2718728,20438,1668680497,271659845,,-1.449359414336858,-5e-324,2.92371121559153,5e-324,-5e-324,0.0
1668680497.2797935,20439,1668680497,279589001,,-1.71834918177896,-5e-324,3.600687819786817,5e-324,-5e-324,0.0
1668680497.2879603,20440,1668680497,287645805,,-1.8601348049890625,-5e-324,3.9305896199836217,5e-324,-5e-324,0.0
1668680497.2955027,20441,1668680497,295303281,,-1.8601348049890625,-5e-324,3.9305896199836217,5e-324,-5e-324,0.0
1668680497.3039412,20442,1668680497,303645196,,-1.815383405577664,-5e-324,3.983050502156523,5e-324,-5e-324,0.0
1668680497.3121543,20443,1668680497,311958144,,-1.791578855203558,-5e-324,4.010885945270218,5e-324,-5e-324,0.0
1668680497.3198931,20444,1668680497,319669890,,-1.6570308746164244,-5e-324,3.8733329028496275,5e-324,-5e-324,0.0
1668680497.3278525,20445,1668680497,327622165,,-1.5859018599153236,-5e-324,3.80055240347935,5e-324,-5e-324,0.0
1668680497.3357086,20446,1668680497,335461437,,-1.437963517093178,-5e-324,3.6719378515394103,5e-324,-5e-324,0.0
1668680497.3438237,20447,1668680497,343601008,,-1.437963517093178,-5e-324,3.6719378515394103,5e-324,-5e-324,0.0
1668680497.3518353,20448,1668680497,351617906,,-1.2190988963993679,-5e-324,3.4514878230791473,5e-324,-5e-324,0.0
1668680497.359681,20449,1668680497,359468924,,-1.1033878017660783,-5e-324,3.3348206317960276,5e-324,-5e-324,0.0
1668680497.3680477,20450,1668680497,367779893,,-1.012052904192851,-5e-324,3.230688987294184,5e-324,-5e-324,0.0
1668680497.376036,20451,1668680497,375784081,,-1.0038159242603433,-5e-324,3.1652963326071646,5e-324,-5e-324,0.0
1668680497.3836794,20452,1668680497,383424838,,-1.0038159242603433,-5e-324,3.1652963326071646,5e-324,-5e-324,0.0
1668680497.392363,20453,1668680497,392082033,,-0.9994304455808474,-5e-324,3.1307006580276444,5e-324,-5e-324,0.0
1668680497.40035,20454,1668680497,399995390,,-0.9259604629132391,-5e-324,3.1499588869133284,5e-324,-5e-324,0.0
1668680497.408487,20455,1668680497,408249815,,-0.8870874443797867,-5e-324,3.160157103679757,5e-324,-5e-324,0.0
1668680497.4160628,20456,1668680497,415849969,,-0.8870874443797867,-5e-324,3.160157103679757,5e-324,-5e-324,0.0
1668680497.4243867,20457,1668680497,424168898,,-0.9133499723268148,-5e-324,3.1889499242320136,5e-324,-5e-324,0.0
1668680497.4326785,20458,1668680497,432400191,,-0.99878595532777,-5e-324,3.232475370417222,5e-324,-5e-324,0.0
1668680497.4405956,20459,1668680497,440349884,,-1.0441321293430592,-5e-324,3.255425358391753,5e-324,-5e-324,0.0
1668680497.4482572,20460,1668680497,447969288,,-1.0935650199361455,-5e-324,3.286494858328422,5e-324,-5e-324,0.0
1668680497.455861,20461,1668680497,455633156,,-0.9722656491738527,-5e-324,3.218037481491627,5e-324,-5e-324,0.0
1668680497.4634655,20462,1668680497,463214344,,-0.9722656491738527,-5e-324,3.218037481491627,5e-324,-5e-324,0.0
1668680497.4720862,20463,1668680497,471849261,,-0.9080243224648874,-5e-324,3.1818520407615107,5e-324,-5e-324,0.0
1668680497.4797144,20464,1668680497,479517578,,-0.8599403655278269,-5e-324,3.1526791831149232,5e-324,-5e-324,0.0
1668680497.487843,20465,1668680497,487633613,,-0.8345016356557318,-5e-324,3.137267357835675,5e-324,-5e-324,0.0
1668680497.4958708,20466,1668680497,495632327,,-0.8044126275527852,-5e-324,3.1193012541725045,5e-324,-5e-324,0.0
1668680497.50362,20467,1668680497,503378475,,-0.8044126275527852,-5e-324,3.1193012541725045,5e-324,-5e-324,0.0
1668680497.5119083,20468,1668680497,511729796,,-0.7910329141908208,-5e-324,3.1430406545095675,5e-324,-5e-324,0.0
1668680497.5198474,20469,1668680497,519620292,,-0.7839112334726703,-5e-324,3.155617576861978,5e-324,-5e-324,0.0
1668680497.527888,20470,1668680497,527635938,,-0.7974479408672204,-5e-324,3.204946984047358,5e-324,-5e-324,0.0
1668680497.5367002,20471,1668680497,536195760,,-0.8944960089044336,-5e-324,3.2877617773903047,5e-324,-5e-324,0.0
1668680497.5441103,20472,1668680497,543533940,,-0.8944960089044336,-5e-324,3.2877617773903047,5e-324,-5e-324,0.0
1668680497.552317,20473,1668680497,551644829,,-0.9459168048611915,-5e-324,3.331529293745704,5e-324,-5e-324,0.0
1668680497.5598557,20474,1668680497,559637673,,-1.0186175369007269,-5e-324,3.3778262839725386,5e-324,-5e-324,0.0
1668680497.567811,20475,1668680497,567537754,,-1.05724751891076,-5e-324,3.402235617083212,5e-324,-5e-324,0.0
1668680497.5754142,20476,1668680497,575231847,,-1.05724751891076,-5e-324,3.402235617083212,5e-324,-5e-324,0.0
1668680497.583853,20477,1668680497,583641481,,-1.078986124645021,-5e-324,3.43337608809342,5e-324,-5e-324,0.0
1668680497.591944,20478,1668680497,591677934,,-1.139724506785448,-5e-324,3.4933473988785604,5e-324,-5e-324,0.0
1668680497.6005,20479,1668680497,599730238,,-1.1719497623060993,-5e-324,3.5250176955535815,5e-324,-5e-324,0.0
1668680497.609313,20480,1668680497,607574755,,-1.1926717061190724,-5e-324,3.541944915692529,5e-324,-5e-324,0.0
1668680497.6154337,20481,1668680497,615194533,,-1.1926717061190724,-5e-324,3.541944915692529,5e-324,-5e-324,0.0
1668680497.6238873,20482,1668680497,623657828,,-1.1407486373919713,-5e-324,3.540594163015326,5e-324,-5e-324,0.0
1668680497.6320298,20483,1668680497,631750090,,-1.1133524066920506,-5e-324,3.539842911547922,5e-324,-5e-324,0.0
1668680497.6401217,20484,1668680497,639779488,,-1.1081520516393262,-5e-324,3.5060880512409907,5e-324,-5e-324,0.0
1668680497.6476665,20485,1668680497,647477426,,-1.1053006164976253,-5e-324,3.4882779799045327,5e-324,-5e-324,0.0
1668680497.6557443,20486,1668680497,655521023,,-1.1053006164976253,-5e-324,3.4882779799045327,5e-324,-5e-324,0.0
1668680497.6640594,20487,1668680497,663806384,,-1.1119916886582568,-5e-324,3.488514628210427,5e-324,-5e-324,0.0
1668680497.6719325,20488,1668680497,671683549,,-1.096105007397838,-5e-324,3.507325312250522,5e-324,-5e-324,0.0
1668680497.6800451,20489,1668680497,679701671,,-1.0877531837104175,-5e-324,3.517240954961675,5e-324,-5e-324,0.0
1668680497.687919,20490,1668680497,687688506,,-1.0600677019628462,-5e-324,3.512923002244465,5e-324,-5e-324,0.0
1668680497.6957362,20491,1668680497,695483229,,-1.0600677019628462,-5e-324,3.512923002244465,5e-324,-5e-324,0.0
1668680497.7043447,20492,1668680497,703989106,,-1.0050236579382161,-5e-324,3.4295632870688486,5e-324,-5e-324,0.0
1668680497.7119384,20493,1668680497,711695811,,-0.9759324324257088,-5e-324,3.385444544170938,5e-324,-5e-324,0.0
1668680497.7196865,20494,1668680497,719453656,,-0.7908495223305574,-5e-324,3.23934201109894,5e-324,-5e-324,0.0
1668680497.7279875,20495,1668680497,727709528,,-0.6930835505673703,-5e-324,3.1619735872470733,5e-324,-5e-324,0.0
1668680497.7354727,20496,1668680497,735302907,,-0.6930835505673703,-5e-324,3.1619735872470733,5e-324,-5e-324,0.0
1668680497.7436693,20497,1668680497,743455800,,-0.3877551071834617,-5e-324,2.97244892942377,5e-324,-5e-324,0.0
1668680497.7518265,20498,1668680497,751615424,,-0.2051526222532467,-5e-324,2.8006734724057414,5e-324,-5e-324,0.0
1668680497.7615917,20499,1668680497,759594985,,-0.1085416997421264,-5e-324,2.7097450578125883,5e-324,-5e-324,0.0
1668680497.7678294,20500,1668680497,767570132,,-0.057427004605218844,-5e-324,2.6659186636500345,5e-324,-5e-324,0.0
1668680497.7754362,20501,1668680497,775222795,,-0.057427004605218844,-5e-324,2.6659186636500345,5e-324,-5e-324,0.0
1668680497.7837186,20502,1668680497,783508712,,-0.04008218734317699,-5e-324,2.642200462116501,5e-324,-5e-324,0.0
1668680497.792137,20503,1668680497,791902229,,-0.030940805305101196,-5e-324,2.6296392153522605,5e-324,-5e-324,0.0
1668680497.8000147,20504,1668680497,799785281,,-0.026859983974786825,-5e-324,2.6276386515035237,5e-324,-5e-324,0.0
1668680497.8078563,20505,1668680497,807602234,,-0.024756638352233365,-5e-324,2.6265684497094277,5e-324,-5e-324,0.0
1668680497.815443,20506,1668680497,815178378,,-0.024756638352233365,-5e-324,2.6265684497094277,5e-324,-5e-324,0.0
1668680497.8241618,20507,1668680497,823927034,,-0.04336192893504365,-5e-324,2.70606747381741,5e-324,-5e-324,0.0
1668680497.8319805,20508,1668680497,831717172,,-0.05226033076606905,-5e-324,2.748230076082631,5e-324,-5e-324,0.0
1668680497.8398168,20509,1668680497,839525921,,-0.05702214155530329,-5e-324,2.77052098722318,5e-324,-5e-324,0.0
1668680497.8480954,20510,1668680497,847886266,,-0.03750049308713624,-5e-324,2.773070316548484,5e-324,-5e-324,0.0
1668680497.856243,20511,1668680497,855976082,,-0.11137705599411415,-5e-324,2.8593993778560973,5e-324,-5e-324,0.0
1668680497.8635778,20512,1668680497,863336725,,-0.11137705599411415,-5e-324,2.8593993778560973,5e-324,-5e-324,0.0
1668680497.872122,20513,1668680497,871843674,,-0.15043654559846106,-5e-324,2.9050848243993377,5e-324,-5e-324,0.0
1668680497.8796346,20514,1668680497,879440582,,-0.1742534453247953,-5e-324,2.990638345314208,5e-324,-5e-324,0.0
1668680497.8879392,20515,1668680497,887648980,,-0.18675498410502925,-5e-324,3.035923546166221,5e-324,-5e-324,0.0
1668680497.896015,20516,1668680497,895765451,,-0.2255378212614511,-5e-324,3.088488516662398,5e-324,-5e-324,0.0
1668680497.9034624,20517,1668680497,903259105,,-0.2255378212614511,-5e-324,3.088488516662398,5e-324,-5e-324,0.0
1668680497.9119928,20518,1668680497,911672313,,-0.3097289219914756,-5e-324,3.125987838500043,5e-324,-5e-324,0.0
1668680497.9198446,20519,1668680497,919641314,,-0.35432792455512113,-5e-324,3.145814129195098,5e-324,-5e-324,0.0
1668680497.9276173,20520,1668680497,927422250,,-0.407617600199044,-5e-324,3.1710251109321113,5e-324,-5e-324,0.0
1668680497.935448,20521,1668680497,935224950,,-0.407617600199044,-5e-324,3.1710251109321113,5e-324,-5e-324,0.0
1668680497.9441414,20522,1668680497,943819631,,-0.5045929163631255,-5e-324,3.274564306541315,5e-324,-5e-324,0.0
1668680497.9518096,20523,1668680497,951639730,,-0.5559326720088886,-5e-324,3.3293329724742318,5e-324,-5e-324,0.0
1668680497.9604344,20524,1668680497,960228315,,-0.5802651172096822,-5e-324,3.386818876242244,5e-324,-5e-324,0.0
1668680497.9683974,20525,1668680497,968175821,,-0.593136328038042,-5e-324,3.4172339170181107,5e-324,-5e-324,0.0
1668680497.9758852,20526,1668680497,975685117,,-0.593136328038042,-5e-324,3.4172339170181107,5e-324,-5e-324,0.0
1668680497.984675,20527,1668680497,984494442,,-0.617976383782729,-5e-324,3.429912044990126,5e-324,-5e-324,0.0
1668680497.9924297,20528,1668680497,992240448,,-0.6351910360934949,-5e-324,3.404345560453207,5e-324,-5e-324,0.0
1668680498.000455,20529,1668680498,149278,,-0.6443299651925782,-5e-324,3.3908078906194286,5e-324,-5e-324,0.0
1668680498.008118,20530,1668680498,7875179,,-0.6347304592183993,-5e-324,3.374645602745513,5e-324,-5e-324,0.0
1668680498.0156631,20531,1668680498,15410667,,-0.6347304592183993,-5e-324,3.374645602745513,5e-324,-5e-324,0.0
1668680498.0238683,20532,1668680498,23619463,,-0.6154770107623443,-5e-324,3.314728160390451,5e-324,-5e-324,0.0
1668680498.0317466,20533,1668680498,31564598,,-0.6053796807637375,-5e-324,3.2829968451883396,5e-324,-5e-324,0.0
1668680498.041393,20534,1668680498,39624370,,-0.5882449457641219,-5e-324,3.2381515197527557,5e-324,-5e-324,0.0
1668680498.0478516,20535,1668680498,47609319,,-0.5793490609102341,-5e-324,3.2143583601378216,5e-324,-5e-324,0.0
1668680498.055593,20536,1668680498,55392354,,-0.5793490609102341,-5e-324,3.2143583601378216,5e-324,-5e-324,0.0
1668680498.0638537,20537,1668680498,63614497,,-0.5336733574151361,-5e-324,3.1218195436824008,5e-324,-5e-324,0.0
1668680498.0718913,20538,1668680498,71590287,,-0.47624993014732825,-5e-324,3.0406126316960154,5e-324,-5e-324,0.0
1668680498.0799804,20539,1668680498,79762053,,-0.44585865041500605,-5e-324,2.9976506230729982,5e-324,-5e-324,0.0
1668680498.087931,20540,1668680498,87756175,,-0.42641069396710735,-5e-324,2.961106059231838,5e-324,-5e-324,0.0
1668680498.095844,20541,1668680498,95639033,,-0.387582479562679,-5e-324,2.946783172499241,5e-324,-5e-324,0.0
1668680498.103548,20542,1668680498,103295827,,-0.387582479562679,-5e-324,2.946783172499241,5e-324,-5e-324,0.0
1668680498.1120768,20543,1668680498,111868246,,-0.36720009459738717,-5e-324,2.9391401401321113,5e-324,-5e-324,0.0
1668680498.119781,20544,1668680498,119534033,,-0.33242244876983307,-5e-324,2.9161942179379503,5e-324,-5e-324,0.0
1668680498.127923,20545,1668680498,127709236,,-0.3140112717802135,-5e-324,2.904047584742514,5e-324,-5e-324,0.0
1668680498.1358473,20546,1668680498,135562892,,-0.3140112717802135,-5e-324,2.904047584742514,5e-324,-5e-324,0.0
1668680498.1447465,20547,1668680498,143994317,,-0.25636813991552515,-5e-324,2.8309786072099463,5e-324,-5e-324,0.0
1668680498.1523683,20548,1668680498,151968233,,-0.18234902425739127,-5e-324,2.7920744029798152,5e-324,-5e-324,0.0
1668680498.1598308,20549,1668680498,159605684,,-0.1432987336731493,-5e-324,2.7714726575710875,5e-324,-5e-324,0.0
1668680498.1677887,20550,1668680498,167594086,,-0.07581617993933175,-5e-324,2.7325462824564877,5e-324,-5e-324,0.0
1668680498.1755676,20551,1668680498,175368274,,-0.07581617993933175,-5e-324,2.7325462824564877,5e-324,-5e-324,0.0
1668680498.183827,20552,1668680498,183586135,,-0.04011265831353388,-5e-324,2.6505846508973097,5e-324,-5e-324,0.0
1668680498.1917715,20553,1668680498,191545387,,-0.02122271734431706,-5e-324,2.6072573067010762,5e-324,-5e-324,0.0
1668680498.1999862,20554,1668680498,199561487,,-0.011228468778016922,-5e-324,2.5696493470647903,5e-324,-5e-324,0.0
1668680498.2083042,20555,1668680498,208053963,,-0.005940733651275889,-5e-324,2.541217351843225,5e-324,-5e-324,0.0
1668680498.2154093,20556,1668680498,215191922,,-0.005940733651275889,-5e-324,2.541217351843225,5e-324,-5e-324,0.0
1668680498.2236557,20557,1668680498,223510860,,-0.003143110339719428,-5e-324,2.526100994652093,5e-324,-5e-324,0.0
1668680498.2317781,20558,1668680498,231568370,,-0.001662949929682412,-5e-324,2.395041256610024,5e-324,-5e-324,0.0
1668680498.2398696,20559,1668680498,239659472,,-0.000879829904055355,-5e-324,2.32568678846455,5e-324,-5e-324,0.0
1668680498.2491019,20560,1668680498,247729859,,-0.0004654984772860191,-5e-324,2.156645232170426,5e-324,-5e-324,0.0
1668680498.256451,20561,1668680498,256203597,,-0.0002462849141144551,-0.007068157554154328,1.7457872180548635,5e-324,-5e-324,0.0
1668680498.2635472,20562,1668680498,263302421,,-0.0002462849141144551,-0.007068157554154328,1.7457872180548635,5e-324,-5e-324,0.0
1668680498.2718902,20563,1668680498,271714912,,-0.00013030388256908334,-0.01080180595275778,1.528439911707467,5e-324,-5e-324,0.0
1668680498.2800808,20564,1668680498,279757829,,0.2585860110473426,-0.04588147054751401,1.228576599355179,5e-324,-5e-324,0.0
1668680498.2879407,20565,1668680498,287663677,,1.0049439994059304,-0.16759594989468762,0.6532765206742999,5e-324,-5e-324,0.0
1668680498.2960656,20566,1668680498,295765207,,1.3998044778066765,-0.2320841533682485,0.3488383407410973,5e-324,-5e-324,0.0
1668680498.303978,20567,1668680498,303423463,,1.3998044778066765,-0.2320841533682485,0.3488383407410973,5e-324,-5e-324,0.0
1668680498.3117561,20568,1668680498,311547935,,0.7406054851213182,-2.172796696479642,0.18456262475905322,5e-324,-5e-324,0.0
1668680498.3197126,20569,1668680498,319497398,,0.3918379268590499,-3.1995925052784333,0.09764798899566034,5e-324,-5e-324,0.0
1668680498.327936,20570,1668680498,327695806,,0.24590165130358677,-4.173073671334201,0.05166338399957591,5e-324,-0.009218125463558364,0.0
1668680498.3355663,20571,1668680498,335345357,,0.24590165130358677,-4.173073671334201,0.05166338399957591,5e-324,-0.009218125463558364,0.0
1668680498.3438063,20572,1668680498,343525930,,0.13010110672111858,-5.181813406592429,0.027333949974190006,5e-324,-0.09437926565186804,0.0
1668680498.3519394,20573,1668680498,351688537,,0.06883360839721614,-5.715485591989532,0.014461786343644369,5e-324,-0.13943667574048219,0.0
1668680498.3597856,20574,1668680498,359580781,,0.036418334665958695,-6.173213198950828,0.007651410222331629,5e-324,-0.1935836359959104,0.0
1668680498.3678591,20575,1668680498,367653523,,0.0462563169044338,-6.581920874917826,0.004048191350588564,5e-324,-0.2509941562805568,0.0
1668680498.3757267,20576,1668680498,375435865,,0.0462563169044338,-6.581920874917826,0.004048191350588564,5e-324,-0.2509941562805568,0.0
1668680498.3838909,20577,1668680498,383635258,,0.05137877393232182,-6.798083356845071,0.0021418082072178005,5e-324,-0.28137454473035345,0.0
1668680498.3918405,20578,1668680498,391623672,,0.18861498698628493,-6.731708798514761,0.0011331831920046414,5e-324,-0.2692943612618159,0.0
1668680498.4001327,20579,1668680498,399933349,,0.2615241687499193,-6.696570628226349,0.000599542079591652,5e-324,-0.2628967925337903,0.0
1668680498.40787,20580,1668680498,407645855,,0.22124575927356818,-6.554968182871908,0.00031720440943463135,5e-324,-0.24165780873372905,0.0
1668680498.4154513,20581,1668680498,415245872,,0.22124575927356818,-6.554968182871908,0.00031720440943463135,5e-324,-0.24165780873372905,0.0
1668680498.4239054,20582,1668680498,423643869,,0.2548362726421702,-5.994467600762434,0.0001678258137165361,5e-324,-0.15807146926918653,0.0
1668680498.432084,20583,1668680498,431761972,,0.27266300153201894,-5.697912731987516,8.879291369189416e-05,5e-324,-0.11384734908724478,0.0
1668680498.440031,20584,1668680498,439717764,,0.6071244729265679,-5.104763451546642,4.6978360165813545e-05,5e-324,-0.060234105932171225,0.0
1668680498.4479082,20585,1668680498,447679516,,1.562707561459327,-3.735250666210438,2.4855207832540913e-05,5e-324,-0.03186852874955975,0.0
1668680498.4557545,20586,1668680498,455518045,,1.562707561459327,-3.735250666210438,2.4855207832540913e-05,5e-324,-0.03186852874955975,0.0
1668680498.463682,20587,1668680498,463475326,,2.0682861459446613,-3.010706891252491,1.3150338884079794e-05,5e-324,-0.016860931343534384,0.0
1668680498.4719627,20588,1668680498,471760285,,2.7859788132313574,-2.1433487842435928,6.957552474766914e-06,5e-324,-0.008920744600589933,0.0
1668680498.4796553,20589,1668680498,479469133,,3.1656880736950583,-1.684482926917243,3.6810866142574368e-06,5e-324,-0.004719768001396356,0.0
1668680498.487813,20590,1668680498,487576197,,3.3532368313500807,-1.396082406117357,1.9475812379150232e-06,5e-324,-0.002497124509710974,0.0
1668680498.4960284,20591,1668680498,495821712,,3.4847906024449853,-1.368451437553209,1.0304220127794432e-06,5e-324,-0.0013211731625695253,0.0
1668680498.5036504,20592,1668680498,503415578,,3.4847906024449853,-1.368451437553209,1.0304220127794432e-06,5e-324,-0.0013211731625695253,0.0
1668680498.511898,20593,1668680498,511545886,,3.554284813683921,-1.354041997497931,5.451734201121762e-07,5e-324,-0.0006990034011944367,0.0
1668680498.5199041,20594,1668680498,519643584,,3.456122358576642,-1.5982812555793553,2.884391582387755e-07,5e-324,-0.00036982718747564507,0.0
1668680498.5277555,20595,1668680498,527576416,,2.429022990414251,-3.551698004420424,1.5260675765956182e-07,5e-324,-0.08601081312500379,0.0
1668680498.5355344,20596,1668680498,535283616,,2.429022990414251,-3.551698004420424,1.5260675765956182e-07,5e-324,-0.08601081312500379,0.0
1668680498.544026,20597,1668680498,543797532,,1.8858351152827741,-4.585132164846948,8.07408488693664e-08,5e-324,-0.13131163555407477,0.0
1668680498.551751,20598,1668680498,551528112,,1.5303562089976304,-5.9903309198615435,4.271819135748083e-08,5e-324,-0.28704384568970676,0.0
1668680498.5600877,20599,1668680498,559842449,,1.3419836057819303,-6.733853230027073,2.260124705657767e-08,5e-324,-0.36944747289710916,0.0
1668680498.568009,20600,1668680498,567745979,,1.294682025000268,-7.282956524251567,1.1957818256811718e-08,5e-324,-0.42418593058022025,0.0
1668680498.575821,20601,1668680498,575618761,,1.6473552491237746,-8.357074244908222,6.3266162749778546e-09,5e-324,-0.5776083487587633,0.0
1668680498.5834267,20602,1668680498,583218265,,1.6473552491237746,-8.357074244908222,6.3266162749778546e-09,5e-324,-0.5776083487587633,0.0
1668680498.592463,20603,1668680498,592270978,,1.8337600077473764,-8.925430426030083,3.347272272516267e-09,5e-324,-0.6587897826890603,0.0
1668680498.5998344,20604,1668680498,599601112,,1.9953984700504606,-8.99277762001316,-0.10975923651129463,5e-324,-0.6976149894516102,0.0
1668680498.6080241,20605,1668680498,607776661,,2.349867740013778,-9.114361156111363,-0.3135877793817207,5e-324,-0.7534500795221086,0.0
1668680498.6159496,20606,1668680498,615647317,,2.349867740013778,-9.114361156111363,-0.3135877793817207,5e-324,-0.7534500795221086,0.0
1668680498.6240487,20607,1668680498,623768383,,2.537241208350642,-9.178789905680574,-0.4211627726002649,5e-324,-0.782996598252796,0.0
1668680498.631794,20608,1668680498,631597125,,3.0861502601756365,-9.079080762704663,-0.4506435927648922,5e-324,-0.79676835873367,0.0
1668680498.639724,20609,1668680498,639522768,,3.376582347570582,-9.026300528034316,-0.46636590070403205,5e-324,-0.8040516738051595,0.0
1668680498.647924,20610,1668680498,647730032,,3.616809609501427,-9.018094263706836,-0.3570931386708605,5e-324,-0.8138524067153612,0.0
1668680498.656149,20611,1668680498,655963074,,3.8910269104196935,-9.074960186175332,-0.19510750422699202,5e-324,-0.8239348212604376,0.0
1668680498.6637974,20612,1668680498,663519248,,3.8910269104196935,-9.074960186175332,-0.19510750422699202,5e-324,-0.8239348212604376,0.0
1668680498.6717913,20613,1668680498,671566298,,4.036101702086919,-9.105101109001566,-0.10889803617925865,5e-324,-0.8292660717415086,0.0
1668680498.6798046,20614,1668680498,679564727,,4.072752933564445,-9.316489613762968,-0.10568555954233641,5e-324,-0.8608804943314989,0.0
1668680498.6879048,20615,1668680498,687635521,,4.240380472245281,-9.769965342928085,-0.3948491274445972,5e-324,-0.9339610594344046,0.0
1668680498.695546,20616,1668680498,695300090,,4.240380472245281,-9.769965342928085,-0.3948491274445972,5e-324,-0.9339610594344046,0.0
1668680498.7038279,20617,1668680498,703569055,,4.329298280781181,-10.009791073077556,-0.547757878850111,5e-324,-0.9726154267909547,0.0
1668680498.7117743,20618,1668680498,711554846,,4.198559140043013,-10.333634218894773,-0.2898065380034004,5e-324,-1.0099930765903085,0.0
1668680498.719673,20619,1668680498,719478440,,4.129291685203273,-10.504995148848433,-0.15333020794849922,5e-324,-1.029773353070992,0.0
1668680498.7279909,20620,1668680498,727749674,,3.636954475938553,-10.208233954808435,0.6260506098600203,5e-324,-0.9462182050199024,0.0
1668680498.7355828,20621,1668680498,735367285,,3.636954475938553,-10.208233954808435,0.6260506098600203,5e-324,-0.9462182050199024,0.0
1668680498.7440195,20622,1668680498,743776035,,3.033350060233589,-10.014356108208446,1.8691078235857255,5e-324,-0.8755098470539868,0.0
1668680498.7521691,20623,1668680498,751929212,,2.713695246351659,-9.911685399818701,2.5272571012397322,5e-324,-0.8381015687082636,0.0
1668680498.7603862,20624,1668680498,760086364,,2.4677693431396994,-9.904465285434625,2.9333240467623782,5e-324,-0.8237732456371971,0.0
1668680498.7680235,20625,1668680498,767821003,,2.366528975197612,-9.853058587486826,3.0950692517223732,5e-324,-0.8142589450651441,0.0
1668680498.775804,20626,1668680498,775617434,,2.313203044014207,-9.825946386499115,3.180246971636244,5e-324,-0.8092234019084033,0.0
1668680498.783558,20627,1668680498,783354752,,2.313203044014207,-9.825946386499115,3.180246971636244,5e-324,-0.8092234019084033,0.0
1668680498.7918031,20628,1668680498,791558953,,2.6744238613615297,-9.871530513245167,2.743076925580068,5e-324,-0.8322147189050269,0.0
1668680498.7998009,20629,1668680498,799581159,,2.8657553986473117,-9.895644853921365,2.5115176459297297,5e-324,-0.8443744139074683,0.0
1668680498.8078048,20630,1668680498,807564748,,3.203630809667065,-10.166225786879995,1.5867421833268374,5e-324,-0.9116513831610296,0.0
1668680498.8156164,20631,1668680498,815410277,,3.203630809667065,-10.166225786879995,1.5867421833268374,5e-324,-0.9116513831610296,0.0
1668680498.8240225,20632,1668680498,823791423,,3.497739441384441,-10.400039067981629,0.8395100766405241,5e-324,-0.9760234154517456,0.0
1668680498.8318033,20633,1668680498,831600054,,3.65393788723618,-10.523482685352409,0.44416615136764703,5e-324,-1.0100509031673592,0.0
1668680498.8397696,20634,1668680498,839522461,,3.6988544762594735,-10.529967794775654,0.23499845387230986,5e-324,-1.0172895065943142,0.0
1668680498.8478088,20635,1668680498,847610716,,3.616366883903975,-10.340762311999503,1.063361064169445,5e-324,-0.9626776168078874,0.0
1668680498.856232,20636,1668680498,855915689,,3.616366883903975,-10.340762311999503,1.063361064169445,5e-324,-0.9626776168078874,0.0
1668680498.8639128,20637,1668680498,863687657,,3.573054622968114,-10.240540255293082,1.5015677769102993,5e-324,-0.9337710497837761,0.0
1668680498.872054,20638,1668680498,871776802,,3.4852858002539095,-10.025263569825178,2.08403760020856,5e-324,-0.8988489540827211,0.0
1668680498.879887,20639,1668680498,879654831,,3.4390172002704644,-9.911347034659208,2.392065514241918,5e-324,-0.8803632968141035,0.0
1668680498.8882737,20640,1668680498,888080034,,3.5678244885447645,-9.995785027683274,2.241077349117539,5e-324,-0.9046708659897214,0.0
1668680498.8966923,20641,1668680498,896428704,,3.7641689581066853,-9.9116575058783,2.10612985745629,5e-324,-0.8934883811685423,0.0
1668680498.904539,20642,1668680498,903789424,,3.7641689581066853,-9.9116575058783,2.10612985745629,5e-324,-0.8934883811685423,0.0
1668680498.9125447,20643,1668680498,912203821,,3.868194909753885,-9.867242796174963,2.0341393895661324,5e-324,-0.8875660124800444,0.0
1668680498.9198673,20644,1668680498,919637313,,3.8093825273113033,-9.920926353358732,2.106555727010028,5e-324,-0.903565733569764,0.0
1668680498.9279664,20645,1668680498,927723520,,3.4536309583732328,-9.9611671504707,2.4961038485974893,5e-324,-0.8904586613065124,0.0
1668680498.9357083,20646,1668680498,935466960,,3.265533142790204,-9.98235930306654,2.702354121188273,5e-324,-0.8835235711744283,0.0
1668680498.9435825,20647,1668680498,943361931,,3.265533142790204,-9.98235930306654,2.702354121188273,5e-324,-0.8835235711744283,0.0
1668680498.9520464,20648,1668680498,951810881,,3.085570743742661,-10.071596598523765,3.3032479627761813,5e-324,-0.8849494246737268,0.0
1668680498.9597912,20649,1668680498,959544710,,2.9899828331565868,-10.118945106846914,3.6211560775016354,5e-324,-0.8857090335491051,0.0
1668680498.9679377,20650,1668680498,967696856,,2.871931645523121,-10.065133603490814,3.812172344808796,5e-324,-0.8698297405318235,0.0
1668680498.9756236,20651,1668680498,975394570,,2.871931645523121,-10.065133603490814,3.812172344808796,5e-324,-0.8698297405318235,0.0
1668680498.9839618,20652,1668680498,983721770,,3.0385168986761486,-10.218540745547948,4.169497750490845,5e-324,-0.8918072547677789,0.0
1668680498.9918418,20653,1668680498,991576824,,3.126373440688921,-10.299696186284024,4.35878121157248,5e-324,-0.9034412668447535,0.0
1668680498.9998462,20654,1668680498,999634601,,3.208800669175474,-10.430943169970307,4.502839844961809,5e-324,-0.9137468855057923,0.0
1668680499.0081646,20655,1668680499,7899797,,2.848905757041542,-10.294865554464899,4.5263136190241084,5e-324,-0.8950275282590134,0.0
1668680499.0157623,20656,1668680499,15564010,,2.6591137664215103,-10.222691956839057,4.538705194342684,5e-324,-0.8851196547575888,0.0
1668680499.023602,20657,1668680499,23306010,,2.6591137664215103,-10.222691956839057,4.538705194342684,5e-324,-0.8851196547575888,0.0
1668680499.0319378,20658,1668680499,31755575,,2.667001858374138,-10.451556043951799,4.549779506178973,5e-324,-0.9107782207166929,0.0
1668680499.0437186,20659,1668680499,43241450,,2.6709899861445363,-10.572357153858796,4.556362624629809,5e-324,-0.9243527190842725,0.0
1668680499.048045,20660,1668680499,47797115,,2.6577748843005335,-10.628197307444594,4.635122686841957,5e-324,-0.9251721935502321,0.0
1668680499.0560822,20661,1668680499,55835785,,2.591588575621743,-10.696782385247467,4.7388046815923985,5e-324,-0.9443160796553567,0.0
1668680499.0635355,20662,1668680499,63312000,,2.591588575621743,-10.696782385247467,4.7388046815923985,5e-324,-0.9443160796553567,0.0
1668680499.072109,20663,1668680499,71875310,,2.556960804364577,-10.73290168835844,4.793763147065504,5e-324,-0.9544407247878731,0.0
1668680499.0798557,20664,1668680499,79674184,,2.565267762947263,-10.765954060501677,4.814230647362289,5e-324,-0.9575989083403411,0.0
1668680499.0878618,20665,1668680499,87590129,,2.8257192135773197,-10.820965937414392,4.842629003780219,5e-324,-0.9826106177873368,0.0
1668680499.0961242,20666,1668680499,95781212,,2.9632019040397077,-10.850103612117643,4.857810773840736,5e-324,-0.9958465393331153,0.0
1668680499.103489,20667,1668680499,103260142,,2.9632019040397077,-10.850103612117643,4.857810773840736,5e-324,-0.9958465393331153,0.0
1668680499.111865,20668,1668680499,111636485,,2.9174540022425175,-10.89834008870136,4.82038445431967,5e-324,-1.0090475302085624,0.0
1668680499.1199105,20669,1668680499,119676751,,2.8930345781770788,-10.924152659425934,4.800123526436469,5e-324,-1.0160355128467053,0.0
1668680499.1278024,20670,1668680499,127600295,,3.2761991743329855,-11.12508607574211,4.860704433019058,5e-324,-1.0468888335275142,0.0
1668680499.1360781,20671,1668680499,135761407,,3.379535000732923,-11.181332746887044,4.9775752718114115,5e-324,-1.0662156571470036,0.0
1668680499.1436346,20672,1668680499,143366708,,3.379535000732923,-11.181332746887044,4.9775752718114115,5e-324,-1.0662156571470036,0.0
1668680499.1518784,20673,1668680499,151607052,,3.434344804603602,-11.211141496640204,5.039208138580134,5e-324,-1.0764351992247079,0.0
1668680499.1597545,20674,1668680499,159554754,,3.4004224196336943,-11.34898487367547,5.093010227432754,5e-324,-1.093202916352089,0.0
1668680499.1679962,20675,1668680499,167711606,,3.611106488990068,-11.587829674786576,5.208085934485165,5e-324,-1.1418431225269352,0.0
1668680499.1760063,20676,1668680499,175809698,,3.722450384164577,-11.714167911528948,5.269124400086978,5e-324,-1.1675785873752664,0.0
1668680499.1865373,20677,1668680499,186147083,,3.722450384164577,-11.714167911528948,5.269124400086978,5e-324,-1.1675785873752664,0.0
1668680499.1939402,20678,1668680499,192050461,,3.8926453786163475,-11.81227858724541,5.338378180162707,5e-324,-1.1858729248498205,0.0
1668680499.200075,20679,1668680499,199738455,,3.9832071354098932,-11.863995874981606,5.374994890307542,5e-324,-1.1955438861156003,0.0
1668680499.2077727,20680,1668680499,207590380,,4.240946242417996,-12.03841550482623,5.396079875283487,5e-324,-1.2235163758625671,0.0
1668680499.2155578,20681,1668680499,215306991,,4.240946242417996,-12.03841550482623,5.396079875283487,5e-324,-1.2235163758625671,0.0
1668680499.2236323,20682,1668680499,223445056,,4.215628119511048,-12.053613400804988,5.533747363157097,5e-324,-1.2348979389203265,0.0
1668680499.2318182,20683,1668680499,231604862,,4.20247080962529,-12.061448984773417,5.606800788223024,5e-324,-1.24091548431738,0.0
1668680499.239922,20684,1668680499,239679023,,4.0889785605936915,-12.20290916495394,5.790326414790259,5e-324,-1.263289446396389,0.0
1668680499.2477329,20685,1668680499,247536492,,4.429707161078274,-12.369829398570634,6.376587770081707,5e-324,-1.3154336210354831,0.0
1668680499.2566252,20686,1668680499,256216739,,4.609845063822968,-12.45835633535519,6.68650295910055,5e-324,-1.343027280798947,0.0
