Time,header.seq,header.stamp.secs,header.stamp.nsecs,header.frame_id,twist.linear.x,twist.linear.y,twist.linear.z,twist.angular.x,twist.angular.y,twist.angular.z
1668680993.296359,82441,1668680993,296230421,,-8.078671886297583e-06,8.180420364506026e-10,-1.6135256239220268e-11,-6.809125029875238e-08,1.7959381696621626e-07,1.7582539628534791e-09
1668680993.3039105,82442,1668680993,303760519,,-7.387369282138342e-06,7.955394210839387e-10,-1.576911834469749e-11,-7.769237463916681e-08,1.8264353726588252e-07,1.7990462369293659e-09
1668680993.312631,82443,1668680993,312504394,,-6.736116635478189e-06,7.732603560979494e-10,-1.5402053836879043e-11,-8.720736021336906e-08,1.856456765665894e-07,1.8392845104139198e-09
1668680993.320569,82444,1668680993,320378891,,-6.123034120079905e-06,7.512294337646471e-10,-1.503473057076715e-11,-9.663567264929503e-08,1.8860022819944477e-07,1.8789680316789027e-09
1668680993.328429,82445,1668680993,328291601,,-5.546315146875545e-06,7.294688391747006e-10,-1.4667870151540817e-11,-1.059767929144616e-07,1.9150719164467606e-07,1.91809612241186e-09
1668680993.3356712,82446,1668680993,335552748,,-5.004224140938919e-06,7.079987984806023e-10,-1.4302058499457996e-11,-1.1523021725480534e-07,1.9436657246956787e-07,1.9566681784496015e-09
1668680993.3435383,82447,1668680993,343409689,,-4.49509435393765e-06,6.868373631877253e-10,-1.3937889843490141e-11,-1.2439545715194073e-07,1.9717838229507762e-07,1.9946836824176267e-09
1668680993.3517208,82448,1668680993,351568134,,-4.0173257138494445e-06,6.660007880356246e-10,-1.3575917855391157e-11,-1.3347203925010768e-07,1.9994263873763424e-07,2.032142182446728e-09
1668680993.3652918,82449,1668680993,364941728,,-3.5693827128658566e-06,6.455035240844268e-10,-1.321663125735783e-11,-1.4245950530365043e-07,2.0265936536042138e-07,2.069043301190504e-09
1668680993.3723803,82450,1668680993,371994466,,-3.1497923348770736e-06,6.25358295701465e-10,-1.2860503263211279e-11,-1.5135741211536796e-07,2.0532859162075172e-07,2.105386743046314e-09
1668680993.3767579,82451,1668680993,376426767,,-2.7571420235493728e-06,6.055762272661249e-10,-1.2507924158381632e-11,-1.6016533147409526e-07,2.079503528245255e-07,2.1411722794880577e-09
1668680993.38458,82452,1668680993,384410852,,-2.390077691553056e-06,5.86166960771224e-10,-1.215923511333985e-11,-1.6888285009289516e-07,2.1052469007903762e-07,2.176399756469664e-09
1668680993.391793,82453,1668680993,391675440,,-2.0473017716935087e-06,5.671387102079092e-10,-1.1814769572331889e-11,-1.7750956952456102e-07,2.130516502250957e-07,2.2110690919839445e-09
1668680993.3998826,82454,1668680993,399668523,,-1.727571310805555e-06,5.484983672321014e-10,-1.1474850284315231e-11,-1.860451061194748e-07,2.1553128580041445e-07,2.245180282295907e-09
1668680993.4076266,82455,1668680993,407486273,,-1.4296961062682338e-06,5.3025154441874e-10,-1.1139735258276256e-11,-1.9448909094289905e-07,2.179636549851146e-07,2.278733389763694e-09
1668680993.4157336,82456,1668680993,415629359,,-1.1525368858880135e-06,5.124028074203242e-10,-1.0809680977779006e-11,-2.0284116970585824e-07,2.2034882154396183e-07,2.3117285477020325e-09
1668680993.4237633,82457,1668680993,423533921,,-8.950035308975787e-07,4.949554512133192e-10,-1.0484867116360581e-11,-2.1110100270245246e-07,2.226868547809563e-07,2.3441659549144257e-09
1668680993.431807,82458,1668680993,431689729,,-6.56053342597229e-07,4.779119244935922e-10,-1.0165505227029623e-11,-2.1926826472634545e-07,2.24977829479838e-07,2.3760458938656094e-09
1668680993.4397602,82459,1668680993,439594163,,-4.346893524941284e-07,4.6127361842316814e-10,-9.851808711932409e-12,-2.2734264500122246e-07,2.2722182585416663e-07,2.407368704021613e-09
1668680993.4478376,82460,1668680993,447656404,,-2.2995867541954353e-07,4.4504111079266906e-10,-9.543889921775478e-12,-2.3532384711198792e-07,2.2941892949350223e-07,2.4381347969830622e-09
1668680993.4553428,82461,1668680993,455234033,,-4.095090615185231e-08,4.292141721148218e-10,-9.241870811326532e-12,-2.4321158892988347e-07,2.3156923131474e-07,2.468344650559471e-09
1668680993.463624,82462,1668680993,463489260,,1.3320344129683136e-07,4.1379177165528653e-10,-8.945882090937459e-12,-2.5100560250946073e-07,2.3367282749904557e-07,2.4979988204586844e-09
1668680993.471825,82463,1668680993,471659956,,2.933344515983839e-07,3.9877227499562293e-10,-8.655922154195062e-12,-2.5870563404446395e-07,2.3572981944503808e-07,2.527097911086652e-09
1668680993.4800725,82464,1668680993,479872586,,4.402342840263592e-07,3.841532976364934e-10,-8.372161881468775e-12,-2.663114437757296e-07,2.377403137099652e-07,2.5556426098284757e-09
1668680993.4877758,82465,1668680993,487597734,,5.746586064280537e-07,3.6993192651410115e-10,-8.094571476234521e-12,-2.7382280589788326e-07,2.397044219555119e-07,2.5836336588130255e-09
1668680993.4955516,82466,1668680993,495326672,,6.973279878006116e-07,3.5610470507893915e-10,-7.823206794311805e-12,-2.8123950849520814e-07,2.416222608982041e-07,2.6110718682661728e-09
1668680993.5040116,82467,1668680993,503851189,,8.089292503567033e-07,3.426677019596374e-10,-7.558130578025426e-12,-2.8856135344530494e-07,2.4349395224825393e-07,2.6379581173507305e-09
1668680993.5122597,82468,1668680993,512105387,,9.101167809979041e-07,3.2961657436890016e-10,-7.29931604127618e-12,-2.9578815634056035e-07,2.4531962265588306e-07,2.6642933420809863e-09
1668680993.5197186,82469,1668680993,519573346,,1.0015138033455253e-06,3.169464350239083e-10,-7.0467942849905406e-12,-3.029197464046033e-07,2.470994036592296e-07,2.6900785455167446e-09
1668680993.5279229,82470,1668680993,527772570,,1.0837136107159467e-06,3.0465216791470474e-10,-6.800516167366127e-12,-3.099559664016333e-07,2.488334316263773e-07,2.7153147954863956e-09
1668680993.5354125,82471,1668680993,535280279,,1.1572807607353197e-06,2.9272833573043347e-10,-6.56046134175443e-12,-3.1689667255287903e-07,2.5052184769759905e-07,2.740003222122685e-09
1668680993.5440667,82472,1668680993,543919751,,1.2227522320276113e-06,2.811690948456785e-10,-6.326564053144179e-12,-3.2374173445125373e-07,2.5216479773536593e-07,2.7641450051254566e-09
1668680993.5516527,82473,1668680993,551462126,,1.280638544237543e-06,2.699684457586749e-10,-6.098795439999384e-12,-3.30491034961492e-07,2.537624322585144e-07,2.787741392098432e-09
1668680993.5597346,82474,1668680993,559615860,,1.3314248415088234e-06,2.5912013511293953e-10,-5.87714686091871e-12,-3.3714447013572176e-07,2.5531490639313614e-07,2.8107936826520968e-09
1668680993.5677516,82475,1668680993,567597966,,1.3755719406028883e-06,2.4861775730378863e-10,-5.661518743580245e-12,-3.4370194912338704e-07,2.5682237981547387e-07,2.8333032562291576e-09
1668680993.5754995,82476,1668680993,575331309,,1.4135173439786483e-06,2.3845460167411854e-10,-5.4518749707248805e-12,-3.5016339407611484e-07,2.582850166929228e-07,2.855271537742743e-09
1668680993.5837307,82477,1668680993,583587601,,1.4456762189219586e-06,2.28623950037367e-10,-5.248131695483163e-12,-3.5652874005467477e-07,2.59702985632113e-07,2.8767000065142957e-09
1668680993.5917451,82478,1668680993,591596519,,1.472442343425321e-06,2.1911893984656086e-10,-5.0502398350283355e-12,-3.6279793493727003e-07,2.6107645961693457e-07,2.897590206365124e-09
1668680993.599932,82479,1668680993,599773618,,1.49418901942122e-06,2.099325752601757e-10,-4.8581001382376445e-12,-3.6897093932566576e-07,2.624056159552035e-07,2.9179437337532806e-09
1668680993.6076658,82480,1668680993,607566627,,1.5112699543280024e-06,2.010577921393154e-10,-4.671594546323711e-12,-3.7504772644299285e-07,2.636906362202808e-07,2.9377622431564576e-09
1668680993.6153991,82481,1668680993,615276376,,1.5240201115167402e-06,1.9248757265254967e-10,-4.490680067844772e-12,-3.810282820394193e-07,2.6493170619181434e-07,2.957047441753043e-09
1668680993.6237857,82482,1668680993,623648476,,1.5327565305907992e-06,1.842146675050897e-10,-4.315225338007796e-12,-3.869126043060627e-07,2.661290158017723e-07,2.975801091713345e-09
1668680993.6318026,82483,1668680993,631672038,,1.537779118301867e-06,1.7623194270149366e-10,-4.145164809734471e-12,-3.927007037502467e-07,2.6728275907496135e-07,2.994025013923572e-09
1668680993.6398778,82484,1668680993,639752711,,1.5393714105078927e-06,1.685321784637173e-10,-3.9803702762596726e-12,-3.98392603126406e-07,2.6839313407602896e-07,3.0117210822687842e-09
1668680993.647695,82485,1668680993,647524840,,1.5378013065724816e-06,1.6110834966226137e-10,-3.820779051964532e-12,-4.03988337314443e-07,2.69460342842705e-07,3.02889121547893e-09
1668680993.6556718,82486,1668680993,655533193,,1.5333217763093805e-06,1.5395314470198127e-10,-3.666227878225509e-12,-4.0948795323273615e-07,2.704845913404666e-07,3.0455373958118533e-09
1668680993.6637971,82487,1668680993,663681991,,1.5261715405699915e-06,1.4705959056524774e-10,-3.516714173523091e-12,-4.1489150972087867e-07,2.7146608939851924e-07,3.06166164969393e-09
1668680993.6716108,82488,1668680993,671464232,,1.5165757263813762e-06,1.4042053286354444e-10,-3.3720272763122317e-12,-4.201990774591536e-07,2.7240505065221847e-07,3.0772660548135473e-09
1668680993.6798384,82489,1668680993,679647357,,1.5047464966996844e-06,1.3402895138560265e-10,-3.2321312213445974e-12,-4.2541073883894767e-07,2.7330169248284276e-07,3.092352739199107e-09
1668680993.687684,82490,1668680993,687558556,,1.4908836564196498e-06,1.2787803142075871e-10,-3.096931740417081e-12,-4.305265878849572e-07,2.7415623596880835e-07,3.1069238739582598e-09
1668680993.6958213,82491,1668680993,695489804,,1.4751752346884324e-06,1.219607640094635e-10,-2.9662809084926527e-12,-4.355467301340528e-07,2.7496890581661004e-07,3.120981695672609e-09
1668680993.703633,82492,1668680993,703490849,,1.4577980443141456e-06,1.1627037207089712e-10,-2.840070389433023e-12,-4.4047128254616644e-07,2.757399303181537e-07,3.1345284769036e-09
1668680993.7121036,82493,1668680993,711874169,,1.4389182193007738e-06,1.108002918243923e-10,-2.7182042982912318e-12,-4.4530037337557703e-07,2.764695412743032e-07,3.1475665362696715e-09
1668680993.7198534,82494,1668680993,719650735,,1.4186917309692998e-06,1.0554377244752903e-10,-2.6005434369973885e-12,-4.5003414208191587e-07,2.7715797395445815e-07,3.1600982370876136e-09
1668680993.7276275,82495,1668680993,727516314,,1.3972648831907253e-06,1.0049443853704161e-10,-2.4870011365102877e-12,-4.546727392217107e-07,2.778054670283089e-07,3.1721260002318e-09
1668680993.7357988,82496,1668680993,735638910,,1.3747747876697528e-06,9.564571255995743e-11,-2.377470599039277e-12,-4.5921632633752174e-07,2.784122625133649e-07,3.1836522858683444e-09
1668680993.743309,82497,1668680993,743158354,,1.3513498197560799e-06,9.09914606596386e-11,-2.2719188862814443e-12,-4.6366507584534714e-07,2.7897860571426434e-07,3.194679593383528e-09
1668680993.7517447,82498,1668680993,751626114,,1.3271100555575018e-06,8.652543703246016e-11,-2.1701517258751686e-12,-4.6801917094689457e-07,2.7950474516807086e-07,3.2052104695792655e-09
1668680993.759875,82499,1668680993,759695596,,1.3021676908206465e-06,8.224164877441157e-11,-2.072103580883321e-12,-4.72278805484284e-07,2.7999093258167267e-07,3.2152475111180656e-09
1668680993.7680306,82500,1668680993,767771852,,1.276627442199585e-06,7.813408927930792e-11,-1.9776596614941598e-12,-4.7644418387090147e-07,2.804374227853917e-07,3.224793346845878e-09
1668680993.77584,82501,1668680993,775708259,,1.2505869317497945e-06,7.419695835513175e-11,-1.8867556665453945e-12,-4.80515520952103e-07,2.8084447366330016e-07,3.2338506595502507e-09
1668680993.7833762,82502,1668680993,783209339,,1.224137054812326e-06,7.042453622236733e-11,-1.7992744955695938e-12,-4.844930419143692e-07,2.8121234610417023e-07,3.2424221626631144e-09
1668680993.7919877,82503,1668680993,791745735,,1.19736233231581e-06,6.681125922603064e-11,-1.7150983665247082e-12,-4.883769821561739e-07,2.815413039368745e-07,3.2505106204612455e-09
1668680993.799843,82504,1668680993,799691511,,1.1703412476889318e-06,6.33517073641362e-11,-1.634119124316136e-12,-4.921675871953385e-07,2.8183161388117235e-07,3.258118830343162e-09
1668680993.808003,82505,1668680993,807834883,,1.1431465690362174e-06,6.004056543675629e-11,-1.556264834512866e-12,-4.958651125351202e-07,2.8208354548491857e-07,3.2652496294364033e-09
1668680993.815669,82506,1668680993,815463192,,1.1158456571743502e-06,5.687261468162193e-11,-1.4814489671309661e-12,-4.994698235786426e-07,2.8229737107172106e-07,3.271905888100576e-09
1668680993.82436,82507,1668680993,824184584,,1.0885007601126508e-06,5.384277982844699e-11,-1.4095339111198762e-12,-5.029819954990067e-07,2.824733656843087e-07,3.278090519186483e-09
1668680993.8324034,82508,1668680993,832241943,,1.0611692941964516e-06,5.0946172390210915e-11,-1.3404821952961329e-12,-5.064019131264717e-07,2.826118070178056e-07,3.2838064749065474e-09
1668680993.8402927,82509,1668680993,840108990,,1.0339041125594285e-06,4.817793885970454e-11,-1.274167102937315e-12,-5.097298708429568e-07,2.8271297537494375e-07,3.2890567462050455e-09
1668680993.8484862,82510,1668680993,848286783,,1.006753761492957e-06,4.553342218319106e-11,-1.2105132580372028e-12,-5.12966172461765e-07,2.82777153601317e-07,3.293844354746232e-09
1668680993.8558667,82511,1668680993,855751412,,9.797627248949937e-07,4.3008063933210816e-11,-1.1494480225710962e-12,-5.161111311220814e-07,2.828046270391298e-07,3.298172360377972e-09
1668680993.8638928,82512,1668680993,863717661,,9.529716576289095e-07,4.0597396436183274e-11,-1.0908670499174896e-12,-5.191650691665072e-07,2.827956834602256e-07,3.302043857572296e-09
1668680993.871801,82513,1668680993,871594721,,9.264176077692575e-07,3.8297145029338344e-11,-1.0346676094290567e-12,-5.221283180332137e-07,2.827506130130877e-07,3.3054619782583026e-09
1668680993.8799677,82514,1668680993,879821921,,9.001342285585043e-07,3.610313050842084e-11,-9.808237328293945e-13,-5.250012181317984e-07,2.826697081665378e-07,3.3084298772798718e-09
1668680993.8877375,82515,1668680993,887626252,,8.741519801655406e-07,3.401126150314251e-11,-9.292534521886483e-13,-5.277841187452803e-07,2.8255326366264635e-07,3.3109507426208366e-09
1668680993.8955255,82516,1668680993,895336375,,8.484983220823744e-07,3.201763696912464e-11,-8.798335389503509e-13,-5.30477377895283e-07,2.824015764457016e-07,3.313027807665784e-09
1668680993.9037924,82517,1668680993,903660755,,8.231978959018961e-07,3.011836671791957e-11,-8.325533623954147e-13,-5.330813622383257e-07,2.822149456179135e-07,3.3146643218971623e-09
1668680993.911702,82518,1668680993,911559675,,7.982726993967939e-07,2.8309734814984098e-11,-7.873142465927645e-13,-5.35596446948217e-07,2.819936723794535e-07,3.3158635761106046e-09
1668680993.9198728,82519,1668680993,919724196,,7.737422520377559e-07,2.658815827399556e-11,-7.440323215992841e-13,-5.380230156007767e-07,2.817380599729278e-07,3.3166288890019505e-09
1668680993.928194,82520,1668680993,928029532,,7.496237523278363e-07,2.4950231181293378e-11,-7.026373326807733e-13,-5.403614600617779e-07,2.814484136333055e-07,3.3169636042151246e-09
1668680993.9358573,82521,1668680993,935708863,,7.259322271970667e-07,2.3392546287196575e-11,-6.630715452177171e-13,-5.426121803686157e-07,2.8112504053076507e-07,3.3168710966239445e-09
1668680993.9442887,82522,1668680993,943891819,,7.026806740274699e-07,2.1911749872277776e-11,-6.252887370461407e-13,-5.447755845996275e-07,2.8076824971002594e-07,3.3163547718311007e-09
1668680993.951961,82523,1668680993,951784953,,6.798801952649886e-07,2.050483860113485e-11,-5.892635390263135e-13,-5.468520887791575e-07,2.803783520411745e-07,3.31541804775599e-09
1668680993.9600787,82524,1668680993,959814151,,6.57540126416693e-07,1.916861136738944e-11,-5.548494606105192e-13,-5.488421167563768e-07,2.7995566016882415e-07,3.3140643868852828e-09
1668680993.9679449,82525,1668680993,967781328,,6.35668157052207e-07,1.7900123126827727e-11,-5.219904701748761e-13,-5.507461000861619e-07,2.795004884522604e-07,3.3122972677535357e-09
1668680993.9757552,82526,1668680993,975640690,,6.142704458412431e-07,1.6696637044023252e-11,-4.906418928906678e-13,-5.525644779037622e-07,2.790131529144362e-07,3.3101202000720472e-09
1668680993.9833822,82527,1668680993,983216885,,5.933517292933637e-07,1.555530671066306e-11,-4.607866073898326e-13,-5.542976968247573e-07,2.784939711855606e-07,3.307536722112161e-09
1668680993.9917986,82528,1668680993,991606433,,5.72915424775641e-07,1.4473458669677043e-11,-4.3234386686403e-13,-5.559462108187472e-07,2.779432624511447e-07,3.304550387079364e-09
1668680993.999685,82529,1668680993,999557514,,5.529637280469898e-07,1.3448605959887554e-11,-4.0522913752553086e-13,-5.575104810943977e-07,2.773613474020754e-07,3.301164768972426e-09
1668680994.0076735,82530,1668680994,7536538,,5.334977054056404e-07,1.2478132068813184e-11,-3.7942283440645037e-13,-5.589909759838612e-07,2.7674854817636477e-07,3.297383472429522e-09
1668680994.0158362,82531,1668680994,15587195,,5.145173808909654e-07,1.1559766684221416e-11,-3.548522006023565e-13,-5.603881708215063e-07,2.7610518830904634e-07,3.2932101233272254e-09
1668680994.024017,82532,1668680994,23888905,,4.960218185349495e-07,1.0691229494124634e-11,-3.3149479277312966e-13,-5.617025478336911e-07,2.754315926780719e-07,3.2886483677451154e-09
1668680994.032464,82533,1668680994,32319351,,4.780092000661728e-07,9.87014886334033e-12,-3.09288904735593e-13,-5.629345960307926e-07,2.7472808745475623e-07,3.2837018764520878e-09
1668680994.0404854,82534,1668680994,40271742,,4.6047689818030105e-07,9.094561899859209e-12,-2.8819487939111074e-13,-5.640848110645076e-07,2.739950000493753e-07,3.2783743264050377e-09
1668680994.0483088,82535,1668680994,48166558,,4.434215457249268e-07,8.362252121475901e-12,-2.6813516849590944e-13,-5.651536951402395e-07,2.732326590641064e-07,3.272669422947793e-09
1668680994.0564532,82536,1668680994,56228862,,4.2683910076287985e-07,7.671344628965214e-12,-2.4909317628175823e-13,-5.661417568846017e-07,2.724413942350512e-07,3.2665908906836987e-09
1668680994.0637023,82537,1668680994,63499950,,4.1072490790875155e-07,7.01997765164054e-12,-2.3103652061013967e-13,-5.670495112267256e-07,2.716215363807287e-07,3.2601424759487425e-09
1668680994.0718322,82538,1668680994,71701956,,3.9507375585351695e-07,6.40621936987621e-12,-2.1389091782187474e-13,-5.678774792991171e-07,2.7077341735988264e-07,3.2533279428181108e-09
1668680994.079758,82539,1668680994,79565915,,3.798799317380878e-07,5.8282925256522835e-12,-1.9767014511644851e-13,-5.686261882957201e-07,2.6989737000941947e-07,3.2461510667407368e-09
1668680994.0877821,82540,1668680994,87637250,,3.651372718887447e-07,5.284534681168985e-12,-1.8231842850301192e-13,-5.692961713912447e-07,2.6899372810551203e-07,3.238615645306995e-09
1668680994.0955093,82541,1668680994,95336628,,3.508392097290547e-07,4.773334283860259e-12,-1.6779471025636387e-13,-5.698879675924936e-07,2.6806282630232656e-07,3.2307254864891308e-09
1668680994.103888,82542,1668680994,103558959,,3.3697882046793874e-07,4.293126594990421e-12,-1.5406462598554346e-13,-5.704021216393119e-07,2.671050000895162e-07,3.2224844180660907e-09
1668680994.1118207,82543,1668680994,111572822,,3.2354886315030596e-07,3.842417321053617e-12,-1.4113076535602238e-13,-5.708391838873243e-07,2.6612058573899364e-07,3.2138962739075172e-09
1668680994.1199152,82544,1668680994,119680578,,3.105418198363956e-07,3.4197222264818116e-12,-1.288825712969134e-13,-5.711997101984868e-07,2.65109920263423e-07,3.20496490960786e-09
1668680994.1276708,82545,1668680994,127529330,,2.9794993241328597e-07,3.023675831453402e-12,-1.1732097320196318e-13,-5.714842618116568e-07,2.6407334135539714e-07,3.1956941899066655e-09
1668680994.1356192,82546,1668680994,135433911,,2.857652367523463e-07,2.6529671601694935e-12,-1.0636810375840906e-13,-5.716934052402223e-07,2.630111873471384e-07,3.186087996306633e-09
1668680994.1437652,82547,1668680994,143639914,,5.893753184737905e-07,-3.7156452102036555e-07,-9.561261184408324e-14,-5.718277144355788e-07,2.6192379245988484e-07,3.176150220902503e-09
1668680994.1525688,82548,1668680994,152408122,,1.8140141989211424e-06,-1.8277327027262915e-06,-1.0059177989437224e-13,-5.718877713019378e-07,2.6081148747925226e-07,3.1658847640929033e-09
1668680994.1597064,82549,1668680994,159578034,,4.5152581713247564e-06,-5.023034199440658e-06,-2.2586978105133999e-13,-5.718741668368579e-07,2.596746060841263e-07,3.1552955436786476e-09
1668680994.1678596,82550,1668680994,167740285,,9.201840958010775e-06,-1.0556815341340559e-05,-7.938065206654385e-13,-5.717875078891778e-07,2.5851348712353176e-07,3.1443864837666573e-09
1668680994.1753712,82551,1668680994,175264468,,1.6338338950949083e-05,-1.8976399192827305e-05,-2.5066353817987033e-12,-5.716284260895415e-07,2.573284776398555e-07,3.1331615078482723e-09
1668680994.183708,82552,1668680994,183594172,,2.6347731460749104e-05,-3.078010093827945e-05,-6.621966637958052e-12,-5.713975880618227e-07,2.561199363174155e-07,3.1216245584603686e-09
1668680994.1916575,82553,1668680994,191515658,,3.961384076300799e-05,-4.6420101648663444e-05,-1.5127276631782226e-11,-5.710957062304604e-07,2.548882371497534e-07,3.1097795771725103e-09
1668680994.1996984,82554,1668680994,199537737,,5.648365659828103e-05,-6.630518595904059e-05,-3.0901687688784704e-11,-5.707235496980311e-07,2.536337731348345e-07,3.0976305162404294e-09
1668680994.2077863,82555,1668680994,207645661,,7.726954964730003e-05,-9.08033490166251e-05,-5.785769186003901e-11,-5.702819547016349e-07,2.5235695982285497e-07,3.085181321733129e-09
1668680994.2156227,82556,1668680994,215495262,,0.00010225137836995846,-0.00012024427789088943,-1.0105691253893187e-10,-5.697718343612294e-07,2.510582386134623e-07,3.0724359445239834e-09
1668680994.2235944,82557,1668680994,223486743,,0.00013167849346481367,-0.00015492171247252906,-1.6679710813314945e-10,-5.691941874320327e-07,2.497380797274201e-07,3.0593983298349628e-09
1668680994.2319198,82558,1668680994,231778963,,0.00016577164407503633,-0.0001950956907257226,-2.6266877577812814e-10,-5.685501059250494e-07,2.483969847752826e-07,3.0460724288511494e-09
1668680994.2397234,82559,1668680994,239584483,,0.00020472478973761082,-0.00024099468300223234,-3.9758107721739186e-10,-5.678407814158732e-07,2.470354888942935e-07,3.0324621839213778e-09
1668680994.2490056,82560,1668680994,248775886,,0.0002487068219454792,-0.0002928176199707066,-5.817583287052239e-10,-5.670675100466945e-07,2.45654162423461e-07,3.0185715388852605e-09
1668680994.2563696,82561,1668680994,256209681,,0.00029786319906716346,-0.00035073581856235746,-8.2670833036859e-10,-5.662316961635065e-07,2.4425361211894736e-07,3.0044044317277183e-09
1668680994.2635844,82562,1668680994,263418649,,0.0003523174982445809,-0.00041489481018906055,-1.1451651791875402e-09,-5.653348545817735e-07,2.4283448188994243e-07,2.989964791489004e-09
1668680994.2718973,82563,1668680994,271677828,,0.00041217288776978177,-0.0004854160753438851,-1.5510090466235702e-09,-5.643786115511454e-07,2.4139745310113817e-07,2.975256548401993e-09
1668680994.2800033,82564,1668680994,279889325,,0.0004775135233216133,-0.0005623986885545884,-2.0591658860127377e-09,-5.633647044370896e-07,2.3994324443483853e-07,2.960283626953289e-09
1668680994.2879255,82565,1668680994,287768307,,0.0005484058713283557,-0.0006459208775222049,-2.6854901214535393e-09,-5.622949802615685e-07,2.384726113574388e-07,2.9450499434979793e-09
1668680994.2954125,82566,1668680994,295269278,,0.0006248999626078215,-0.0007360415001447305,-3.446633462205764e-09,-5.611713930885985e-07,2.36986345189114e-07,2.9295594077775183e-09
1668680994.3049192,82567,1668680994,303621276,,0.0007070305793258686,-0.000832801442993607,-4.359902840738545e-09,-5.599960004426243e-07,2.3548527185950058e-07,2.9138159246544504e-09
1668680994.3125114,82568,1668680994,312286386,,0.000794818378205795,-0.0009362249446844985,-5.443110495451559e-09,-5.587709587980807e-07,2.3397025032091884e-07,2.897823393570309e-09
1668680994.3199716,82569,1668680994,319805734,,0.0008882709528150271,-0.0010463208474606744,-6.714418854389595e-09,-5.574985182613648e-07,2.3244217071619343e-07,2.88158572502549e-09
1668680994.3278904,82570,1668680994,327745108,,0.0009873838376526305,-0.0011630837801845178,-8.192182849446945e-09,-5.561810165685993e-07,2.3090195228827758e-07,2.8651068106552713e-09
1668680994.3354745,82571,1668680994,335337905,,0.0010921414566610421,-0.0012864952758183717,-9.894792249490124e-09,-5.548208724362326e-07,2.2935054109133972e-07,2.848390541227569e-09
1668680994.344044,82572,1668680994,343900096,,0.001202518018686914,-0.0014165248263596885,-1.1840515742127074e-08,-5.534205784558981e-07,2.2778890752568756e-07,2.8314408161839166e-09
1668680994.351637,82573,1668680994,351527961,,0.0013184783623218727,-0.0015531308780858395,-1.404734908115307e-08,-5.519826935420204e-07,2.2621804374728377e-07,2.814261525641709e-09
1668680994.3597915,82574,1668680994,359584409,,0.001439978752460639,-0.0016962617698548154,-1.6532868881590172e-08,-5.505098350781094e-07,2.2463896095466565e-07,2.7968565670909162e-09
1668680994.3677347,82575,1668680994,367553224,,0.0015669676308250546,-0.0018458566171061538,-1.9314093423934544e-08,-5.490046708185595e-07,2.2305268660503916e-07,2.7792298380215075e-09
1668680994.3758173,82576,1668680994,375702510,,0.0016993863226153353,-0.0020018461441009302,-2.240735169210532e-08,-5.474699106365357e-07,2.21460261582126e-07,2.761385247199155e-09
1668680994.3835025,82577,1668680994,383393034,,0.0018371697013643722,-0.0021641534668453335,-2.5828161638343018e-08,-5.459082981907217e-07,2.1986273733646524e-07,2.7433267038232123e-09
1668680994.3919048,82578,1668680994,391736164,,0.0019802468139908233,-0.002332694829043746,-2.9591118690084252e-08,-5.443226025907018e-07,2.1826117301447978e-07,2.725058127935054e-09
1668680994.3998315,82579,1668680994,399645762,,0.0021285414679655303,-0.0025073802933361167,-3.3709794724438814e-08,-5.427156100863071e-07,2.1665663262183759e-07,2.706583448683353e-09
1668680994.4084713,82580,1668680994,408239274,,0.0022819727824299023,-0.0026881143899842733,-3.819664828387392e-08,-5.410901158772513e-07,2.1505018222287616e-07,2.6879066038904e-09
1668680994.4156432,82581,1668680994,415524654,,0.0024404557050306257,-0.002874796725084968,-4.306294596894502e-08,-5.39448916089336e-07,2.1344288718683744e-07,2.669031554797252e-09
1668680994.423345,82582,1668680994,423212847,,0.002603901496161978,-0.0030673225503030175,-4.831869528064609e-08,-5.377947999348767e-07,2.118358095107016e-07,2.649962266114414e-09
1668680994.4318063,82583,1668680994,431607031,,0.0027722181822385783,-0.0032655832960368594,-5.397258914495855e-08,-5.361305420995466e-07,2.1023000522097778e-07,2.6307027242364334e-09
1668680994.4398363,82584,1668680994,439695694,,0.0029453109795531604,-0.0034694670698501642,-6.003196125806824e-08,-5.344588954395298e-07,2.0862652189374085e-07,2.6112569363745397e-09
1668680994.447715,82585,1668680994,447538413,,0.003123082690209489,-0.0036788591219261532,-6.650275255736127e-08,-5.327825839579513e-07,2.0702639623679264e-07,2.5916289305566442e-09
1668680994.4557474,82586,1668680994,455519340,,0.003305434071557048,-0.0038936422792288806,-7.338948868452839e-08,-5.311042960865975e-07,2.054306518154531e-07,2.571822751290531e-09
1668680994.4636989,82587,1668680994,463498006,,0.003492264180494121,-0.004113697349982711,-8.06952670988494e-08,-5.294266783506453e-07,2.038402969052166e-07,2.551842476043731e-09
1668680994.4716852,82588,1668680994,471506778,,0.0036834706939466817,-0.004338903500015233,-8.842175445486203e-08,-5.277523293677525e-07,2.0225632244605211e-07,2.531692203100455e-09
1668680994.4796798,82589,1668680994,479553446,,0.0038789502067744334,-0.004569138602440074,-9.656919286885e-08,-5.260837942270855e-07,2.0067970012496456e-07,2.5113760723782796e-09
1668680994.4877415,82590,1668680994,487596627,,0.004078598508300455,-0.004804279562092806,-1.0513641493363581e-07,-5.244235592301397e-07,1.9911138061991262e-07,2.49089822899895e-09
1668680994.4956741,82591,1668680994,495566976,,0.004282310838608841,-0.005044202616072498,-1.141208666916073e-07,-5.22774047054459e-07,1.9755229193124863e-07,2.4702628779321723e-09
1668680994.5036,82592,1668680994,503372152,,0.004489982125703382,-0.00528878361167974,-1.235186380518478e-07,-5.211376122539257e-07,1.9600333788885355e-07,2.4494742328212693e-09
1668680994.5116146,82593,1668680994,511494848,,0.00470150720457269,-0.005537898262987057,-1.3332449979606612e-07,-5.195165371979694e-07,1.944653967588829e-07,2.4285365437387574e-09
1668680994.5196612,82594,1668680994,519548218,,0.0049167810191585925,-0.005791422387220437,-1.43531946944204e-07,-5.179130283212914e-07,1.9293932000308722e-07,2.4074541075946865e-09
1668680994.5279596,82595,1668680994,527783740,,0.005135698808181061,-0.006049232122078203,-1.541332472874332e-07,-5.163292128366993e-07,1.9142593115107904e-07,2.386231259463023e-09
1668680994.5358527,82596,1668680994,535695291,,0.005358156275728169,-0.006311204125061887,-1.6511949479667957e-07,-5.147671357372605e-07,1.8992602481330244e-07,2.3648723448260744e-09
1668680994.544609,82597,1668680994,544359516,,0.005584049747478541,-0.006577215755845629,-1.7648066721759576e-07,-5.132287572072821e-07,1.8844036581001206e-07,2.34338177508564e-09
1668680994.5517857,82598,1668680994,551601591,,0.005813276313383088,-0.006847145242660422,-1.882056872076196e-07,-5.117159503801265e-07,1.8696968842086973e-07,2.321763978990754e-09
1668680994.5604095,82599,1668680994,560100905,,0.006045733957594202,-0.0071208718336271725,-2.0028248648373634e-07,-5.102304994074097e-07,1.8551469574336777e-07,2.3000234512099427e-09
1668680994.5677412,82600,1668680994,567585794,,0.0062813216763934285,-0.007398275933926504,-2.126980721699203e-07,-5.087740978834118e-07,1.840760591756375e-07,2.278164696820073e-09
1668680994.5754557,82601,1668680994,575297311,,0.006519939584833061,-0.00767923922965087,-2.254385950736608e-07,-5.073483475814122e-07,1.826544180032869e-07,2.2561922798786105e-09
1668680994.583742,82602,1668680994,583562249,,0.006761489012772583,-0.007963644799146113,-2.384894194007969e-07,-5.059547574664695e-07,1.8125037907183597e-07,2.2341107904638724e-09
1668680994.5916207,82603,1668680994,591428098,,0.007005872590958256,-0.008251377212608005,-2.518351931630776e-07,-5.045947430055026e-07,1.7986451657513473e-07,2.2119248776347744e-09
1668680994.5998418,82604,1668680994,599703597,,0.007252994327762061,-0.008542322620664745,-2.6545991889225346e-07,-5.032696257888775e-07,1.7849737194022093e-07,2.1896392164710843e-09
1668680994.6077237,82605,1668680994,607583670,,0.0075027596771664925,-0.008836368832637054,-2.793470244789171e-07,-5.019806333387877e-07,1.7714945376356896e-07,2.1672585184817628e-09
1668680994.6152992,82606,1668680994,615170923,,0.007755075598552456,-0.009133405385137483,-2.934794335103021e-07,-5.007288992132567e-07,1.7582123787061258e-07,2.1447875420133045e-09
1668680994.6236942,82607,1668680994,623504340,,0.008009850608819131,-0.009433323601633417,-3.078396347406431e-07,-4.99515463300512e-07,1.7451316743218818e-07,2.12223107837195e-09
1668680994.631818,82608,1668680994,631604831,,0.008266994827339062,-0.009736016643569592,-3.224097504923556e-07,-4.983412723558959e-07,1.7322565315134285e-07,2.0995939639667505e-09
1668680994.6396592,82609,1668680994,639510258,,0.008526420014224812,-0.010041379553613691,-3.3717160344844416e-07,-4.972071807310863e-07,1.719590735331923e-07,2.0768810664317794e-09
1668680994.6476953,82610,1668680994,647587364,,0.008788039602360348,-0.010349309291561623,-3.5210678200600517e-07,-4.961139512764238e-07,1.7071377516345238e-07,2.054097284626133e-09
1668680994.6557336,82611,1668680994,655604958,,0.00905176872362592,-0.010659704763409076,-3.6719670362981586e-07,-4.950622564023864e-07,1.6949007313041059e-07,2.0312475659811646e-09
1668680994.663414,82612,1668680994,663303599,,0.009317524229723113,-0.010972466844071006,-3.8242267588811587e-07,-4.940526793187512e-07,1.682882514253219e-07,2.0083369030310383e-09
1668680994.6720452,82613,1668680994,671761129,,0.009585224707985575,-0.011287498394204804,-3.9776595528426e-07,-4.930857154198255e-07,1.6710856340623054e-07,1.9853702917793647e-09
1668680994.6799533,82614,1668680994,679755695,,0.009854790492539577,-0.01160470427156831,-4.1320780360981e-07,-4.921617737626205e-07,1.6595123233161414e-07,1.9623527663936713e-09
1668680994.688105,82615,1668680994,687894890,,0.01012614367116012,-0.011923991337320904,-4.287295417427897e-07,-4.912811786902547e-07,1.6481645189288978e-07,1.9392894130831895e-09
1668680994.6957693,82616,1668680994,695578271,,0.010399208088148305,-0.012245268457653646,-4.443126006359735e-07,-4.904441715557e-07,1.6370438682650028e-07,1.916185318057151e-09
1668680994.7036073,82617,1668680994,703495601,,0.010673909343538582,-0.012568446501113457,-4.599385694876988e-07,-4.896509125589617e-07,1.6261517352144685e-07,1.8930456126275974e-09
1668680994.7116075,82618,1668680994,711459856,,0.01095017478892744,-0.01289343833196498,-4.7558924116580515e-07,-4.889014825796515e-07,1.6154892063457386e-07,1.8698754662704875e-09
1668680994.719986,82619,1668680994,719824154,,0.011227933520197981,-0.013220158799916617,-4.912466546579508e-07,-4.88195885192113e-07,1.6050570981839376e-07,1.8466800415228857e-09
1668680994.7284634,82620,1668680994,728311766,,0.011507116367400157,-0.013548524726515737,-5.068931345480307e-07,-4.875340487361392e-07,1.594855963198919e-07,1.8234645390857729e-09
1668680994.735471,82621,1668680994,735333163,,0.011787655882031164,-0.013878454888503812,-5.225113278509005e-07,-4.869158282515957e-07,1.5848860975930905e-07,1.8002341874157057e-09
1668680994.7438657,82622,1668680994,743711409,,0.012069486321946097,-0.0142098699984025,-5.38084237592829e-07,-4.863410077649759e-07,1.5751475483281267e-07,1.7769942184386878e-09
1668680994.751738,82623,1668680994,751555783,,0.012352543634116003,-0.01454269268258803,-5.535952535133816e-07,-4.858093023381912e-07,1.565640119997186e-07,1.7537498779585103e-09
1668680994.7602394,82624,1668680994,760108035,,0.012636765435437267,-0.014876847457094151,-5.690281802928221e-07,-4.853203602785811e-07,1.5563633824116144e-07,1.7305064430039874e-09
1668680994.7677832,82625,1668680994,767618149,,0.012922090991783767,-0.015212260701370653,-5.843672625689257e-07,-4.848737653675723e-07,1.5473166779637632e-07,1.7072691871344858e-09
1668680994.7758417,82626,1668680994,775693311,,0.013208461195482347,-0.015548860630210468,-5.995972074022982e-07,-4.844690390308449e-07,1.5384991289421005e-07,1.6840433908482666e-09
1668680994.7833996,82627,1668680994,783296942,,0.013495818541380405,-0.01588657726404435,-6.147032040408898e-07,-4.841056425815466e-07,1.5299096451780892e-07,1.6608343623991662e-09
1668680994.7919557,82628,1668680994,791763389,,0.013784107101663673,-0.01622534239779142,-6.296709410817966e-07,-4.837829794115196e-07,1.521546931285405e-07,1.6376473892243393e-09
1668680994.7998629,82629,1668680994,799588988,,0.014073272499573304,-0.01656508956843977,-6.444866210763886e-07,-4.835003972640864e-07,1.513409494099732e-07,1.6144877830470694e-09
1668680994.8078449,82630,1668680994,807712699,,0.014363261882160479,-0.016905754021521734,-6.591369727606106e-07,-4.83257190382017e-07,1.505495649775949e-07,1.5913608174267235e-09
1668680994.815564,82631,1668680994,815438404,,0.014654023892208736,-0.01724727267663738,-6.736092609203128e-07,-4.830526016866125e-07,1.4978035311444433e-07,1.5682718249032668e-09
1668680994.8247948,82632,1668680994,824575703,,0.014945508639444792,-0.017589584092169024,-6.878912942326285e-07,-4.828858249805062e-07,1.490331095511943e-07,1.5452260720971722e-09
1668680994.832402,82633,1668680994,832216397,,0.01523766767115172,-0.01793262842932066,-7.019714304493122e-07,-4.827560070856554e-07,1.4830761308056925e-07,1.5222288499150416e-09
1668680994.8402462,82634,1668680994,840067268,,0.015530453942288856,-0.018276347415606273,-7.158385801810307e-07,-4.826622499455829e-07,1.4760362629633733e-07,1.4992854457940297e-09
1668680994.8477504,82635,1668680994,847645128,,0.015823821785217147,-0.018620684307903153,-7.294822084318205e-07,-4.826036127168027e-07,1.4692089631278705e-07,1.4764011194157156e-09
1668680994.8564825,82636,1668680994,856294797,,0.016117726879120442,-0.018965583855178023,-7.428923343185301e-07,-4.825791138080959e-07,1.4625915541102014e-07,1.4535810888283152e-09
1668680994.8634999,82637,1668680994,863360498,,0.016412126219207686,-0.019310992260984972,-7.560595292056161e-07,-4.825877329335559e-07,1.456181217046517e-07,1.4308306137134075e-09
1668680994.87182,82638,1668680994,871605850,,0.016706978085773976,-0.019656857145828405,-7.689749131686889e-07,-4.826284130796566e-07,1.4499749980594404e-07,1.4081548913025266e-09
1668680994.879917,82639,1668680994,879796871,,0.017002242013192646,-0.02000312750947606,-7.816301499314469e-07,-4.827000624224738e-07,1.4439698143881453e-07,1.3855590910716309e-09
1668680994.8882568,82640,1668680994,888058838,,0.017297878758905646,-0.020349753693301144,-7.940174405959556e-07,-4.828015562856466e-07,1.4381624610160845e-07,1.3630484241300422e-09
1668680994.8954368,82641,1668680994,895282684,,0.017593850272473142,-0.020696687342726467,-8.06129515863616e-07,-4.829317389421308e-07,1.4325496164519554e-07,1.3406279628092044e-09
1668680994.9039538,82642,1668680994,903763934,,0.017890119664739537,-0.02104388136983697,-8.179596271778078e-07,-4.830894254979467e-07,1.4271278485009087e-07,1.3183028488295001e-09
1668680994.9127302,82643,1668680994,912415116,,0.01818665117716705,-0.021391289916222356,-8.295015371531559e-07,-4.83273403609067e-07,1.4218936208185498e-07,1.2960781337056915e-09
1668680994.919853,82644,1668680994,919648420,,0.018483410151384928,-0.021738868316106007,-8.407495082747621e-07,-4.834824352148393e-07,1.4168432975773457e-07,1.2739588689525405e-09
1668680994.9277625,82645,1668680994,927547742,,0.01878036299899718,-0.022086573059811255,-8.516982913229114e-07,-4.83715258304152e-07,1.4119731499230483e-07,1.2519500158791885e-09
1668680994.9354534,82646,1668680994,935306701,,0.019077477171688374,-0.022434361757611192,-8.623431128127979e-07,-4.839705884602044e-07,1.4072793601434524e-07,1.2300565566114585e-09
1668680994.9436665,82647,1668680994,943554829,,0.019374721131662966,-0.022782193104005276,-8.726796618384612e-07,-4.842471204940212e-07,1.402758028066272e-07,1.2082834108251284e-09
1668680994.9518013,82648,1668680994,951694599,,0.019672064322450604,-0.023130026842459673,-8.827040760666969e-07,-4.845435300328618e-07,1.3984051753471605e-07,1.1866354496237186e-09
1668680994.959664,82649,1668680994,959560320,,0.019969477140106044,-0.02347782373064697,-8.92412927538472e-07,-4.848584749742989e-07,1.3942167504288512e-07,1.165117453905129e-09
1668680994.9679532,82650,1668680994,967753512,,0.02026693090483005,-0.023825545506214345,-9.018032076279192e-07,-4.851905969554746e-07,1.3901886335555922e-07,1.143734232322835e-09
1668680994.975452,82651,1668680994,975249928,,0.02056439783303349,-0.024173154853109516,-9.10872312072326e-07,-4.85538522858027e-07,1.38631664064158e-07,1.1224904755691156e-09
1668680994.984389,82652,1668680994,984182805,,0.020861851009865765,-0.0245206153684867,-9.196180253493492e-07,-4.859008660108508e-07,1.382596528926158e-07,1.1013908812751438e-09
1668680994.9925609,82653,1668680994,992255707,,0.021159264362224827,-0.024867891530215513,-9.28038504922552e-07,-4.862762277348131e-07,1.379023999600838e-07,1.080440049927578e-09
1668680994.9999814,82654,1668680994,999675057,,0.02145661263226444,-0.025214948665009635,-9.361322655168644e-07,-4.866631984613802e-07,1.37559470371495e-07,1.0596425126241371e-09
1668680995.0079494,82655,1668680995,7820008,,0.021753871351411942,-0.02556175291719259,-9.438981628457096e-07,-4.870603590554517e-07,1.3723042447170118e-07,1.0390027588291773e-09
1668680995.0159185,82656,1668680995,15695109,,0.02205101681490762,-0.025908271218113108,-9.513353778257564e-07,-4.874662820108567e-07,1.369148182986694e-07,1.0185252363736907e-09
1668680995.0246904,82657,1668680995,24535417,,0.022348026056874953,-0.026254471256221764,-9.58443400325028e-07,-4.878795326506737e-07,1.366122039404014e-07,9.982142820663675e-10
1668680995.032356,82658,1668680995,32132567,,0.022644876825929555,-0.02660032144781776,-9.652220133339635e-07,-4.88298670204819e-07,1.3632212993858195e-07,9.780741910825341e-10
1668680995.040776,82659,1668680995,40408996,,0.022941547561332022,-0.026945790908472867,-9.716712768692948e-07,-4.887222489442854e-07,1.3604414153805394e-07,9.581092030863658e-10
1668680995.0488694,82660,1668680995,48678374,,0.023238017369689702,-0.02729084942513853,-9.777915125008198e-07,-4.891488192119466e-07,1.3577778113166641e-07,9.383234397808415e-10
1668680995.0557377,82661,1668680995,55540154,,0.023534266002209824,-0.027635467428939055,-9.83583287575872e-07,-4.895769284591635e-07,1.355225884903423e-07,9.187210089911524e-10
1668680995.063787,82662,1668680995,63547376,,0.023830273832505678,-0.0279796159686538,-9.890473999538553e-07,-4.900051221910459e-07,1.3527810113268292e-07,8.993059005812931e-10
1668680995.0717416,82663,1668680995,71595324,,0.024126021834956355,-0.02832326668488802,-9.94184862932691e-07,-4.904319449956849e-07,1.3504385459840382e-07,8.800820211485316e-10
1668680995.0798,82664,1668680995,79687350,,0.02442149156361905,-0.02866639178493299,-9.989968904242407e-07,-4.908559413466262e-07,1.3481938275473025e-07,8.610532703512419e-10
1668680995.0885472,82665,1668680995,88378304,,0.024716665131692295,-0.02900896401831264,-1.0034848825098552e-06,-4.91275656616056e-07,1.3460421805508785e-07,8.422233535587687e-10
1668680995.0953128,82666,1668680995,95202094,,0.02501152519152731,-0.029350956653014165,-1.0076504113022246e-06,-4.916896378319002e-07,1.3439789180494897e-07,8.235959969571383e-10
1668680995.1041186,82667,1668680995,103992929,,0.025306054915183982,-0.029692343452398736,-1.0114952071929213e-06,-4.920964345562985e-07,1.3419993443591904e-07,8.051748018322868e-10
1668680995.1122458,82668,1668680995,112080538,,0.025600237975527,-0.03003309865278716,-1.015021145389353e-06,-4.924945996249226e-07,1.3400987577548602e-07,7.869632168144847e-10
1668680995.1196668,82669,1668680995,119551762,,0.025894058527856822,-0.030373196941714753,-1.0182302329302692e-06,-4.928826899743845e-07,1.3382724525952405e-07,7.689647182895776e-10
1668680995.1279843,82670,1668680995,127842682,,0.02618750119207039,-0.03071261343684966,-1.0211245962014222e-06,-4.932592673650743e-07,1.3365157213677398e-07,7.511826508044273e-10
1668680995.1353748,82671,1668680995,135278377,,0.02648055103534426,-0.031051323665565872,-1.0237064686270983e-06,-4.936228990833438e-07,1.3348238576808315e-07,7.336202131891234e-10
1668680995.1452417,82672,1668680995,145038080,,0.02677319355533406,-0.03138930354516481,-1.0259781790976385e-06,-4.939721586532308e-07,1.3331921573070567e-07,7.162805973348618e-10
1668680995.1517255,82673,1668680995,151590084,,0.027151909777878094,-0.03172648848605036,-1.0206384873863753e-06,-4.961246494803568e-07,1.3378548103224787e-07,6.999162568965822e-10
1668680995.1599221,82674,1668680995,159746457,,0.027607600623578612,-0.03206286114415433,-1.0089068200872355e-06,-4.999350686444182e-07,1.3483230967164563e-07,6.845259706289575e-10
1668680995.1677155,82675,1668680995,167545847,,0.0280940561458217,-0.03239842217632639,-9.951314404777235e-07,-5.044555400127962e-07,1.3613551601916914e-07,6.697569027158679e-10
1668680995.175904,82676,1668680995,175788080,,0.028614982741577456,-0.032733147278262334,-9.791225605549378e-07,-5.097886561167492e-07,1.3773072935949725e-07,6.556833617721303e-10
1668680995.1837819,82677,1668680995,183579044,,0.029126693790207957,-0.03306703646056385,-9.648184199092078e-07,-5.149851273167599e-07,1.3929288289406434e-07,6.419073952934617e-10
1668680995.191816,82678,1668680995,191663828,,0.029618655756187766,-0.033400072697815426,-9.530348986765071e-07,-5.19796355449235e-07,1.407367284885809e-07,6.283159964537433e-10
1668680995.1998887,82679,1668680995,199771149,,0.030097680607033564,-0.03373223005579947,-9.430135784814003e-07,-5.243607331467063e-07,1.4210960102775672e-07,6.149691034185167e-10
1668680995.208142,82680,1668680995,207995693,,0.030438649057589726,-0.034063553138312185,-9.457062136371785e-07,-5.257610718542192e-07,1.424109491040236e-07,6.004438751761043e-10
1668680995.2157643,82681,1668680995,215637455,,0.030708832279815104,-0.034393980959789384,-9.54298726334024e-07,-5.254963100882141e-07,1.4215310993387006e-07,5.853854068149644e-10
1668680995.2234027,82682,1668680995,223245633,,0.030930326957387868,-0.03472347837901318,-9.664134394462112e-07,-5.240587547010933e-07,1.4150398615613707e-07,5.699916788559634e-10
1668680995.2318335,82683,1668680995,231651722,,0.03115404534684806,-0.03505199534684637,-9.772020598360271e-07,-5.226411742863864e-07,1.4087197868785893e-07,5.548474041328078e-10
1668680995.2399182,82684,1668680995,239723270,,0.03135502455793822,-0.03537952509230492,-9.88987975672767e-07,-5.206474936918573e-07,1.4005266228992938e-07,5.396386115741336e-10
1668680995.2476408,82685,1668680995,247497743,,0.03154688408896907,-0.03570603900939132,-1.0004305618565246e-06,-5.183989904736057e-07,1.3915587988942019e-07,5.245229667272255e-10
1668680995.2554164,82686,1668680995,255308266,,0.03176541839721322,-0.03603460558767818,-1.0103637847247367e-06,-5.167825080893513e-07,1.3848563596785893e-07,5.099875244329866e-10
1668680995.2637727,82687,1668680995,263645890,,0.031986806793778064,-0.036361858647097685,-1.0187563185597423e-06,-5.151992638642838e-07,1.3783693426352647e-07,4.957172727859671e-10
1668680995.275982,82688,1668680995,275792522,,0.032199985446959276,-0.03680647503156931,-1.1101317874973936e-06,-5.142933305809778e-07,1.3743069201383427e-07,4.820896876145397e-10
1668680995.281418,82689,1668680995,280094786,,0.032410818195408676,-0.037302947329175454,-1.2336543446906932e-06,-5.137035714656278e-07,1.3714345425486565e-07,4.689182930839308e-10
1668680995.2912455,82690,1668680995,290552888,,0.03276033504420824,-0.03788461877485755,-2.7672552465957322e-05,-5.172037327900872e-07,1.3826973080605445e-07,4.5849685159637943e-10
1668680995.2990787,82691,1668680995,298467977,,0.0331738472138096,-0.03849669638190292,-6.588928301234447e-05,-5.225642438727953e-07,1.400473424906408e-07,4.496055611147298e-10
1668680995.3059611,82692,1668680995,305572255,,0.033574517879051406,-0.039082860486688784,-0.00010094508572700083,-5.274202175789989e-07,1.4166639588676644e-07,4.4083316164122976e-10
1668680995.3126044,82693,1668680995,312425692,,0.03385682263569101,-0.03978718310013549,-0.00017865278598846402,-5.30189839871738e-07,1.4258413758450744e-07,4.311532519896133e-10
1668680995.3199756,82694,1668680995,319839253,,0.034080106933712113,-0.040552842021352904,-0.0002718251684178818,-5.319029914476869e-07,1.4315252110813116e-07,4.211653942265414e-10
1668680995.3278112,82695,1668680995,327686488,,0.03427554457670322,-0.04132881404896738,-0.00036862356426907114,-5.32937728323188e-07,1.435005615043304e-07,4.110855961192428e-10
1668680995.3356624,82696,1668680995,335507179,,0.03471999999023444,-0.04213874023570485,-0.0004009795296947467,-5.408179359627126e-07,1.4620826012477078e-07,4.060019265228476e-10
1668680995.3439522,82697,1668680995,343722259,,0.03514856932750955,-0.0429024960121156,-0.00042996376598845843,-5.479330358136971e-07,1.486699605635338e-07,4.0091983899426253e-10
1668680995.351924,82698,1668680995,351824982,,0.03543265041658846,-0.044811628771650736,-0.0004271482855398497,-5.607706409335896e-07,1.531102011011979e-07,4.003937459362561e-10
1668680995.3597548,82699,1668680995,359499864,,0.035644528981354257,-0.047212464189293576,-0.0004085480467936851,-5.75882987215409e-07,1.5835046073583818e-07,4.021862148873012e-10
1668680995.367907,82700,1668680995,367786503,,0.03582363712527124,-0.05086598453922788,-0.001256058434618472,-6.010644321833604e-07,1.6706533132512108e-07,4.1211470347413126e-10
1668680995.3756924,82701,1668680995,375455572,,0.03598908778759303,-0.05499173764649449,-0.0024917400213351737,-6.303850981163178e-07,1.7722836608761831e-07,4.261967168073255e-10
1668680995.3838758,82702,1668680995,383686978,,0.036160453866345095,-0.05878638601305061,-0.0036248952744000734,-6.572706885321807e-07,1.8658872147467483e-07,4.3963922780054787e-10
1668680995.3918877,82703,1668680995,391740074,,0.03655628153682403,-0.06333380826421653,-0.005647331099730003,-6.983435947169542e-07,2.0084457549255502e-07,4.652623564194158e-10
1668680995.4000356,82704,1668680995,399816590,,0.0372846822653388,-0.06818275501399797,-0.008057541920711482,-7.53670921364402e-07,2.2002938828129953e-07,5.038079814445595e-10
1668680995.40774,82705,1668680995,407593704,,0.03815602113807069,-0.0729793464364235,-0.010557058796458437,-8.146481950718591e-07,2.4120486976828524e-07,5.490768950622282e-10
1668680995.4156713,82706,1668680995,415508012,,0.03901806963619553,-0.07766391619673739,-0.012852259096406343,-8.75775216007714e-07,2.6249191236891664e-07,5.969102712111152e-10
1668680995.4238665,82707,1668680995,423590342,,0.03982722089852163,-0.0819309255889153,-0.014940517637248591,-9.320244801472224e-07,2.8216993206656854e-07,6.431893212477391e-10
1668680995.4319482,82708,1668680995,431782193,,0.040760182280808986,-0.08579233176855634,-0.016831215183024016,-9.893814332470347e-07,3.022883488437017e-07,6.928835283304124e-10
1668680995.4402847,82709,1668680995,440065923,,0.04172411757849986,-0.08927918144365987,-0.01853746337398978,-1.0446930712947576e-06,3.217696235660074e-07,7.433774845688745e-10
1668680995.4491398,82710,1668680995,448884214,,0.04287148738037177,-0.09218149261755018,-0.020106775295701262,-1.1011584262195055e-06,3.417099672178847e-07,7.975031052209758e-10
1668680995.4558458,82711,1668680995,455681670,,0.04406940065847501,-0.0946530956507849,-0.02153049413437547,-1.155384192246564e-06,3.6094971283141125e-07,8.523098754542602e-10
1668680995.4639003,82712,1668680995,463697286,,0.04523052926059296,-0.09652471313849013,-0.022507418476531864,-1.2016406940105855e-06,3.775259349559322e-07,9.024025415804715e-10
1668680995.471691,82713,1668680995,471568215,,0.046305538186708295,-0.09816666254307999,-0.02336223935594842,-1.241981750383812e-06,3.9213629429366015e-07,9.493322100651014e-10
1668680995.4795642,82714,1668680995,479454580,,0.04747940252553226,-0.09950500906828744,-0.024024238777106244,-1.2829281492032383e-06,4.070097831499961e-07,9.991423799426968e-10
1668680995.4878373,82715,1668680995,487714964,,0.04865777373521556,-0.10060358942870389,-0.024544399513754398,-1.3213092698757508e-06,4.210621605163327e-07,1.0487732349240275e-09
1668680995.4958138,82716,1668680995,495587237,,0.04993632725121604,-0.10161117386699166,-0.025068241329765296,-1.3630301521549634e-06,4.3631420870975796e-07,1.1041083880503066e-09
1668680995.5035398,82717,1668680995,503371450,,0.05112228469156836,-0.10261478029696419,-0.025574405754456485,-1.400871085613072e-06,4.5029797140659286e-07,1.1579338599077005e-09
1668680995.511832,82718,1668680995,511632612,,0.05221082405882436,-0.10344741488356538,-0.025989680342511805,-1.4322875930301154e-06,4.621391508693312e-07,1.2073566729720042e-09
1668680995.519723,82719,1668680995,519594303,,0.05321336503187244,-0.10420912505360388,-0.0263592449006187,-1.4589085445314634e-06,4.723895306825085e-07,1.2537554050506827e-09
1668680995.5280168,82720,1668680995,527762204,,0.054297692383882254,-0.10484954005979849,-0.026804940635915844,-1.4875770666387175e-06,4.833877163762726e-07,1.3043897628683965e-09
1668680995.5355866,82721,1668680995,535451254,,0.05537628702877654,-0.10536189990898115,-0.02724578886223127,-1.514242039145873e-06,4.937495161495137e-07,1.354877182668801e-09
1668680995.5438833,82722,1668680995,543760563,,0.05635938260772633,-0.10573828160403308,-0.027597668290786435,-1.5345915800876265e-06,5.019970219432776e-07,1.400166371734457e-09
1668680995.5516453,82723,1668680995,551521695,,0.057316996502452144,-0.10610574175031809,-0.027890616643049305,-1.5535032160778062e-06,5.097935162432649e-07,1.4455607266761206e-09
1668680995.559761,82724,1668680995,559617204,,0.057989937959303385,-0.10615691487506462,-0.027430128178962357,-1.554583941785516e-06,5.11525352540898e-07,1.4714084117795068e-09
1668680995.5678837,82725,1668680995,567743602,,0.058492203923185236,-0.10600702472696415,-0.026594425524946837,-1.5447276125866343e-06,5.095319294771278e-07,1.4848611229467679e-09
1668680995.5758512,82726,1668680995,575711106,,0.058756334424966965,-0.10596144843682138,-0.025495166838346402,-1.5248842435225136e-06,5.041253513930234e-07,1.4863293096301078e-09
1668680995.5835817,82727,1668680995,583390577,,0.0589204013347434,-0.10591366967800488,-0.024278892148772692,-1.5002431573096992e-06,4.970701183082057e-07,1.4816684545948533e-09
1668680995.5923088,82728,1668680995,591818718,,0.0590570705479342,-0.10577523398155256,-0.023110662084989745,-1.4731348661834245e-06,4.891582108864506e-07,1.473539318341821e-09
1668680995.599784,82729,1668680995,599492141,,0.059134753271383664,-0.10560089908859056,-0.021908063416713836,-1.4428507873157515e-06,4.801438752617161e-07,1.460836368538665e-09
1668680995.6078866,82730,1668680995,607747549,,0.059367661969953855,-0.10518280012522907,-0.021160102717419162,-1.4168074903929797e-06,4.7256272165188684e-07,1.4532328396210659e-09
1668680995.6155002,82731,1668680995,615263002,,0.059661153071359864,-0.10461875920769824,-0.02064254969998572,-1.3918243170019193e-06,4.653307056402302e-07,1.4467055053923872e-09
1668680995.623754,82732,1668680995,623613499,,0.059917351651138116,-0.10400880535990094,-0.020125087729307548,-1.3646273255452524e-06,4.573278842225255e-07,1.4368037593026628e-09
1668680995.632488,82733,1668680995,632251200,,0.06027127135690337,-0.10316073834709721,-0.019649417250002438,-1.339110222637165e-06,4.4988488170612587e-07,1.4288388250349726e-09
1668680995.6405518,82734,1668680995,640308351,,0.06074351751039173,-0.10225359328765851,-0.019106676218217156,-1.3185365510940718e-06,4.4412131976114683e-07,1.4275859938628344e-09
1668680995.648157,82735,1668680995,647998490,,0.06124852925117176,-0.10131256780305319,-0.018534339027405346,-1.299194491001499e-06,4.3877190288466733e-07,1.4280030491420348e-09
1668680995.6565626,82736,1668680995,656437454,,0.06180668548513239,-0.10031930627411671,-0.017855021758585707,-1.2817997821153214e-06,4.3408315861682284e-07,1.4312296348073517e-09
1668680995.6641064,82737,1668680995,663943039,,0.062237376312217464,-0.09943179245613999,-0.01713401246308761,-1.2599113832882647e-06,4.2785134266249206e-07,1.4277530269168892e-09
1668680995.6725368,82738,1668680995,672322540,,0.06261741710070402,-0.09853607530356187,-0.01643622441021411,-1.2357140417656402e-06,4.2081916323995217e-07,1.420577433464132e-09
1668680995.6801307,82739,1668680995,679985167,,0.06291501319016068,-0.0976917449499884,-0.015729477159636462,-1.2085046202218487e-06,4.127428575636388e-07,1.408450994722088e-09
1668680995.6879091,82740,1668680995,687764851,,0.0632295680262923,-0.0969339419816014,-0.01512422818486954,-1.1833610489892952e-06,4.053579617424759e-07,1.399117655065396e-09
1668680995.6954606,82741,1668680995,695291207,,0.06353259024043859,-0.09621315555839788,-0.014577689261895477,-1.1583138058695458e-06,3.979922599795481e-07,1.3895849748646327e-09
1668680995.703677,82742,1668680995,703551713,,0.06379411497192258,-0.09547853616189601,-0.014045593286799652,-1.13135363172907e-06,3.8995749067783497e-07,1.376612435155522e-09
1668680995.7116451,82743,1668680995,711473357,,0.0640861129513502,-0.09478981765646612,-0.013466181501803084,-1.1065561579233843e-06,3.8264736609838756e-07,1.3667330878153194e-09
1668680995.7197256,82744,1668680995,719615606,,0.06429529412758789,-0.09409161914232396,-0.012899299467642381,-1.0780037622587935e-06,3.7403719432404364e-07,1.3502691464939431e-09
1668680995.7277627,82745,1668680995,727629663,,0.06444798048798257,-0.09338466863429203,-0.012348202291009842,-1.0469795237687263e-06,3.6456184642017636e-07,1.329112958581291e-09
1668680995.7359226,82746,1668680995,735653509,,0.06457080254207491,-0.09246159364209157,-0.011633722547075355,-1.0122970634646438e-06,3.538117402412423e-07,1.3010628685528047e-09
1668680995.7449472,82747,1668680995,744529506,,0.06479198725185946,-0.09127312111321997,-0.010818419164750931,-9.79339436328456e-07,3.4362664715808025e-07,1.2751668887478473e-09
1668680995.7523184,82748,1668680995,752158925,,0.06497814946417159,-0.09011907234368767,-0.010046359395159772,-9.455723839154641e-07,3.3314027032263147e-07,1.2470989518842401e-09
1668680995.7599106,82749,1668680995,759668398,,0.06519889332016172,-0.08885287420682399,-0.009244576675033991,-9.124624445821334e-07,3.2285405271014617e-07,1.2193999698872915e-09
1668680995.7676415,82750,1668680995,767539975,,0.06524740909806714,-0.08762675874875145,-0.008278485229228902,-8.724642182515816e-07,3.101831450528364e-07,1.178547565094945e-09
1668680995.7760143,82751,1668680995,775888800,,0.06520228743119962,-0.08644283704807051,-0.0072618468889255995,-8.292843449307814e-07,2.9638931373218366e-07,1.1308110559049567e-09
1668680995.7835424,82752,1668680995,783321483,,0.06505455801969992,-0.08542017022979537,-0.006321915448372106,-7.839498323864314e-07,2.818206348430448e-07,1.0778616610362945e-09
1668680995.7917972,82753,1668680995,791589393,,0.06490238523781527,-0.0844315446014525,-0.005443935665810508,-7.394225576097058e-07,2.674896503246024e-07,1.02507288768372e-09
1668680995.7999232,82754,1668680995,799785876,,0.0647632566826666,-0.08357330503786982,-0.004705848604716146,-6.975052840942119e-07,2.5401528909842555e-07,9.758965857642465e-10
1668680995.8077843,82755,1668680995,807688763,,0.06462881808996959,-0.08279177117331807,-0.004059147430280117,-6.571662448159182e-07,2.4104704223881085e-07,9.28533555599742e-10
1668680995.8155954,82756,1668680995,815434217,,0.06463467116455726,-0.0822478020578829,-0.0035507884511832566,-6.25949078295854e-07,2.311727335013898e-07,8.976460269538578e-10
1668680995.8238113,82757,1668680995,823672509,,0.0646261586339317,-0.08170720700183876,-0.0030756408825128026,-5.944547855958214e-07,2.211809420637513e-07,8.654802291507835e-10
1668680995.831703,82758,1668680995,831589377,,0.06482523131526426,-0.08112187947299362,-0.0027692394504129077,-5.717201739226588e-07,2.1416932407397615e-07,8.498488579533614e-10
1668680995.8397307,82759,1668680995,839570152,,0.06511125287442539,-0.08052019145150466,-0.0025538201515142144,-5.527426974908734e-07,2.0843282771704913e-07,8.413357233116869e-10
1668680995.847952,82760,1668680995,847763511,,0.06548386647643713,-0.07993558661356683,-0.002373344452522674,-5.378202544439013e-07,2.0407776440446723e-07,8.40780708943889e-10
1668680995.855534,82761,1668680995,855404861,,0.06587803930868832,-0.07936561501917415,-0.0022144849679210515,-5.24097812947856e-07,2.0012978288203725e-07,8.426214309631419e-10
1668680995.8635533,82762,1668680995,863430482,,0.06622648713099345,-0.078807695046385,-0.0020638507343289946,-5.086461706286984e-07,1.9558583874614704e-07,8.408939933257642e-10
1668680995.8719769,82763,1668680995,871765065,,0.0665065177132839,-0.07820969879897229,-0.0019052958410175802,-4.899642508275149e-07,1.899291804203715e-07,8.323521455411154e-10
1668680995.8805363,82764,1668680995,880330228,,0.06672246235735797,-0.0775725434334987,-0.0017440753697614455,-4.6829134813094683e-07,1.8323803276966422e-07,8.172795773475627e-10
1668680995.8881743,82765,1668680995,887992276,,0.06689195231420958,-0.07692712915003426,-0.001586105494218638,-4.447480477833823e-07,1.7589306156506543e-07,7.978539773301208e-10
1668680995.8957345,82766,1668680995,895612489,,0.06687299070605969,-0.07641344000782985,-0.0014012949244955537,-4.14722800254016e-07,1.663106937942714e-07,7.640416216370127e-10
1668680995.9033737,82767,1668680995,903272703,,0.06669770689578154,-0.07602820358247911,-0.001200321419937655,-3.796582363846737e-07,1.549779923980428e-07,7.185396305731118e-10
1668680995.9123702,82768,1668680995,912182792,,0.06652220271468759,-0.07564788232347545,-0.0010128816202384166,-3.4502743998432363e-07,1.4376592049822334e-07,6.730004470378859e-10
