Time,header.seq,header.stamp.secs,header.stamp.nsecs,header.frame_id,pose.position.x,pose.position.y,pose.position.z,pose.orientation.x,pose.orientation.y,pose.orientation.z,pose.orientation.w
1668680993.2963514,82441,1668680993,296230421,,-0.09879836296790669,-0.6160097984665004,0.07819229671854336,0.9955612195040755,0.09352316358626583,-0.004347426170608699,0.009611242274837315
1668680993.303899,82442,1668680993,303760519,,-0.09879842483207131,-0.6160097984600457,0.07819229671841581,0.9955612194974582,0.09352316359904443,-0.004347426919067525,0.00961124249738616
1668680993.3126206,82443,1668680993,312504394,,-0.09879848132601497,-0.6160097984537705,0.07819229671829096,0.9955612194904058,0.09352316361193441,-0.0043474276831504165,0.009611242756866154
1668680993.320562,82444,1668680993,320378891,,-0.098798532762618,-0.6160097984476722,0.07819229671816924,0.9955612194829222,0.09352316362493338,-0.004347428462635429,0.009611243052951045
1668680993.328417,82445,1668680993,328291601,,-0.09879857944001502,-0.6160097984417495,0.07819229671805031,0.9955612194750123,0.09352316363803884,-0.004347429257300849,0.009611243385312624
1668680993.335661,82446,1668680993,335552748,,-0.09879862164217228,-0.6160097984359995,0.07819229671793437,0.9955612194666803,0.09352316365124796,-0.0043474300669242355,0.009611243753620227
1668680993.3435233,82447,1668680993,343409689,,-0.09879865963944627,-0.61600979843042,0.07819229671782145,0.9955612194579306,0.09352316366455853,-0.004347430891283331,0.009611244157541637
1668680993.3517041,82448,1668680993,351568134,,-0.09879869368912653,-0.6160097984250087,0.07819229671771144,0.9955612194487676,0.09352316367796802,-0.004347431730155667,0.009611244596742478
1668680993.3652604,82449,1668680993,364941728,,-0.09879872403596032,-0.6160097984197627,0.07819229671760443,0.9955612194391958,0.09352316369147376,-0.004347432583318778,0.009611245070886497
1668680993.37238,82450,1668680993,371994466,,-0.09879875091266048,-0.6160097984146792,0.07819229671750022,0.9955612194292197,0.09352316370507338,-0.004347433450549965,0.009611245579635642
1668680993.3767507,82451,1668680993,376426767,,-0.09879877454039772,-0.6160097984097554,0.07819229671739873,0.9955612194188438,0.09352316371876448,-0.004347434331626372,0.009611246122650047
1668680993.384568,82452,1668680993,384410852,,-0.09879879512927661,-0.6160097984049885,0.07819229671730003,0.9955612194080725,0.09352316373254445,-0.00434743522632571,0.00961124669958867
1668680993.3917828,82453,1668680993,391675440,,-0.09879881287879445,-0.6160097984003753,0.07819229671720418,0.9955612193969103,0.09352316374641075,-0.004347436134425181,0.009611247310108123
1668680993.3998747,82454,1668680993,399668523,,-0.09879882797828683,-0.6160097983959126,0.078192296717111,0.9955612193853619,0.09352316376036102,-0.004347437055702145,0.009611247953863864
1668680993.407618,82455,1668680993,407486273,,-0.09879884060735634,-0.6160097983915979,0.07819229671702058,0.9955612193734317,0.09352316377439283,-0.004347437989934223,0.009611248630509805
1668680993.4157248,82456,1668680993,415629359,,-0.09879885093628826,-0.6160097983874271,0.07819229671693266,0.9955612193611243,0.0935231637885039,-0.004347438936898889,0.009611249339698143
1668680993.4237626,82457,1668680993,423533921,,-0.09879885912645008,-0.6160097983833978,0.07819229671684744,0.9955612193484444,0.09352316380269136,-0.004347439896374007,0.00961125008108
1668680993.4317975,82458,1668680993,431689729,,-0.09879886533067746,-0.6160097983795062,0.07819229671676498,0.9955612193353963,0.09352316381695315,-0.00434744086813748,0.009611250854305035
1668680993.4397411,82459,1668680993,439594163,,-0.09879886969364823,-0.6160097983757494,0.07819229671668493,0.9955612193219847,0.09352316383128673,-0.004347441851967398,0.00961125165902141
1668680993.4478142,82460,1668680993,447656404,,-0.09879887235224026,-0.6160097983721242,0.07819229671660737,0.9955612193082144,0.09352316384568979,-0.0043474428476419184,0.009611252494876028
1668680993.455328,82461,1668680993,455234033,,-0.0987988734358786,-0.6160097983686271,0.07819229671653236,0.9955612192940897,0.09352316386015959,-0.0043474438549397955,0.009611253361515375
1668680993.463615,82462,1668680993,463489260,,-0.09879887306686835,-0.6160097983652553,0.0781922967164594,0.9955612192796155,0.09352316387469428,-0.004347444873639724,0.009611254258583767
1668680993.4718168,82463,1668680993,471659956,,-0.09879887136071674,-0.616009798362005,0.07819229671638919,0.9955612192647962,0.09352316388929105,-0.004347445903520878,0.009611255185724815
1668680993.4800656,82464,1668680993,479872586,,-0.09879886842644192,-0.6160097983588733,0.07819229671632097,0.9955612192496366,0.09352316390394778,-0.004347446944362765,0.009611256142581485
1668680993.487765,82465,1668680993,487597734,,-0.09879886436687028,-0.6160097983558569,0.07819229671625506,0.9955612192341412,0.09352316391866207,-0.0043474479959450365,0.009611257128795245
1668680993.4955523,82466,1668680993,495326672,,-0.09879885927892401,-0.6160097983529528,0.07819229671619152,0.9955612192183149,0.09352316393343141,-0.004347449058047941,0.009611258144007042
1668680993.504001,82467,1668680993,503851189,,-0.0987988532538951,-0.6160097983501579,0.07819229671612998,0.9955612192021619,0.09352316394825373,-0.004347450130452065,0.00961125918785679
1668680993.5122495,82468,1668680993,512105387,,-0.09879884637771093,-0.6160097983474686,0.07819229671607068,0.9955612191856873,0.09352316396312652,-0.004347451212938304,0.009611260259983543
1668680993.5197084,82469,1668680993,519573346,,-0.09879883873118851,-0.6160097983448823,0.0781922967160133,0.9955612191688956,0.09352316397804748,-0.004347452305288091,0.009611261360025736
1668680993.5279129,82470,1668680993,527772570,,-0.09879883039027902,-0.6160097983423961,0.07819229671595793,0.9955612191517914,0.09352316399301426,-0.004347453407283379,0.00961126248762097
1668680993.5354025,82471,1668680993,535280279,,-0.09879882142630152,-0.6160097983400065,0.07819229671590437,0.9955612191343796,0.09352316400802492,-0.004347454518706423,0.009611263642406121
1668680993.544057,82472,1668680993,543919751,,-0.09879881190616954,-0.6160097983377109,0.07819229671585276,0.9955612191166645,0.09352316402307703,-0.004347455639340333,0.009611264824017762
1668680993.5516477,82473,1668680993,551462126,,-0.0987988018926063,-0.6160097983355063,0.07819229671580316,0.9955612190986509,0.09352316403816849,-0.004347456768968522,0.00961126603209174
1668680993.559726,82474,1668680993,559615860,,-0.09879879144435277,-0.6160097983333901,0.0781922967157552,0.9955612190803438,0.09352316405329651,-0.004347457907374996,0.009611267266263372
1668680993.5677388,82475,1668680993,567597966,,-0.09879878061636568,-0.6160097983313589,0.0781922967157091,0.9955612190617474,0.0935231640684592,-0.004347459054344425,0.009611268526167614
1668680993.5754895,82476,1668680993,575331309,,-0.09879876946000848,-0.6160097983294106,0.07819229671566465,0.9955612190428668,0.09352316408365446,-0.004347460209661942,0.009611269811439026
1668680993.5837219,82477,1668680993,583587601,,-0.09879875802323419,-0.6160097983275423,0.07819229671562196,0.9955612190237063,0.09352316409887997,-0.0043474613731134875,0.00961127112171173
1668680993.5917332,82478,1668680993,591596519,,-0.09879874635075987,-0.6160097983257513,0.07819229671558081,0.9955612190042707,0.09352316411413353,-0.0043474625444855294,0.00961127245661952
1668680993.5999224,82479,1668680993,599773618,,-0.09879873448423442,-0.616009798324035,0.0781922967155411,0.995561218984565,0.09352316412941294,-0.004347463723565285,0.00961127381579615
1668680993.607658,82480,1668680993,607566627,,-0.09879872246239851,-0.6160097983223913,0.07819229671550307,0.9955612189645934,0.09352316414471618,-0.004347464910140731,0.009611275198875072
1668680993.615389,82481,1668680993,615276376,,-0.09879871032123816,-0.616009798320817,0.07819229671546636,0.9955612189443607,0.093523164160041,-0.004347466104000438,0.009611276605489251
1668680993.623776,82482,1668680993,623648476,,-0.09879869809413169,-0.6160097983193102,0.0781922967154312,0.9955612189238717,0.0935231641753852,-0.004347467304933863,0.00961127803527236
1668680993.6317935,82483,1668680993,631672038,,-0.09879868581198897,-0.6160097983178683,0.07819229671539729,0.9955612189031309,0.09352316419074665,-0.004347468512731018,0.009611279487857088
1668680993.6398683,82484,1668680993,639752711,,-0.09879867350338682,-0.6160097983164896,0.07819229671536487,0.9955612188821431,0.09352316420612349,-0.004347469727183042,0.009611280962876776
1668680993.6476972,82485,1668680993,647524840,,-0.09879866119469595,-0.6160097983151708,0.07819229671533351,0.9955612188609128,0.09352316422151327,-0.0043474709480814736,0.009611282459964395
1668680993.6556597,82486,1668680993,655533193,,-0.09879864891020343,-0.6160097983139108,0.0781922967153038,0.9955612188394446,0.09352316423691416,-0.004347472175218923,0.00961128397875348
1668680993.6637893,82487,1668680993,663681991,,-0.0987986366722303,-0.6160097983127066,0.07819229671527489,0.9955612188177434,0.09352316425232403,-0.0043474734083887925,0.009611285518877029
1668680993.6715922,82488,1668680993,671464232,,-0.09879862450124115,-0.6160097983115566,0.07819229671524743,0.9955612187958137,0.09352316426774085,-0.00434747464738551,0.009611287079969034
1668680993.6798217,82489,1668680993,679647357,,-0.09879861241595218,-0.6160097983104591,0.07819229671522115,0.9955612187736599,0.09352316428316283,-0.004347475892004043,0.009611288661662944
1668680993.6876657,82490,1668680993,687558556,,-0.09879860043343171,-0.6160097983094113,0.07819229671519583,0.9955612187512869,0.0935231642985874,-0.004347477142040672,0.009611290263592953
1668680993.6958048,82491,1668680993,695489804,,-0.09879858856919617,-0.6160097983084117,0.07819229671517156,0.9955612187286992,0.09352316431401292,-0.004347478397292076,0.009611291885393135
1668680993.7036176,82492,1668680993,703490849,,-0.09879857683730295,-0.6160097983074592,0.07819229671514835,0.9955612187059014,0.09352316432943751,-0.004347479657556559,0.009611293526698579
1668680993.7120845,82493,1668680993,711874169,,-0.09879856525043791,-0.6160097983065507,0.07819229671512601,0.9955612186828982,0.09352316434485919,-0.004347480922632781,0.009611295187144299
1668680993.7198493,82494,1668680993,719650735,,-0.09879855381999815,-0.6160097983056856,0.07819229671510469,0.9955612186596939,0.09352316436027572,-0.004347482192320727,0.009611296866365773
1668680993.7276175,82495,1668680993,727516314,,-0.09879854255617175,-0.616009798304861,0.07819229671508429,0.9955612186362933,0.09352316437568531,-0.004347483466421234,0.009611298563999091
1668680993.735791,82496,1668680993,735638910,,-0.09879853146801303,-0.6160097983040767,0.07819229671506507,0.9955612186127009,0.0935231643910862,-0.0043474847447362575,0.009611300279681016
1668680993.7432997,82497,1668680993,743158354,,-0.09879852056351457,-0.61600979830333,0.07819229671504636,0.9955612185889211,0.09352316440647644,-0.004347486027068651,0.009611302013048254
1668680993.7517366,82498,1668680993,751626114,,-0.09879850984967513,-0.6160097983026201,0.07819229671502863,0.9955612185649587,0.09352316442185389,-0.004347487313222574,0.009611303763739235
1668680993.7598233,82499,1668680993,759695596,,-0.09879849933256409,-0.616009798301945,0.07819229671501164,0.995561218540818,0.09352316443721705,-0.004347488603002797,0.009611305531391834
1668680993.7680094,82500,1668680993,767771852,,-0.09879848901738361,-0.6160097983013035,0.07819229671499557,0.9955612185165035,0.09352316445256363,-0.004347489896215639,0.009611307315645485
1668680993.775815,82501,1668680993,775708259,,-0.09879847890852606,-0.6160097983006941,0.07819229671498018,0.9955612184920198,0.0935231644678922,-0.004347491192668213,0.009611309116139798
1668680993.783366,82502,1668680993,783209339,,-0.0987984690096301,-0.6160097983001156,0.07819229671496543,0.9955612184673716,0.0935231644832006,-0.004347492492169021,0.0096113109325157
1668680993.7919698,82503,1668680993,791745735,,-0.09879845932363267,-0.6160097982995667,0.07819229671495131,0.9955612184425627,0.09352316449848723,-0.004347493794527403,0.00961131276441439
1668680993.7998323,82504,1668680993,799691511,,-0.09879844985281844,-0.6160097982990461,0.07819229671493795,0.9955612184175981,0.09352316451375027,-0.004347495099554085,0.009611314611478584
1668680993.8079915,82505,1668680993,807834883,,-0.09879844059886705,-0.6160097982985525,0.07819229671492525,0.9955612183924821,0.09352316452898819,-0.0043474964070607264,0.009611316473351103
1668680993.815658,82506,1668680993,815463192,,-0.09879843156289808,-0.6160097982980848,0.07819229671491298,0.9955612183672191,0.09352316454419903,-0.004347497716860216,0.009611318349676235
1668680993.8243494,82507,1668680993,824184584,,-0.09879842274551245,-0.616009798297642,0.07819229671490151,0.9955612183418135,0.09352316455938099,-0.004347499028766944,0.009611320240099225
1668680993.8323934,82508,1668680993,832241943,,-0.09879841414683223,-0.6160097982972228,0.07819229671489045,0.9955612183162696,0.09352316457453237,-0.004347500342596113,0.009611322144266113
1668680993.8402712,82509,1668680993,840108990,,-0.09879840576653867,-0.6160097982968263,0.07819229671487997,0.9955612182905921,0.09352316458965153,-0.004347501658164411,0.00961132406182419
1668680993.8484764,82510,1668680993,848286783,,-0.0987983976039071,-0.6160097982964515,0.07819229671487006,0.9955612182647848,0.09352316460473675,-0.004347502975289438,0.0096113259924216
1668680993.855856,82511,1668680993,855751412,,-0.09879838965784121,-0.6160097982960973,0.07819229671486057,0.9955612182388526,0.09352316461978638,-0.004347504293790376,0.009611327935707835
1668680993.8638873,82512,1668680993,863717661,,-0.09879838192690373,-0.6160097982957629,0.07819229671485146,0.9955612182127994,0.09352316463479865,-0.004347505613487567,0.009611329891333361
1668680993.8717635,82513,1668680993,871594721,,-0.09879837440934676,-0.6160097982954473,0.07819229671484303,0.9955612181866296,0.09352316464977223,-0.004347506934202648,0.009611331858950132
1668680993.8799593,82514,1668680993,879821921,,-0.09879836710313925,-0.6160097982951497,0.07819229671483502,0.9955612181603475,0.09352316466470552,-0.0043475082557582305,0.009611333838210827
1668680993.8877277,82515,1668680993,887626252,,-0.09879836000599442,-0.6160097982948693,0.07819229671482725,0.9955612181339574,0.09352316467959655,-0.004347509577978761,0.009611335828769971
1668680993.8954976,82516,1668680993,895336375,,-0.09879835311539321,-0.6160097982946051,0.07819229671482013,0.9955612181074635,0.09352316469444412,-0.004347510900689599,0.009611337830283048
1668680993.9037821,82517,1668680993,903660755,,-0.09879834642860832,-0.6160097982943564,0.0781922967148133,0.9955612180808701,0.09352316470924642,-0.004347512223717591,0.009611339842406934
1668680993.911692,82518,1668680993,911559675,,-0.09879833994272592,-0.6160097982941226,0.07819229671480679,0.9955612180541812,0.09352316472400193,-0.004347513546890913,0.009611341864799861
1668680993.9198632,82519,1668680993,919724196,,-0.0987983336546662,-0.6160097982939032,0.07819229671480063,0.995561218027401,0.0935231647387093,-0.004347514870038927,0.009611343897121349
1668680993.928181,82520,1668680993,928029532,,-0.09879832756120219,-0.6160097982936972,0.07819229671479484,0.9955612180005339,0.0935231647533669,-0.004347516192992434,0.009611345939032423
1668680993.9358478,82521,1668680993,935708863,,-0.09879832165897837,-0.6160097982935036,0.07819229671478946,0.9955612179735838,0.0935231647679732,-0.004347517515583817,0.009611347990196008
1668680993.9442854,82522,1668680993,943891819,,-0.09879831594452666,-0.6160097982933227,0.07819229671478455,0.9955612179465548,0.09352316478252722,-0.004347518837646632,0.009611350050275882
1668680993.9519494,82523,1668680993,951784953,,-0.0987983104142833,-0.6160097982931528,0.0781922967147796,0.9955612179194512,0.09352316479702691,-0.004347520159015713,0.009611352118937502
1668680993.9600606,82524,1668680993,959814151,,-0.09879830506460197,-0.616009798292994,0.07819229671477496,0.9955612178922768,0.09352316481147117,-0.0043475214795274855,0.009611354195847958
1668680993.9679353,82525,1668680993,967781328,,-0.09879829989176886,-0.616009798292846,0.07819229671477063,0.9955612178650358,0.09352316482585843,-0.004347522799019724,0.009611356280676206
1668680993.9757447,82526,1668680993,975640690,,-0.0987982948920145,-0.6160097982927075,0.07819229671476671,0.9955612178377322,0.09352316484018712,-0.004347524117331659,0.009611358373092306
1668680993.9833722,82527,1668680993,983216885,,-0.09879829006152578,-0.6160097982925784,0.07819229671476295,0.99556121781037,0.09352316485445619,-0.004347525434303925,0.009611360472768272
1668680993.991784,82528,1668680993,991606433,,-0.09879828539645717,-0.6160097982924585,0.0781922967147593,0.995561217782953,0.09352316486866438,-0.004347526749778493,0.00961136257937776
1668680993.9996734,82529,1668680993,999557514,,-0.0987982808929405,-0.6160097982923465,0.078192296714756,0.9955612177554853,0.09352316488281008,-0.004347528063598938,0.00961136469259607
1668680994.007664,82530,1668680994,7536538,,-0.0987982765470948,-0.6160097982922429,0.07819229671475282,0.995561217727971,0.09352316489689205,-0.004347529375610214,0.009611366812100402
1668680994.0157697,82531,1668680994,15587195,,-0.09879827235503454,-0.616009798292147,0.07819229671474995,0.9955612177004135,0.09352316491090898,-0.0043475306856587915,0.009611368937569515
1668680994.0240068,82532,1668680994,23888905,,-0.09879826831287782,-0.6160097982920576,0.07819229671474721,0.9955612176728172,0.09352316492485946,-0.004347531993592473,0.009611371068683691
1668680994.0324526,82533,1668680994,32319351,,-0.09879826441675366,-0.6160097982919757,0.07819229671474469,0.9955612176451855,0.0935231649387427,-0.004347533299260706,0.009611373205125845
1668680994.040481,82534,1668680994,40271742,,-0.09879826066280917,-0.6160097982918995,0.0781922967147422,0.9955612176175225,0.09352316495255716,-0.004347534602514193,0.009611375346579855
1668680994.0483,82535,1668680994,48166558,,-0.09879825704721529,-0.6160097982918298,0.07819229671473998,0.9955612175898318,0.09352316496630164,-0.004347535903205379,0.00961137749273194
1668680994.0564203,82536,1668680994,56228862,,-0.09879825356617278,-0.6160097982917659,0.07819229671473796,0.9955612175621175,0.09352316497997482,-0.004347537201188222,0.009611379643270293
1668680994.063697,82537,1668680994,63499950,,-0.09879825021591666,-0.6160097982917071,0.07819229671473595,0.995561217534383,0.09352316499357548,-0.004347538496317869,0.00961138179788453
1668680994.071823,82538,1668680994,71701956,,-0.09879824699272212,-0.6160097982916533,0.07819229671473428,0.995561217506632,0.09352316500710264,-0.004347539788451403,0.009611383956266978
1668680994.079737,82539,1668680994,79565915,,-0.09879824389290735,-0.6160097982916043,0.07819229671473268,0.9955612174788683,0.093523165020555,-0.004347541077446974,0.00961138611811087
1668680994.0877712,82540,1668680994,87637250,,-0.09879824091283862,-0.6160097982915599,0.0781922967147312,0.9955612174510956,0.09352316503393153,-0.004347542363164695,0.00961138828311243
1668680994.0954916,82541,1668680994,95336628,,-0.09879823804893269,-0.6160097982915197,0.07819229671472984,0.9955612174233176,0.0935231650472311,-0.004347543645465938,0.0096113904509694
1668680994.1038249,82542,1668680994,103558959,,-0.09879823529766064,-0.6160097982914835,0.07819229671472874,0.9955612173955376,0.09352316506045275,-0.004347544924213726,0.009611392621381611
1668680994.1118157,82543,1668680994,111572822,,-0.09879823265554989,-0.6160097982914509,0.07819229671472745,0.9955612173677595,0.09352316507359526,-0.004347546199272375,0.009611394794050791
1668680994.1198776,82544,1668680994,119680578,,-0.09879823011918726,-0.6160097982914218,0.07819229671472638,0.9955612173399865,0.09352316508665763,-0.004347547470508153,0.009611396968681176
1668680994.1276646,82545,1668680994,127529330,,-0.09879822768522017,-0.616009798291396,0.07819229671472522,0.9955612173122225,0.0935231650996388,-0.004347548737788591,0.009611399144978742
1668680994.135592,82546,1668680994,135433911,,-0.09879822535035966,-0.6160097982913734,0.07819229671472443,0.9955612172844707,0.09352316511253769,-0.004347550000982975,0.009611401322651782
1668680994.1437564,82547,1668680994,143639914,,-0.09879822184979731,-0.616009799777621,0.0781922967147236,0.9955612172567345,0.09352316512535347,-0.004347551259961773,0.009611403501410444
1668680994.1525548,82548,1668680994,152408122,,-0.09879821223623926,-0.6160098085748098,0.07819229671472286,0.9955612172290176,0.09352316513808491,-0.004347552514597537,0.009611405680967331
1668680994.159696,82549,1668680994,159578034,,-0.09879818691915065,-0.6160098359778776,0.07819229671472173,0.9955612172013233,0.09352316515073118,-0.004347553764764156,0.009611407861037386
1668680994.1678498,82550,1668680994,167740285,,-0.09879813205075648,-0.6160098982972769,0.07819229671471868,0.9955612171736549,0.09352316516329154,-0.004347555010336717,0.009611410041337394
1668680994.1753614,82551,1668680994,175264468,,-0.09879802989004406,-0.6160100164301388,0.0781922967147081,0.9955612171460158,0.09352316517576478,-0.004347556251192285,0.009611412221586584
1668680994.1836958,82552,1668680994,183594172,,-0.09879785914577954,-0.6160102154561476,0.078192296714678,0.995561217118409,0.09352316518815011,-0.004347557487209625,0.009611414401506903
1668680994.1916487,82553,1668680994,191515658,,-0.09879759529952573,-0.6160105242569746,0.07819229671460397,0.9955612170908382,0.09352316520044643,-0.0043475587182688685,0.009611416580822471
1668680994.19969,82554,1668680994,199537737,,-0.09879721090960135,-0.6160109751581562,0.07819229671444416,0.9955612170633065,0.09352316521265312,-0.00434755994425209,0.009611418759260549
1668680994.2077758,82555,1668680994,207645661,,-0.09879667589688793,-0.61601160359235,0.0781922967141309,0.995561217035817,0.09352316522476922,-0.004347561165043365,0.009611420936551129
1668680994.2156005,82556,1668680994,215495262,,-0.0987959578133559,-0.6160124477829441,0.0781922967135627,0.995561217008373,0.09352316523679406,-0.004347562380528683,0.009611423112427742
1668680994.223586,82557,1668680994,223486743,,-0.09879502209414517,-0.6160135484470384,0.07819229671259505,0.9955612169809774,0.09352316524872656,-0.004347563590596178,0.009611425286626969
1668680994.23191,82558,1668680994,231778963,,-0.09879383229400274,-0.6160149485168473,0.07819229671102995,0.9955612169536333,0.09352316526056613,-0.004347564795136296,0.009611427458890005
1668680994.2397141,82559,1668680994,239584483,,-0.09879235030884766,-0.6160166928786212,0.07819229670860654,0.9955612169263439,0.09352316527231179,-0.004347565994041976,0.009611429628962026
1668680994.2489924,82560,1668680994,248775886,,-0.09879053658320279,-0.6160188281282186,0.07819229670498984,0.995561216899112,0.09352316528396286,-0.004347567187208562,0.009611431796592665
1668680994.2563598,82561,1668680994,256209681,,-0.09878835030419889,-0.6160214023424921,0.07819229669976106,0.9955612168719404,0.09352316529551867,-0.004347568374534605,0.009611433961536912
1668680994.263575,82562,1668680994,263418649,,-0.09878574958283332,-0.616024464865692,0.07819229669240751,0.9955612168448321,0.09352316530697831,-0.004347569555921387,0.0096114361235551
1668680994.271868,82563,1668680994,271677828,,-0.09878269162312928,-0.6160280661101187,0.07819229668231309,0.9955612168177899,0.09352316531834107,-0.004347570731273598,0.009611438282413984
1668680994.2800164,82564,1668680994,279889325,,-0.09877913287982261,-0.6160322573702985,0.07819229666874944,0.995561216790816,0.09352316532960628,-0.004347571900498889,0.009611440437885836
1668680994.2879179,82565,1668680994,287768307,,-0.09877502920516873,-0.6160370906499694,0.07819229665086819,0.9955612167639134,0.09352316534077333,-0.004347573063509078,0.009611442589750448
1668680994.2954035,82566,1668680994,295269278,,-0.09877033598544208,-0.6160426185012159,0.07819229662769389,0.9955612167370845,0.09352316535184146,-0.004347574220219147,0.009611444737794414
1668680994.3048913,82567,1668680994,303621276,,-0.09876500826767334,-0.6160488938751048,0.07819229659811844,0.9955612167103317,0.0935231653628101,-0.0043475753705485036,0.009611446881812013
1668680994.3124993,82568,1668680994,312286386,,-0.0987590008771452,-0.6160559699832057,0.07819229656089605,0.9955612166836573,0.09352316537367819,-0.004347576514420387,0.009611449021605727
1668680994.3199623,82569,1668680994,319805734,,-0.09875226852614619,-0.6160639001694168,0.07819229651463962,0.9955612166570634,0.09352316538444536,-0.004347577651762292,0.009611451156985983
1668680994.3278804,82570,1668680994,327745108,,-0.09874476591446,-0.6160727377915236,0.0781922964578191,0.9955612166305524,0.09352316539511112,-0.004347578782506323,0.009611453287772636
1668680994.3354654,82571,1668680994,335337905,,-0.0987364478220428,-0.6160825361119624,0.07819229638875945,0.995561216604126,0.09352316540567449,-0.004347579906589139,0.00961145541379394
1668680994.344032,82572,1668680994,343900096,,-0.09872726919432621,-0.6160933481972712,0.07819229630564138,0.9955612165777861,0.093523165416135,-0.004347581023951932,0.009611457534887867
1668680994.3516276,82573,1668680994,351527961,,-0.09871718522055743,-0.6161052268257459,0.07819229620650292,0.9955612165515346,0.09352316542649218,-0.004347582134540885,0.009611459650901932
1668680994.3597765,82574,1668680994,359584409,,-0.09870615140557472,-0.6161182244028229,0.07819229608924184,0.9955612165253731,0.09352316543674524,-0.00434758323830707,0.009611461761693408
1668680994.3677127,82575,1668680994,367553224,,-0.09869412363539555,-0.6161323928837603,0.07819229595161926,0.9955612164993031,0.09352316544689347,-0.004347584335206527,0.00961146386712992
1668680994.375808,82576,1668680994,375702510,,-0.09868105823697282,-0.6161477837031761,0.07819229579126424,0.9955612164733261,0.09352316545693651,-0.00434758542520047,0.00961146596708923
1668680994.3834937,82577,1668680994,383393034,,-0.09866691203246893,-0.6161644477110513,0.07819229560568029,0.995561216447443,0.09352316546687373,-0.0043475865082552995,0.009611468061459334
1668680994.3918955,82578,1668680994,391736164,,-0.09865164238836749,-0.6161824351148075,0.07819229539225139,0.9955612164216555,0.09352316547670435,-0.004347587584342664,0.00961147015013921
1668680994.3998175,82579,1668680994,399645762,,-0.09863520725973661,-0.6162017954270929,0.0781922951482502,0.9955612163959644,0.09352316548642811,-0.004347588653439388,0.009611472233038357
1668680994.4084566,82580,1668680994,408239274,,-0.09861756522994089,-0.616222577418928,0.07819229487084582,0.9955612163703704,0.09352316549604424,-0.004347589715527575,0.009611474310076697
1668680994.415643,82581,1668680994,415524654,,-0.09859867554607878,-0.6162448290778803,0.0781922945571129,0.9955612163448747,0.09352316550555215,-0.0043475907705945414,0.009611476381185003
1668680994.4233363,82582,1668680994,423212847,,-0.09857849815041789,-0.6162685975709488,0.07819229420404236,0.9955612163194777,0.09352316551495163,-0.004347591818633184,0.009611478446305154
1668680994.4318018,82583,1668680994,431607031,,-0.09855699370807895,-0.6162939292118605,0.07819229380854982,0.9955612162941798,0.09352316552424177,-0.004347592859641265,0.009611480505389368
1668680994.4398117,82584,1668680994,439695694,,-0.09853412363121228,-0.6163208694324955,0.07819229336748665,0.9955612162689815,0.0935231655334223,-0.004347593893621976,0.009611482558400117
1668680994.4477026,82585,1668680994,447538413,,-0.09850985009989387,-0.6163494627581629,0.07819229287765207,0.995561216243883,0.09352316554249268,-0.004347594920583816,0.009611484605310949
1668680994.4557407,82586,1668680994,455519340,,-0.09848413607996138,-0.6163797527864825,0.07819229233580213,0.9955612162188848,0.09352316555145229,-0.0043475959405401,0.00961148664610563
1668680994.463666,82587,1668680994,463498006,,-0.09845694533799414,-0.6164117821696131,0.07819229173866277,0.9955612161939866,0.09352316556030063,-0.0043475969535093075,0.00961148868077817
1668680994.4716709,82588,1668680994,471506778,,-0.09842824245363468,-0.6164455925996087,0.07819229108294005,0.9955612161691884,0.09352316556903711,-0.004347597959514951,0.009611490709332541
1668680994.47967,82589,1668680994,479553446,,-0.09839799282943616,-0.6164812247966795,0.07819229036533189,0.9955612161444898,0.09352316557766142,-0.004347598958585384,0.009611492731783055
1668680994.4877334,82590,1668680994,487596627,,-0.09836616269841295,-0.6165187185001451,0.07819228958253895,0.9955612161198907,0.09352316558617302,-0.004347599950753835,0.009611494748153112
1668680994.495672,82591,1668680994,495566976,,-0.09833271912945832,-0.6165581124618926,0.0781922887312761,0.9955612160953905,0.09352316559457148,-0.0043476009360580185,0.009611496758475946
1668680994.5035603,82592,1668680994,503372152,,-0.09829763003079128,-0.6165994444421454,0.07819228780828258,0.9955612160709888,0.09352316560285634,-0.004347601914540253,0.009611498762793807
1668680994.5116038,82593,1668680994,511494848,,-0.09826086415157477,-0.6166427512073707,0.07819228681033376,0.9955612160466849,0.09352316561102714,-0.004347602886247543,0.009611500761158177
1668680994.519653,82594,1668680994,519548218,,-0.09822239108185284,-0.6166880685301589,0.07819228573425037,0.995561216022478,0.09352316561908333,-0.00434760385123076,0.009611502753628742
1668680994.5279493,82595,1668680994,527783740,,-0.09818218125093485,-0.6167354311909201,0.07819228457690867,0.9955612159983673,0.09352316562702487,-0.004347604809545342,0.009611504740273943
1668680994.5358412,82596,1668680994,535695291,,-0.09814020592435482,-0.6167848729812411,0.07819228333525023,0.9955612159743518,0.09352316563485101,-0.004347605761250474,0.009611506721170112
1668680994.5446043,82597,1668680994,544359516,,-0.09809643719952384,-0.6168364267087776,0.07819228200629084,0.9955612159504303,0.09352316564256154,-0.0043476067064092926,0.00961150869640122
1668680994.5517662,82598,1668680994,551601591,,-0.09805084800018596,-0.6168901242035344,0.0781922805871295,0.995561215926602,0.09352316565015582,-0.004347607645088687,0.009611510666058656
1668680994.5603814,82599,1668680994,560100905,,-0.09800341206978415,-0.6169459963254188,0.07819227907495585,0.9955612159028653,0.09352316565763366,-0.004347608577359047,0.009611512630241016
1668680994.5677326,82600,1668680994,567585794,,-0.09795410396383505,-0.6170040729729507,0.07819227746705806,0.9955612158792192,0.09352316566499472,-0.004347609503294226,0.009611514589053521
1668680994.575442,82601,1668680994,575297311,,-0.09790289904140505,-0.6170643830930119,0.07819227576083046,0.995561215855662,0.09352316567223873,-0.004347610422971379,0.009611516542607614
1668680994.5837245,82602,1668680994,583562249,,-0.09784977345577642,-0.6171269546915412,0.07819227395377952,0.9955612158321928,0.09352316567936507,-0.004347611336470649,0.009611518491021038
1668680994.5916128,82603,1668680994,591428098,,-0.09779470414438353,-0.6171918148450672,0.07819227204352965,0.9955612158088095,0.0935231656863737,-0.004347612243875035,0.009611520434416956
1668680994.5998316,82604,1668680994,599703597,,-0.09773766881809944,-0.6172589897130025,0.07819227002782914,0.9955612157855106,0.09352316569326441,-0.00434761314527047,0.00961152237292377
1668680994.607714,82605,1668680994,607583670,,-0.09767864594994291,-0.6173285045505948,0.07819226790455507,0.9955612157622948,0.0935231657000365,-0.004347614040745371,0.00961152430667512
1668680994.6152918,82606,1668680994,615170923,,-0.0976176147632738,-0.6174003837224749,0.07819226567171712,0.99556121573916,0.09352316570669036,-0.004347614930390726,0.009611526235809067
1668680994.6236835,82607,1668680994,623504340,,-0.09755455521954233,-0.6174746507167105,0.07819226332746179,0.9955612157161048,0.0935231657132251,-0.004347615814299568,0.009611528160467911
1668680994.631804,82608,1668680994,631604831,,-0.09748944800564788,-0.617551328159308,0.07819226087007476,0.995561215693127,0.09352316571964094,-0.004347616692567046,0.009611530080797659
1668680994.6396484,82609,1668680994,639510258,,-0.09742227452096712,-0.6176304378290874,0.0781922582979847,0.995561215670225,0.09352316572593766,-0.004347617565290314,0.009611531996947658
1668680994.6476848,82610,1668680994,647587364,,-0.09735301686409972,-0.6177120006728765,0.07819225560976509,0.995561215647397,0.09352316573211471,-0.0043476184325684005,0.009611533909070975
1668680994.6557243,82611,1668680994,655604958,,-0.09728165781938088,-0.6177960368209638,0.07819225280413522,0.995561215624641,0.09352316573817207,-0.004347619294501811,0.009611535817323016
1668680994.6634042,82612,1668680994,663303599,,-0.09720818084320693,-0.6178825656027599,0.0781922498799619,0.9955612156019548,0.09352316574410977,-0.00434762015119237,0.009611537721861504
1668680994.6720502,82613,1668680994,671761129,,-0.09713257005021263,-0.6179716055626151,0.07819224683625992,0.9955612155793366,0.09352316574992761,-0.0043476210027434264,0.009611539622846561
1668680994.6799304,82614,1668680994,679755695,,-0.09705481019934244,-0.6180631744757515,0.07819224367219259,0.9955612155567846,0.09352316575562551,-0.0043476218492593905,0.009611541520440107
1668680994.688091,82615,1668680994,687894890,,-0.09697488667984842,-0.6181572893642653,0.07819224038707122,0.9955612155342964,0.09352316576120327,-0.004347622690845724,0.00961154341480536
1668680994.6957533,82616,1668680994,695578271,,-0.096892785497249,-0.618253966513159,0.07819223698035421,0.9955612155118702,0.09352316576666102,-0.0043476235276085,0.009611545306106646
1668680994.7035983,82617,1668680994,703495601,,-0.09680849325928136,-0.6183532214863734,0.07819223345164658,0.9955612154895038,0.09352316577199841,-0.004347624359654911,0.009611547194508996
1668680994.711599,82618,1668680994,711459856,,-0.09672199716187088,-0.618455069142777,0.07819222980069798,0.9955612154671953,0.09352316577721564,-0.004347625187092222,0.00961154908017811
1668680994.7199762,82619,1668680994,719824154,,-0.09663328497514878,-0.6185595236520942,0.07819222602740124,0.9955612154449425,0.09352316578231276,-0.004347626010028337,0.00961155096327944
1668680994.7284524,82620,1668680994,728311766,,-0.09654234502953826,-0.6186665985107314,0.0781922221317907,0.9955612154227435,0.09352316578728972,-0.004347626828571678,0.009611552843979193
1668680994.7354615,82621,1668680994,735333163,,-0.09644916620193184,-0.6187763065574867,0.07819221811403898,0.9955612154005958,0.09352316579214652,-0.004347627642830239,0.009611554722442408
1668680994.743856,82622,1668680994,743711409,,-0.09635373790198036,-0.6188886599891136,0.07819221397445424,0.9955612153784976,0.09352316579688348,-0.004347628452912519,0.009611556598833539
1668680994.7517343,82623,1668680994,751555783,,-0.0962560500585117,-0.6190036703757191,0.0781922097134785,0.9955612153564471,0.09352316580150048,-0.004347629258926771,0.00961155847331637
1668680994.7602239,82624,1668680994,760108035,,-0.09615609310609366,-0.6191213486759787,0.07819220533168315,0.9955612153344419,0.09352316580599766,-0.004347630060980924,0.009611560346053176
1668680994.767773,82625,1668680994,767618149,,-0.09605385797175914,-0.619241705252148,0.07819220082976612,0.99556121531248,0.09352316581037531,-0.004347630859182726,0.009611562217205057
1668680994.7758324,82626,1668680994,775693311,,-0.09594933606190498,-0.6193647498848583,0.07819219620854839,0.9955612152905596,0.09352316581463346,-0.00434763165363942,0.00961156408693125
1668680994.7833905,82627,1668680994,783296942,,-0.09584251924937472,-0.6194904917876802,0.07819219146897001,0.9955612152686782,0.0935231658187725,-0.004347632444457523,0.009611565955389029
1668680994.7919233,82628,1668680994,791763389,,-0.09573339986074084,-0.6196189396214437,0.07819218661208625,0.9955612152468344,0.09352316582279246,-0.004347633231742985,0.00961156782273347
1668680994.7998617,82629,1668680994,799588988,,-0.09562197066379043,-0.619750101508306,0.07819218163906352,0.9955612152250259,0.09352316582669384,-0.004347634015601159,0.00961156968911711
1668680994.807836,82630,1668680994,807712699,,-0.09550822485522623,-0.6198839850455525,0.07819217655117545,0.9955612152032509,0.09352316583047662,-0.0043476347961363855,0.00961157155469015
1668680994.815547,82631,1668680994,815438404,,-0.09539215604858757,-0.6200205973191282,0.07819217134979918,0.9955612151815074,0.09352316583414139,-0.004347635573451887,0.009611573419600079
1668680994.824774,82632,1668680994,824575703,,-0.09527375826240149,-0.620159944916888,0.07819216603640913,0.9955612151597937,0.09352316583768826,-0.004347636347649954,0.009611575283990785
1668680994.83239,82633,1668680994,832216397,,-0.09515302590856331,-0.6203020339415646,0.07819216061257517,0.9955612151381078,0.09352316584111792,-0.00434763711883191,0.00961157714800343
1668680994.840237,82634,1668680994,840067268,,-0.09502995378095674,-0.6204468700234447,0.07819215507995673,0.9955612151164478,0.09352316584443042,-0.004347637887097517,0.009611579011775959
1668680994.8477411,82635,1668680994,847645128,,-0.0949045370443129,-0.6205944583327507,0.07819214944029869,0.9955612150948123,0.0935231658476264,-0.004347638652545542,0.009611580875442444
1668680994.8564208,82636,1668680994,856294797,,-0.09477677122331414,-0.620744803591728,0.07819214369542701,0.9955612150731992,0.09352316585070639,-0.0043476394152731435,0.009611582739133281
1668680994.863492,82637,1668680994,863360498,,-0.09464665219194279,-0.6208979100864309,0.07819213784724466,0.995561215051607,0.09352316585367061,-0.004347640175376079,0.00961158460297506
1668680994.8718014,82638,1668680994,871605850,,-0.09451417616307602,-0.6210537816782087,0.07819213189772638,0.995561215030034,0.0935231658565197,-0.004347640932948655,0.009611586467090516
1668680994.8799045,82639,1668680994,879796871,,-0.09437933967833041,-0.6212124218148912,0.07819212584891547,0.9955612150084787,0.09352316585925409,-0.004347641688083479,0.009611588331598028
1668680994.8882475,82640,1668680994,888058838,,-0.09424213959815203,-0.6213738335416714,0.07819211970291848,0.9955612149869394,0.09352316586187467,-0.004347642440871613,0.009611590196611812
1668680994.8954287,82641,1668680994,895282684,,-0.09410257309215751,-0.6215380195116891,0.07819211346190148,0.9955612149654147,0.09352316586438167,-0.004347643191402373,0.009611592062241549
1668680994.9039395,82642,1668680994,903763934,,-0.09396063762971872,-0.6217049819963136,0.07819210712808661,0.9955612149439031,0.09352316586677595,-0.004347643939763207,0.009611593928592867
1668680994.9126952,82643,1668680994,912415116,,-0.09381633097079675,-0.6218747228951274,0.07819210070374613,0.9955612149224031,0.09352316586905801,-0.00434764468603993,0.00961159579576609
1668680994.9198227,82644,1668680994,919648420,,-0.09366965115701768,-0.6220472437456156,0.0781920941911999,0.9955612149009135,0.09352316587122855,-0.0043476454303161376,0.009611597663857373
1668680994.9277403,82645,1668680994,927547742,,-0.09352059650299319,-0.6222225457325616,0.07819208759281085,0.995561214879433,0.09352316587328831,-0.004347646172673961,0.009611599532957541
1668680994.9354403,82646,1668680994,935306701,,-0.0933691655878792,-0.6224006296971495,0.07819208091098169,0.9955612148579603,0.09352316587523801,-0.004347646913193101,0.009611601403153182
1668680994.9436548,82647,1668680994,943554829,,-0.0932153572471747,-0.6225814961457826,0.07819207414815035,0.9955612148364942,0.09352316587707839,-0.004347647651951555,0.009611603274525362
1668680994.9517925,82648,1668680994,951694599,,-0.09305917056475316,-0.6227651452586148,0.07819206730678717,0.9955612148150335,0.0935231658788104,-0.004347648389025183,0.009611605147150155
1668680994.9596548,82649,1668680994,959560320,,-0.09290060486512904,-0.6229515768978048,0.07819206038939036,0.9955612147935771,0.09352316588043459,-0.0043476491244875196,0.009611607021098652
1668680994.9679492,82650,1668680994,967753512,,-0.09273965970594909,-0.6231407906154912,0.07819205339848415,0.9955612147721242,0.09352316588195198,-0.004347649858410519,0.009611608896436518
1668680994.9754329,82651,1668680994,975249928,,-0.09257633487071246,-0.6233327856614991,0.07819204633661399,0.9955612147506735,0.09352316588336325,-0.004347650590863612,0.009611610773224545
1668680994.9843788,82652,1668680994,984182805,,-0.09241063036171017,-0.6235275609907767,0.07819203920634399,0.9955612147292244,0.0935231658846694,-0.004347651321913897,0.009611612651517519
1668680994.9925609,82653,1668680994,992255707,,-0.09224254639318369,-0.6237251152705728,0.07819203201025457,0.9955612147077759,0.09352316588587142,-0.004347652051626467,0.009611614531365796
1668680994.9999487,82654,1668680994,999675057,,-0.09207208338469659,-0.6239254468873535,0.07819202475093799,0.9955612146863272,0.09352316588697024,-0.004347652780064403,0.009611616412813365
1668680995.0079398,82655,1668680995,7820008,,-0.091899241954717,-0.6241285539534689,0.07819201743099709,0.9955612146648776,0.0935231658879667,-0.004347653507288059,0.00961161829589937
1668680995.0159087,82656,1668680995,15695109,,-0.09172402291440436,-0.6243344343135709,0.07819201005304185,0.9955612146434263,0.09352316588886196,-0.004347654233355651,0.009611620180657202
1668680995.0246708,82657,1668680995,24535417,,-0.09154642726160016,-0.6245430855507903,0.07819200261968713,0.9955612146219729,0.09352316588965676,-0.004347654958323348,0.009611622067114979
1668680995.0323408,82658,1668680995,32132567,,-0.0913664561750128,-0.624754504992677,0.07819199513354969,0.9955612146005168,0.09352316589035231,-0.004347655682244536,0.009611623955294829
1668680995.040776,82659,1668680995,40408996,,-0.09118411100859838,-0.6249686897169077,0.07819198759724721,0.9955612145790574,0.09352316589094982,-0.004347656405170741,0.009611625845213877
1668680995.0488658,82660,1668680995,48678374,,-0.09099939328612816,-0.625185636556769,0.07819198001339478,0.9955612145575945,0.09352316589145025,-0.004347657127150826,0.00961162773688314
1668680995.055733,82661,1668680995,55540154,,-0.09081230469594073,-0.6254053421064187,0.07819197238460351,0.9955612145361274,0.09352316589185473,-0.004347657848231342,0.009611629630308363
1668680995.0637865,82662,1668680995,63547376,,-0.0906228470858747,-0.6256278027259351,0.07819196471347872,0.9955612145146561,0.09352316589216433,-0.004347658568456643,0.00961163152548959
1668680995.0717325,82663,1668680995,71595324,,-0.09043102245837521,-0.6258530145461528,0.07819195700261775,0.9955612144931801,0.0935231658923802,-0.004347659287868359,0.009611633422421245
1668680995.0797894,82664,1668680995,79687350,,-0.09023683296577256,-0.6260809734732979,0.07819194925460886,0.9955612144716997,0.09352316589250359,-0.004347660006505996,0.009611635321092101
1668680995.0885377,82665,1668680995,88378304,,-0.09004028090572697,-0.6263116751934241,0.07819194147202911,0.9955612144502142,0.09352316589253572,-0.004347660724406645,0.009611637221485354
1668680995.095303,82666,1668680995,95202094,,-0.08984136871683555,-0.6265451151766537,0.07819193365744355,0.9955612144287238,0.09352316589247793,-0.004347661441604861,0.009611639123578654
1668680995.1041074,82667,1668680995,103992929,,-0.0896400989743968,-0.6267812886812351,0.07819192581340326,0.9955612144072286,0.09352316589233128,-0.004347662158132872,0.009611641027344107
1668680995.1122353,82668,1668680995,112080538,,-0.08943647438632808,-0.6270201907574149,0.07819191794244428,0.9955612143857284,0.09352316589209715,-0.004347662874020432,0.009611642932747968
1668680995.1196594,82669,1668680995,119551762,,-0.08923049778923377,-0.627261816251134,0.07819191004708712,0.9955612143642238,0.09352316589177681,-0.004347663589294958,0.009611644839751049
1668680995.127971,82670,1668680995,127842682,,-0.08902217214461602,-0.6275061598075553,0.0781919021298349,0.9955612143427146,0.0935231658913717,-0.004347664303981458,0.009611646748308672
1668680995.1353636,82671,1668680995,135278377,,-0.08881150053522784,-0.6277532158744206,0.07819189419317307,0.9955612143212014,0.09352316589088297,-0.004347665018102306,0.009611648658370471
1668680995.1452334,82672,1668680995,145038080,,-0.08859848616156213,-0.6280029787052501,0.07819188623956848,0.995561214299684,0.09352316589031215,-0.004347665731677982,0.009611650569880928
1668680995.1517148,82673,1668680995,151590084,,-0.0883827864128212,-0.6282554422536027,0.07819187829090998,0.9955612142781363,0.09352316588965909,-0.004347666445779233,0.009611652485110988
1668680995.1599143,82674,1668680995,159746457,,-0.08816374909156666,-0.6285106000869789,0.07819187040402917,0.9955612142564796,0.09352316588892032,-0.004347667163499835,0.009611654410809627
1668680995.1677032,82675,1668680995,167545847,,-0.08794094321217923,-0.6287684456818684,0.07819186261778283,0.995561214234654,0.09352316588809452,-0.004347667887220443,0.009611656352138282
1668680995.1758945,82676,1668680995,175788080,,-0.08771410783460191,-0.6290289724515788,0.0781918549487748,0.9955612142126262,0.09352316588718143,-0.004347668618285813,0.009611658311955788
1668680995.18376,82677,1668680995,183579044,,-0.08748314190853526,-0.6292921736802235,0.07819184740411082,0.9955612141903734,0.0935231658861817,-0.004347669357612061,0.00961166029216836
1668680995.1918066,82678,1668680995,191663828,,-0.0872481612852442,-0.6295580426047089,0.07819183996812162,0.9955612141679052,0.09352316588509797,-0.004347670104872463,0.009611662291925565
1668680995.1998768,82679,1668680995,199771149,,-0.08700929671364047,-0.6298265723018359,0.07819183262289545,0.9955612141452362,0.093523165883933,-0.0043476708595324015,0.00961166430991662
1668680995.2081301,82680,1668680995,207995693,,-0.08676715208261267,-0.6300977558293497,0.07819182532533529,0.9955612141224206,0.09352316588269145,-0.0043476716195284424,0.00961166634144568
1668680995.2157538,82681,1668680995,215637455,,-0.08652256280184971,-0.6303715863140977,0.07819181799321533,0.9955612140995763,0.09352316588138118,-0.004347672380281785,0.009611668376250484
1668680995.2233894,82682,1668680995,223245633,,-0.08627600678015869,-0.63064805646812,0.07819181058630874,0.9955612140767702,0.09352316588000703,-0.004347673139230246,0.009611670408548925
1668680995.2318192,82683,1668680995,231651722,,-0.08602766991136145,-0.6309271586842805,0.07819180308974594,0.9955612140540363,0.09352316587857218,-0.004347673895069827,0.009611672435353533
1668680995.2399058,82684,1668680995,239723270,,-0.08577763423965479,-0.6312088850736678,0.07819179550783834,0.9955612140313825,0.0935231658770784,-0.004347674647530542,0.009611674455972734
1668680995.2476308,82685,1668680995,247497743,,-0.08552602720962726,-0.6314932276337992,0.07819178783631087,0.9955612140088292,0.09352316587552803,-0.004347675395838211,0.00961167646859753
1668680995.2554061,82686,1668680995,255308266,,-0.08527277863099399,-0.6317801905398063,0.0781917800810073,0.9955612139863746,0.09352316587392207,-0.0043476761401032345,0.009611678473381766
1668680995.2637618,82687,1668680995,263645890,,-0.08501777036658464,-0.6320697767293436,0.07819177225395244,0.995561213963999,0.0935231658722612,-0.004347676881116165,0.009611680471986118
1668680995.2759678,82688,1668680995,275792522,,-0.08476102400764504,-0.6323624504510879,0.07819176414236038,0.9955612139416911,0.09352316587054617,-0.004347677619348474,0.009611682465361242
1668680995.2814147,82689,1668680995,280094786,,-0.0845025816868672,-0.632658888556631,0.0781917552266835,0.9955612139194258,0.09352316586877744,-0.004347678355808678,0.009611684455646929
1668680995.2911742,82690,1668680995,290552888,,-0.08424189820949009,-0.6329596393839224,0.07819164014800706,0.9955612138971326,0.09352316586695364,-0.004347679093274055,0.009611686448896152
1668680995.299056,82691,1668680995,298467977,,-0.08397816272638482,-0.6332651652778796,0.0781912664849688,0.9955612138746622,0.0935231658650702,-0.0043476798376056456,0.009611688457985419
1668680995.305949,82692,1668680995,305572255,,-0.08371117047918007,-0.6335754841266302,0.07819059971638863,0.9955612138519662,0.09352316586312787,-0.004347680590721139,0.009611690487037455
1668680995.312588,82693,1668680995,312425692,,-0.08344144643477062,-0.6338909648903469,0.07818948206536189,0.9955612138290902,0.09352316586113033,-0.004347681350884838,0.009611692532076126
1668680995.3199637,82694,1668680995,319839253,,-0.0831697000999473,-0.6342123255735239,0.07818768099113992,0.9955612138061117,0.0935231658590827,-0.004347682115122705,0.00961169458638635
1668680995.3278024,82695,1668680995,327686488,,-0.08289627888802609,-0.6345398527748458,0.07818512006984782,0.9955612137830717,0.09352316585698844,-0.004347682881868372,0.00961169664638143
1668680995.335648,82696,1668680995,335507179,,-0.0826202983960361,-0.6348737238182318,0.07818204251313116,0.9955612137598883,0.09352316585484693,-0.004347683654348294,0.009611698719093535
1668680995.3439217,82697,1668680995,343722259,,-0.082340825741668,-0.6352138895670181,0.07817871956274783,0.9955612137363689,0.09352316585265356,-0.004347684440103176,0.00961170082110619
1668680995.351914,82698,1668680995,351824982,,-0.08205850433587286,-0.635564747479544,0.07817529327875605,0.9955612137124508,0.09352316585040926,-0.004347685241622342,0.009611702957782025
1668680995.3597333,82699,1668680995,359499864,,-0.08177419998352624,-0.6359328456014498,0.07817195336855298,0.9955612136879294,0.09352316584811042,-0.0043476860669215125,0.009611705146719506
1668680995.3678966,82700,1668680995,367786503,,-0.08148833397833874,-0.6363251617945243,0.07816530030645469,0.9955612136625868,0.09352316584575461,-0.004347686924538184,0.009611707406640906
1668680995.375674,82701,1668680995,375455572,,-0.08120109086371387,-0.6367485954965209,0.0781503159764325,0.9955612136360612,0.09352316584333567,-0.004347687828632901,0.00961170976869793
1668680995.3838527,82702,1668680995,383686978,,-0.08091250018380829,-0.6372037108285998,0.07812585631290875,0.9955612136082642,0.09352316584085672,-0.004347688782717735,0.00961171224039877
1668680995.3918786,82703,1668680995,391740074,,-0.08062164279747677,-0.6376921952150207,0.07808877693226916,0.9955612135790574,0.09352316583832039,-0.004347689792285505,0.0096117148336146
1668680995.400031,82704,1668680995,399816590,,-0.08032629007084302,-0.6382182658602029,0.07803396870917632,0.9955612135478049,0.0935231658357177,-0.004347690882150231,0.00961171760300616
1668680995.4077303,82705,1668680995,407593704,,-0.0800245390809688,-0.638782919114456,0.0779595225052558,0.995561213513997,0.09352316583304571,-0.004347692072292198,0.009611720592427186
1668680995.415654,82706,1668680995,415508012,,-0.07971585488678291,-0.6393854973544203,0.07786589792420442,0.9955612134774607,0.09352316583031182,-0.004347693369575601,0.009611723816577093
1668680995.4238403,82707,1668680995,423590342,,-0.07940048534732774,-0.6400238818379412,0.07775473916149893,0.995561213438262,0.09352316582752934,-0.0043476947716004554,0.00961172726957854
1668680995.4319358,82708,1668680995,431782193,,-0.07907814702337422,-0.640694779991588,0.0776276639910719,0.9955612133965283,0.0935231658247135,-0.004347696273591066,0.00961173094027345
1668680995.4402847,82709,1668680995,440065923,,-0.07874822059795064,-0.6413950710620501,0.07748620038365045,0.9955612133522546,0.09352316582187645,-0.0043476978758946,0.009611734828866009
1668680995.4491205,82710,1668680995,448884214,,-0.07840984806713756,-0.6421209184731019,0.07733163312956037,0.995561213305483,0.0935231658190316,-0.004347699577056371,0.00961173893154416
1668680995.455837,82711,1668680995,455681670,,-0.0780620935803507,-0.6428682612481014,0.07716509262847271,0.9955612132562103,0.09352316581619198,-0.004347701377375871,0.009611743248379441
1668680995.4638805,82712,1668680995,463697286,,-0.07770490135607191,-0.6436329762732326,0.07698894742796857,0.9955612132046197,0.09352316581337299,-0.004347703269918214,0.009611747763386512
1668680995.4716825,82713,1668680995,471568215,,-0.07733876387249901,-0.6444117452933019,0.0768054745530307,0.9955612131510347,0.09352316581059124,-0.004347705242286752,0.009611752448486154
1668680995.479554,82714,1668680995,479454580,,-0.07696363031814542,-0.6452024352827597,0.07661593326708305,0.995561213095621,0.09352316580786035,-0.004347707288212235,0.009611757289232551
1668680995.4878275,82715,1668680995,487714964,,-0.07657908719650273,-0.6460028727358116,0.07642166246479391,0.9955612130383968,0.09352316580519167,-0.004347709407135526,0.009611762283870048
1668680995.4957693,82716,1668680995,495587237,,-0.0761847163803921,-0.6468117348940764,0.07622321538162419,0.9955612129793872,0.09352316580259688,-0.004347711598241294,0.009611767430063912
1668680995.5035243,82717,1668680995,503371450,,-0.07578048736629839,-0.6476286417832258,0.07602064831273457,0.9955612129185486,0.09352316580008742,-0.004347713863380413,0.009611772731395954
1668680995.5118127,82718,1668680995,511632612,,-0.07536715967164112,-0.64845289334579,0.07581439488812682,0.9955612128560902,0.09352316579767571,-0.004347716194582327,0.009611778169643924
1668680995.5197093,82719,1668680995,519594303,,-0.07494546728106016,-0.6492835221403769,0.07560500187493986,0.9955612127922736,0.09352316579537312,-0.004347718581857225,0.009611783722141706
1668680995.5280006,82720,1668680995,527762204,,-0.07451542724504265,-0.6501197593898975,0.07539234752951066,0.99556121272721,0.0935231657931895,-0.004347721021036263,0.009611789379181584
1668680995.535565,82721,1668680995,535451254,,-0.07407673512367148,-0.6509606075821858,0.07517614660613746,0.9955612126608663,0.09352316579113507,-0.004347723513518595,0.009611795143431096
1668680995.54387,82722,1668680995,543760563,,-0.07362979560643605,-0.6518050104591567,0.07495677425030167,0.9955612125933949,0.09352316578921878,-0.004347726053527615,0.009611801001628936
1668680995.5516362,82723,1668680995,551521695,,-0.07317509317771406,-0.6526523886941338,0.07473482249182103,0.9955612125250044,0.09352316578744857,-0.004347728633106323,0.00961180693570077
1668680995.559748,82724,1668680995,559617204,,-0.07271386686612549,-0.6535014406647058,0.07451353888512048,0.9955612124560026,0.09352316578582966,-0.00434773124043546,0.009611812919062542
1668680995.5678756,82725,1668680995,567743602,,-0.07224793869146044,-0.6543500972813955,0.07429743890934261,0.9955612123870843,0.09352316578436053,-0.004347733848692422,0.009611818891905315
1668680995.575825,82726,1668680995,575711106,,-0.07177894475446016,-0.6551979719679658,0.07408907882590265,0.9955612123187245,0.09352316578303795,-0.004347736439506735,0.009611824813340848
1668680995.5835707,82727,1668680995,583390577,,-0.0713082378157551,-0.6560454731767218,0.07388998072837782,0.9955612122512933,0.09352316578185671,-0.0043477389985631,0.009611830651591552
1668680995.59227,82728,1668680995,591818718,,-0.07083632758814265,-0.6568922293914231,0.07370042043149137,0.995561212184971,0.09352316578081261,-0.004347741518855497,0.009611836391188934
1668680995.5997782,82729,1668680995,599492141,,-0.07036355972211655,-0.657737734449922,0.07352034330210637,0.9955612121198789,0.09352316577990162,-0.00434774399564113,0.009611842021732759
1668680995.6078768,82730,1668680995,607747549,,-0.06988954902121379,-0.658580869470379,0.0733480682580022,0.9955612120560491,0.09352316577912038,-0.004347746427643963,0.0096118475405375
1668680995.615497,82731,1668680995,615263002,,-0.06941343237021362,-0.659420075700611,0.07318085514483703,0.9955612119933391,0.0935231657784699,-0.004347748820311722,0.00961185295984804
1668680995.6237435,82732,1668680995,623613499,,-0.06893511673720545,-0.6602545858270964,0.07301778198215224,0.9955612119317513,0.0935231657779482,-0.004347751173533968,0.009611858279545369
1668680995.6324763,82733,1668680995,632251200,,-0.06845436007858015,-0.6610832635654402,0.0728586806709474,0.9955612118713266,0.0935231657775523,-0.004347753485672072,0.009611863496118447
1668680995.6405349,82734,1668680995,640308351,,-0.06797029883914896,-0.6619049205258097,0.07270365273145946,0.995561211811941,0.09352316577728385,-0.004347755761474689,0.009611868620233376
1668680995.6481469,82735,1668680995,647998490,,-0.06748232854033351,-0.6627191848009925,0.07255308499574344,0.9955612117534289,0.09352316577714692,-0.004347758007324829,0.00961187366615503
1668680995.6565535,82736,1668680995,656437454,,-0.06699010553250188,-0.663525711949984,0.07240752360463386,0.9955612116957244,0.09352316577714301,-0.004347760225746832,0.009611878639547542
1668680995.664078,82737,1668680995,663943039,,-0.066493927219626,-0.6643247160404223,0.07226756386075937,0.9955612116388366,0.09352316577727147,-0.004347762416366587,0.009611883539636277
1668680995.6725333,82738,1668680995,672322540,,-0.06599450585736093,-0.6651165871251916,0.07213327937459142,0.9955612115829344,0.09352316577752517,-0.004347764572628027,0.00961188835193484
1668680995.6801198,82739,1668680995,679985167,,-0.06549237395517606,-0.6659014980114272,0.0720046132304092,0.9955612115281328,0.09352316577789802,-0.0043477666900747875,0.00961189306665818
1668680995.6878998,82740,1668680995,687764851,,-0.0649877937605774,-0.6666800005031485,0.0718811954889232,0.995561211474491,0.09352316577838564,-0.004347768766368437,0.009611897678744073
1668680995.6954565,82741,1668680995,695291207,,-0.06448074335516205,-0.6674525886655647,0.07176238511747164,0.995561211421946,0.09352316577898882,-0.004347770803893117,0.009611902193621664
1668680995.7036538,82742,1668680995,703551713,,-0.06397143464332983,-0.6682193551202164,0.07164788930655401,0.9955612113705243,0.0935231657797042,-0.004347772801597008,0.009611906609087013
1668680995.7116401,82743,1668680995,711473357,,-0.06345991206223939,-0.6689804283708126,0.07153783960858662,0.9955612113202509,0.09352316578052856,-0.0043477747584650395,0.009611910923021622
1668680995.7197154,82744,1668680995,719615606,,-0.06294638457935571,-0.6697359538212471,0.07143237512472053,0.9955612112711179,0.09352316578146001,-0.004347776674760558,0.009611915136154343
1668680995.7277546,82745,1668680995,727629663,,-0.06243140949841231,-0.6704858585775334,0.07133138259541501,0.9955612112232751,0.09352316578248815,-0.004347778544649063,0.009611919235688288
1668680995.735922,82746,1668680995,735653509,,-0.06191533169273896,-0.6712292428919278,0.07123545162052818,0.9955612111768521,0.09352316578360287,-0.004347780363074992,0.009611923210593952
1668680995.7449288,82747,1668680995,744529506,,-0.06139787726862209,-0.6719641807396205,0.07114563897853655,0.9955612111319334,0.09352316578479584,-0.004347782126719468,0.009611927053720737
1668680995.752296,82748,1668680995,752158925,,-0.06087879351773963,-0.6726897485030421,0.07106217600838062,0.9955612110884801,0.09352316578606513,-0.004347783837007908,0.009611930768462172
1668680995.7598991,82749,1668680995,759668398,,-0.0603580818986998,-0.6734056351561898,0.07098500814578579,0.9955612110465071,0.09352316578740558,-0.0043477854932898515,0.009611934353599706
1668680995.767631,82750,1668680995,767539975,,-0.05983629310188686,-0.6741115524966793,0.07091491177954269,0.9955612110060992,0.09352316578880802,-0.004347787092231751,0.009611937801975536
1668680995.7760046,82751,1668680995,775888800,,-0.059314490732664114,-0.6748078296824501,0.0708527464614736,0.9955612109675114,0.09352316579025091,-0.004347788623916988,0.009611941091853475
1668680995.7835214,82752,1668680995,783321483,,-0.05879346009218508,-0.6754952806267434,0.07079840798560331,0.9955612109308725,0.09352316579172004,-0.004347790083283357,0.00961194421232356
1668680995.7917917,82753,1668680995,791589393,,-0.05827362918015692,-0.6761746864311645,0.07075134136157607,0.9955612108962363,0.09352316579320508,-0.004347791468161726,0.009611947158918872
1668680995.7998912,82754,1668680995,799785876,,-0.05775496388796261,-0.6768467049411063,0.07071073951749964,0.9955612108635401,0.09352316579470381,-0.0043477927808485235,0.00961194993708277
1668680995.8077762,82755,1668680995,807688763,,-0.05723739310642064,-0.6775121644439852,0.07067567714361728,0.995561210832683,0.09352316579621744,-0.004347794025131925,0.009611952555551346
