Time,header.seq,header.stamp.secs,header.stamp.nsecs,header.frame_id,wrench.force.x,wrench.force.y,wrench.force.z,wrench.torque.x,wrench.torque.y,wrench.torque.z
1668680993.2964609,82441,1668680993,296230421,,-6.023925991214285e-179,-2.5983984633454618e-188,5e-324,5e-324,-5e-324,0.0
1668680993.3039525,82442,1668680993,303760519,,-6.023925991214285e-179,-2.5983984633454618e-188,5e-324,5e-324,-5e-324,0.0
1668680993.3141186,82443,1668680993,312504394,,-3.187125560598699e-179,-1.3747549639930683e-188,5e-324,5e-324,-5e-324,0.0
1668680993.320607,82444,1668680993,320378891,,-1.686237406275637e-179,-7.27352343254642e-189,5e-324,5e-324,-5e-324,0.0
1668680993.328472,82445,1668680993,328291601,,-8.921507911313848e-180,-3.848259836075675e-189,5e-324,5e-324,-5e-324,0.0
1668680993.3357704,82446,1668680993,335552748,,-4.720171852161192e-180,-2.0360288797156727e-189,5e-324,5e-324,-5e-324,0.0
1668680993.3436294,82447,1668680993,343409689,,-4.720171852161192e-180,-2.0360288797156727e-189,5e-324,5e-324,-5e-324,0.0
1668680993.3518515,82448,1668680993,351568134,,-2.4973381781885005e-180,-1.0772176972497805e-189,5e-324,5e-324,-5e-324,0.0
1668680993.365722,82449,1668680993,364941728,,-1.3212862098193109e-180,-5.699319782881307e-190,5e-324,5e-324,-5e-324,0.0
1668680993.372609,82450,1668680993,371994466,,-6.990632119855841e-181,-3.0153836193437873e-190,5e-324,5e-324,-5e-324,0.0
1668680993.3768573,82451,1668680993,376426767,,-6.990632119855841e-181,-3.0153836193437873e-190,5e-324,5e-324,-5e-324,0.0
1668680993.3846784,82452,1668680993,384410852,,-3.6985883203793607e-181,-1.5953725564088422e-190,5e-324,5e-324,-5e-324,0.0
1668680993.391911,82453,1668680993,391675440,,-1.9568410022309566e-181,-8.440762155152842e-191,5e-324,5e-324,-5e-324,0.0
1668680993.399919,82454,1668680993,399668523,,-1.035321148588793e-181,-4.465819941157512e-191,5e-324,5e-324,-5e-324,0.0
1668680993.4077432,82455,1668680993,407486273,,-5.477654441485929e-182,-2.362766226585963e-191,5e-324,5e-324,-5e-324,0.0
1668680993.4158452,82456,1668680993,415629359,,-2.8981054063494013e-182,-1.2500871766111286e-191,5e-324,5e-324,-5e-324,0.0
1668680993.4238608,82457,1668680993,423533921,,-2.8981054063494013e-182,-1.2500871766111286e-191,5e-324,5e-324,-5e-324,0.0
1668680993.4318652,82458,1668680993,431689729,,-1.5333232565202158e-182,-6.613933835450173e-192,5e-324,5e-324,-5e-324,0.0
1668680993.4398313,82459,1668680993,439594163,,-8.112473079256622e-183,-3.499285617687794e-192,5e-324,5e-324,-5e-324,0.0
1668680993.447888,82460,1668680993,447656404,,-4.292129476404099e-183,-1.8513943651090666e-192,5e-324,5e-324,-5e-324,0.0
1668680993.4554243,82461,1668680993,455234033,,-4.292129476404099e-183,-1.8513943651090666e-192,5e-324,5e-324,-5e-324,0.0
1668680993.4637566,82462,1668680993,463489260,,-2.270870456177223e-183,-9.795316729311403e-193,5e-324,5e-324,-5e-324,0.0
1668680993.4718983,82463,1668680993,471659956,,-1.2014671638141976e-183,-5.182484706432359e-193,5e-324,5e-324,-5e-324,0.0
1668680993.4801369,82464,1668680993,479872586,,-6.356696137364677e-184,-2.7419376498602903e-193,5e-324,5e-324,-5e-324,0.0
1668680993.4878354,82465,1668680993,487597734,,-3.3631868601808824e-184,-1.4506983621948675e-193,5e-324,5e-324,-5e-324,0.0
1668680993.4955711,82466,1668680993,495326672,,-3.3631868601808824e-184,-1.4506983621948675e-193,5e-324,5e-324,-5e-324,0.0
1668680993.5041387,82467,1668680993,503851189,,-1.7793875327793477e-184,-7.675323099276537e-194,5e-324,5e-324,-5e-324,0.0
1668680993.51237,82468,1668680993,512105387,,-9.414344559018303e-185,-4.0608431231119516e-194,5e-324,5e-324,-5e-324,0.0
1668680993.5198467,82469,1668680993,519573346,,-4.980920785562683e-185,-2.1485019792951767e-194,5e-324,5e-324,-5e-324,0.0
1668680993.528024,82470,1668680993,527772570,,-2.6352946523807107e-185,-1.1367247182643834e-194,5e-324,5e-324,-5e-324,0.0
1668680993.5355377,82471,1668680993,535280279,,-2.6352946523807107e-185,-1.1367247182643834e-194,5e-324,5e-324,-5e-324,0.0
1668680993.5441258,82472,1668680993,543919751,,-1.3942759188212698e-185,-6.014158225430789e-195,5e-324,5e-324,-5e-324,0.0
1668680993.551702,82473,1668680993,551462126,,-7.376804472504404e-186,-3.181957652486294e-195,5e-324,5e-324,-5e-324,0.0
1668680993.5598288,82474,1668680993,559615860,,-3.902903542332257e-186,-1.6835031807781967e-195,5e-324,5e-324,-5e-324,0.0
1668680993.567856,82475,1668680993,567597966,,-2.064939652057531e-186,-8.907041730978892e-196,5e-324,5e-324,-5e-324,0.0
1668680993.5755963,82476,1668680993,575331309,,-2.064939652057531e-186,-8.907041730978892e-196,5e-324,5e-324,-5e-324,0.0
1668680993.583822,82477,1668680993,583587601,,-1.0925137453157384e-186,-4.712518117175568e-196,5e-324,5e-324,-5e-324,0.0
1668680993.591816,82478,1668680993,591596519,,-5.780247778740256e-187,-2.493288756857244e-196,5e-324,5e-324,-5e-324,0.0
1668680993.600031,82479,1668680993,599773618,,-3.05820082602034e-187,-1.3191437508566172e-196,5e-324,5e-324,-5e-324,0.0
1668680993.6077774,82480,1668680993,607566627,,-1.6180261902734192e-187,-6.979296844932985e-197,5e-324,5e-324,-5e-324,0.0
1668680993.6154802,82481,1668680993,615276376,,-1.6180261902734192e-187,-6.979296844932985e-197,5e-324,5e-324,-5e-324,0.0
1668680993.6238935,82482,1668680993,623648476,,-8.560617504696543e-188,-3.692591077967064e-197,5e-324,5e-324,-5e-324,0.0
1668680993.6318724,82483,1668680993,631672038,,-4.529232746803257e-188,-1.9536679943598083e-197,5e-324,5e-324,-5e-324,0.0
1668680993.6399868,82484,1668680993,639752711,,-2.3963165348131216e-188,-1.0336423805387096e-197,5e-324,5e-324,-5e-324,0.0
1668680993.6477454,82485,1668680993,647524840,,-1.2678379001546607e-188,-5.468772452280649e-198,5e-324,5e-324,-5e-324,0.0
1668680993.6557686,82486,1668680993,655533193,,-1.2678379001546607e-188,-5.468772452280649e-198,5e-324,5e-324,-5e-324,0.0
1668680993.663885,82487,1668680993,663681991,,-6.707848974525957e-189,-2.8934061429676137e-198,5e-324,5e-324,-5e-324,0.0
1668680993.6716526,82488,1668680993,671464232,,-3.5489740336331692e-189,-1.5308369805497066e-198,5e-324,5e-324,-5e-324,0.0
1668680993.6798954,82489,1668680993,679647357,,-1.8776834033137413e-189,-8.099318744844365e-199,5e-324,5e-324,-5e-324,0.0
1668680993.6877625,82490,1668680993,687558556,,-9.934406196459364e-190,-4.285169809984042e-199,5e-324,5e-324,-5e-324,0.0
1668680993.695903,82491,1668680993,695489804,,-9.934406196459364e-190,-4.285169809984042e-199,5e-324,5e-324,-5e-324,0.0
1668680993.703673,82492,1668680993,703490849,,-5.256073856864128e-190,-2.2671882511214247e-199,5e-324,5e-324,-5e-324,0.0
1668680993.7122018,82493,1668680993,711874169,,-2.7808720362830154e-190,-1.1995189908336832e-199,5e-324,5e-324,-5e-324,0.0
1668680993.7198987,82494,1668680993,719650735,,-1.471297682029652e-190,-6.346388786458108e-200,5e-324,5e-324,-5e-324,0.0
1668680993.7277102,82495,1668680993,727516314,,-7.784309529176476e-191,-3.357733469554188e-200,5e-324,5e-324,-5e-324,0.0
1668680993.7358887,82496,1668680993,735638910,,-4.1185054245743367e-191,-1.7765022648189486e-200,5e-324,5e-324,-5e-324,0.0
1668680993.743351,82497,1668680993,743158354,,-4.1185054245743367e-191,-1.7765022648189486e-200,5e-324,5e-324,-5e-324,0.0
1668680993.751913,82498,1668680993,751626114,,-2.1790098233725688e-191,-9.399079246530772e-201,5e-324,5e-324,-5e-324,0.0
1668680993.7598863,82499,1668680993,759695596,,-1.1528657415438237e-191,-4.972844247489258e-201,5e-324,5e-324,-5e-324,0.0
1668680993.7680895,82500,1668680993,767771852,,-6.099556797629636e-192,-2.6310215353184322e-201,5e-324,5e-324,-5e-324,0.0
1668680993.7759092,82501,1668680993,775708259,,-3.2271401418944543e-192,-1.392015107411488e-201,5e-324,5e-324,-5e-324,0.0
1668680993.7834663,82502,1668680993,783209339,,-3.2271401418944543e-192,-1.392015107411488e-201,5e-324,5e-324,-5e-324,0.0
1668680993.792037,82503,1668680993,791745735,,-1.7074082332463463e-192,-7.364843021048463e-202,5e-324,5e-324,-5e-324,0.0
1668680993.7999022,82504,1668680993,799691511,,-9.03351805864263e-193,-3.896575003812247e-202,5e-324,5e-324,-5e-324,0.0
1668680993.8089197,82505,1668680993,807834883,,-4.77943393541365e-193,-2.061591362767826e-202,5e-324,5e-324,-5e-324,0.0
1668680993.8157418,82506,1668680993,815463192,,-4.77943393541365e-193,-2.061591362767826e-202,5e-324,5e-324,-5e-324,0.0
1668680993.8244708,82507,1668680993,824184584,,-2.5286924313090906e-193,-1.090742239756895e-202,5e-324,5e-324,-5e-324,0.0
1668680993.8324802,82508,1668680993,832241943,,-1.3378750493402244e-193,-5.770875135956187e-203,5e-324,5e-324,-5e-324,0.0
1668680993.8403432,82509,1668680993,840108990,,-7.078399988410141e-194,-3.0532419687184684e-203,5e-324,5e-324,-5e-324,0.0
1668680993.848558,82510,1668680993,848286783,,-3.745024351910401e-194,-1.6154025689206327e-203,5e-324,5e-324,-5e-324,0.0
1668680993.8559587,82511,1668680993,855751412,,-3.745024351910401e-194,-1.6154025689206327e-203,5e-324,5e-324,-5e-324,0.0
1668680993.8639286,82512,1668680993,863717661,,-1.9814092760180506e-194,-8.546736506345976e-204,5e-324,5e-324,-5e-324,0.0
1668680993.8718493,82513,1668680993,871594721,,-1.0483196770369905e-194,-4.52188861861937e-204,5e-324,5e-324,-5e-324,0.0
1668680993.88007,82514,1668680993,879821921,,-5.5464267709067106e-195,-2.3924309195699537e-204,5e-324,5e-324,-5e-324,0.0
1668680993.8878229,82515,1668680993,887626252,,-2.934491319668815e-195,-1.2657821073580336e-204,5e-324,5e-324,-5e-324,0.0
1668680993.8956056,82516,1668680993,895336375,,-2.934491319668815e-195,-1.2657821073580336e-204,5e-324,5e-324,-5e-324,0.0
1668680993.903894,82517,1668680993,903660755,,-1.5525742357910708e-195,-6.696972231055037e-205,5e-324,5e-324,-5e-324,0.0
1668680993.9117663,82518,1668680993,911559675,,-8.214325738452938e-196,-3.543219390036484e-205,5e-324,5e-324,-5e-324,0.0
1668680993.9199247,82519,1668680993,919724196,,-4.346017458097927e-196,-1.874638749092245e-205,5e-324,5e-324,-5e-324,0.0
1668680993.928261,82520,1668680993,928029532,,-2.2993813914237655e-196,-9.91829760663494e-206,5e-324,5e-324,-5e-324,0.0
1668680993.9359698,82521,1668680993,935708863,,-1.2165516669461016e-196,-5.247551159465538e-206,5e-324,5e-324,-5e-324,0.0
1668680993.9444244,82522,1668680993,943891819,,-1.2165516669461016e-196,-5.247551159465538e-206,5e-324,5e-324,-5e-324,0.0
1668680993.9520547,82523,1668680993,951784953,,-6.436504895923033e-197,-2.77636286622284e-206,5e-324,5e-324,-5e-324,0.0
1668680993.9601147,82524,1668680993,959814151,,-3.4054119032395063e-197,-1.468911980217108e-206,5e-324,5e-324,-5e-324,0.0
1668680993.9680178,82525,1668680993,967781328,,-1.8017278660148152e-197,-7.771687310314866e-207,5e-324,5e-324,-5e-324,0.0
1668680993.975881,82526,1668680993,975640690,,-9.532542304460223e-198,-4.11182728868356e-207,5e-324,5e-324,-5e-324,0.0
1668680993.9834588,82527,1668680993,983216885,,-9.532542304460223e-198,-4.11182728868356e-207,5e-324,5e-324,-5e-324,0.0
1668680993.9918687,82528,1668680993,991606433,,-5.0434565896632816e-198,-2.1754765698721623e-207,5e-324,5e-324,-5e-324,0.0
1668680993.9997804,82529,1668680993,999557514,,-2.6683809585525157e-198,-1.1509963755257743e-207,5e-324,5e-324,-5e-324,0.0
1668680994.0077662,82530,1668680994,7536538,,-1.4117811491743237e-198,-6.089666396872839e-208,5e-324,5e-324,-5e-324,0.0
1668680994.0158486,82531,1668680994,15587195,,-7.469420761588559e-199,-3.2219073503391587e-208,5e-324,5e-324,-5e-324,0.0
1668680994.0241299,82532,1668680994,23888905,,-7.469420761588559e-199,-3.2219073503391587e-208,5e-324,5e-324,-5e-324,0.0
1668680994.032549,82533,1668680994,32319351,,-3.951904765570793e-199,-1.7046396793591485e-208,5e-324,5e-324,-5e-324,0.0
1668680994.0405283,82534,1668680994,40271742,,-2.090865111851014e-199,-9.018870254415534e-209,5e-324,5e-324,-5e-324,0.0
1668680994.0484612,82535,1668680994,48166558,,-1.1062303307616076e-199,-4.771684107257243e-209,5e-324,5e-324,-5e-324,0.0
1668680994.056511,82536,1668680994,56228862,,-5.852819188386432e-200,-2.524592169213647e-209,5e-324,5e-324,-5e-324,0.0
1668680994.0637562,82537,1668680994,63499950,,-5.852819188386432e-200,-2.524592169213647e-209,5e-324,5e-324,-5e-324,0.0
1668680994.0719016,82538,1668680994,71701956,,-3.096596748378839e-200,-1.335705691657444e-209,5e-324,5e-324,-5e-324,0.0
1668680994.079806,82539,1668680994,79565915,,-1.6383406207212723e-200,-7.066922398328599e-210,5e-324,5e-324,-5e-324,0.0
1668680994.0878408,82540,1668680994,87637250,,-8.668096648072118e-201,-3.738951813705862e-210,5e-324,5e-324,-5e-324,0.0
1668680994.095562,82541,1668680994,95336628,,-8.668096648072118e-201,-3.738951813705862e-210,5e-324,5e-324,-5e-324,0.0
1668680994.103991,82542,1668680994,103558959,,-4.5860975764148996e-201,-1.9781964308141716e-210,5e-324,5e-324,-5e-324,0.0
1668680994.1118755,82543,1668680994,111572822,,-2.426402454231568e-201,-1.0466198319382185e-210,5e-324,5e-324,-5e-324,0.0
1668680994.1199548,82544,1668680994,119680578,,-1.283755692460292e-201,-5.537433267714181e-211,5e-324,5e-324,-5e-324,0.0
1668680994.127743,82545,1668680994,127529330,,-6.792066481181201e-202,-2.9297330567110625e-211,5e-324,5e-324,-5e-324,0.0
1668680994.1357396,82546,1668680994,135433911,,-6.792066481181201e-202,-2.9297330567110625e-211,5e-324,5e-324,-5e-324,0.0
1668680994.1438699,82547,1668680994,143639914,,-3.5935316474720993e-202,-1.5500567444542216e-211,5e-324,5e-324,-5e-324,0.0
1668680994.1527112,82548,1668680994,152408122,,-1.9012578479852825e-202,-8.201006250464606e-212,5e-324,5e-324,-5e-324,0.0
1668680994.1597867,82549,1668680994,159578034,,-1.0059133351638843e-202,-4.338970412585812e-212,5e-324,5e-324,-5e-324,0.0
1668680994.167948,82550,1668680994,167740285,,-5.322064226757957e-203,-2.2956529560294526e-212,5e-324,5e-324,-5e-324,0.0
1668680994.1754644,82551,1668680994,175264468,,-5.322064226757957e-203,-2.2956529560294526e-212,5e-324,5e-324,-5e-324,0.0
1668680994.183809,82552,1668680994,183594172,,-2.8157860765532196e-203,-1.2145790345194104e-212,5e-324,5e-324,-5e-324,0.0
1668680994.1918058,82553,1668680994,191515658,,-1.489769925933583e-203,-6.426068135514716e-213,5e-324,5e-324,-5e-324,0.0
1668680994.199769,82554,1668680994,199537737,,-7.882042072361264e-204,-3.3998900449172585e-213,5e-324,5e-324,-5e-324,0.0
1668680994.2078817,82555,1668680994,207645661,,-4.170213544318976e-204,-1.7988063733161153e-213,5e-324,5e-324,-5e-324,0.0
1668680994.2156901,82556,1668680994,215495262,,-4.170213544318976e-204,-1.7988063733161153e-213,5e-324,5e-324,-5e-324,0.0
1668680994.2236938,82557,1668680994,223486743,,-2.2063674420367082e-204,-9.51708533492124e-214,5e-324,5e-324,-5e-324,0.0
1668680994.2320225,82558,1668680994,231778963,,-1.1673400504660712e-204,-5.035278650097135e-214,5e-324,5e-324,-5e-324,0.0
1668680994.239831,82559,1668680994,239584483,,-6.176137154037365e-205,-2.6640541922107134e-214,5e-324,5e-324,-5e-324,0.0
1668680994.2490983,82560,1668680994,248775886,,-3.2676571090190175e-205,-1.4094919531213163e-214,5e-324,5e-324,-5e-324,0.0
1668680994.2564209,82561,1668680994,256209681,,-1.728844861410266e-205,-7.457309133284356e-215,5e-324,5e-324,-5e-324,0.0
1668680994.2636414,82562,1668680994,263418649,,-1.728844861410266e-205,-7.457309133284356e-215,5e-324,5e-324,-5e-324,0.0
1668680994.2719455,82563,1668680994,271677828,,-9.146934501098801e-206,-3.945496771813052e-215,5e-324,5e-324,-5e-324,0.0
1668680994.2800848,82564,1668680994,279889325,,-4.839440058209885e-206,-2.0874747845582744e-215,5e-324,5e-324,-5e-324,0.0
1668680994.2880054,82565,1668680994,287768307,,-2.5604403392407675e-206,-1.1044365838282548e-215,5e-324,5e-324,-5e-324,0.0
1668680994.29545,82566,1668680994,295269278,,-2.5604403392407675e-206,-1.1044365838282548e-215,5e-324,5e-324,-5e-324,0.0
1668680994.3049712,82567,1668680994,303621276,,-1.354672162885802e-206,-5.84332887142558e-216,5e-324,5e-324,-5e-324,0.0
1668680994.3125916,82568,1668680994,312286386,,-7.167269788609327e-207,-3.091575632281425e-216,5e-324,5e-324,-5e-324,0.0
1668680994.3200216,82569,1668680994,319805734,,-3.792043391020977e-207,-1.6356840596213942e-216,5e-324,5e-324,-5e-324,0.0
1668680994.3279824,82570,1668680994,327745108,,-2.0062860061775293e-207,-8.65404137282959e-217,5e-324,5e-324,-5e-324,0.0
1668680994.3355198,82571,1668680994,335337905,,-2.0062860061775293e-207,-8.65404137282959e-217,5e-324,5e-324,-5e-324,0.0
1668680994.3441308,82572,1668680994,343900096,,-1.0614814029066353e-207,-4.578661242194983e-217,5e-324,5e-324,-5e-324,0.0
1668680994.3517215,82573,1668680994,351527961,,-5.616062541668035e-208,-2.4224680548209477e-217,5e-324,5e-324,-5e-324,0.0
1668680994.359852,82574,1668680994,359584409,,-2.971334060640251e-208,-1.281674089043271e-217,5e-324,5e-324,-5e-324,0.0
1668680994.3678417,82575,1668680994,367553224,,-1.5720669124348142e-208,-6.781053179445601e-218,5e-324,5e-324,-5e-324,0.0
1668680994.3759181,82576,1668680994,375702510,,-8.317457164812372e-209,-3.5877047539280367e-218,5e-324,5e-324,-5e-324,0.0
1668680994.3836262,82577,1668680994,383393034,,-8.317457164812372e-209,-3.5877047539280367e-218,5e-324,5e-324,-5e-324,0.0
1668680994.3920379,82578,1668680994,391736164,,-4.4005820071197015e-209,-1.8981749679199802e-218,5e-324,5e-324,-5e-324,0.0
1668680994.3998692,82579,1668680994,399645762,,-2.3282502834293232e-209,-1.0042822517357819e-218,5e-324,5e-324,-5e-324,0.0
1668680994.4085586,82580,1668680994,408239274,,-1.2318255570555198e-209,-5.3134345263055354e-219,5e-324,5e-324,-5e-324,0.0
1668680994.415766,82581,1668680994,415524654,,-6.517315658951165e-210,-2.811220293551845e-219,5e-324,5e-324,-5e-324,0.0
1668680994.423393,82582,1668680994,423212847,,-6.517315658951165e-210,-2.811220293551845e-219,5e-324,5e-324,-5e-324,0.0
1668680994.4318457,82583,1668680994,431607031,,-3.448167084626873e-210,-1.4873542714701896e-219,5e-324,5e-324,-5e-324,0.0
1668680994.4398963,82584,1668680994,439695694,,-1.8243486836753327e-210,-7.869261380671021e-220,5e-324,5e-324,-5e-324,0.0
1668680994.4477792,82585,1668680994,447538413,,-9.65222403075073e-211,-4.163451563971357e-220,5e-324,5e-324,-5e-324,0.0
1668680994.455783,82586,1668680994,455519340,,-9.65222403075073e-211,-4.163451563971357e-220,5e-324,5e-324,-5e-324,0.0
1668680994.4637299,82587,1668680994,463498006,,-5.106777535098762e-211,-2.2027898282948402e-220,5e-324,5e-324,-5e-324,0.0
1668680994.4718158,82588,1668680994,471506778,,-2.701882665580961e-211,-1.165447214428695e-220,5e-324,5e-324,-5e-324,0.0
1668680994.4797719,82589,1668680994,479553446,,-1.4295061589021613e-211,-6.166122578616714e-221,5e-324,5e-324,-5e-324,0.0
1668680994.4877965,82590,1668680994,487596627,,-7.563199854571845e-212,-3.2623586194047275e-221,5e-324,5e-324,-5e-324,0.0
1668680994.4957855,82591,1668680994,495566976,,-4.0015212025477265e-212,-1.726041548138008e-221,5e-324,5e-324,-5e-324,0.0
1668680994.5036356,82592,1668680994,503372152,,-4.0015212025477265e-212,-1.726041548138008e-221,5e-324,5e-324,-5e-324,0.0
1668680994.5116923,82593,1668680994,511494848,,-2.1171160675808236e-212,-9.13210279267906e-222,5e-324,5e-324,-5e-324,0.0
1668680994.5197792,82594,1668680994,519548218,,-1.1201191288840688e-212,-4.831592930426302e-222,5e-324,5e-324,-5e-324,0.0
1668680994.5280282,82595,1668680994,527783740,,-5.9263017370874806e-213,-2.5562885980718326e-222,5e-324,5e-324,-5e-324,0.0
1668680994.5360625,82596,1668680994,535695291,,-5.9263017370874806e-213,-2.5562885980718326e-222,5e-324,5e-324,-5e-324,0.0
1668680994.544653,82597,1668680994,544359516,,-3.135474734191517e-213,-1.352475568767647e-222,5e-324,5e-324,-5e-324,0.0
1668680994.5518255,82598,1668680994,551601591,,-1.6589101002449077e-213,-7.155648096592454e-223,5e-324,5e-324,-5e-324,0.0
1668680994.5604808,82599,1668680994,560100905,,-8.776925199507849e-214,-3.7858946116803274e-223,5e-324,5e-324,-5e-324,0.0
1668680994.5678134,82600,1668680994,567585794,,-4.643676347885468e-214,-2.0030328234804567e-223,5e-324,5e-324,-5e-324,0.0
1668680994.5755296,82601,1668680994,575297311,,-4.643676347885468e-214,-2.0030328234804567e-223,5e-324,5e-324,-5e-324,0.0
1668680994.583799,82602,1668680994,583562249,,-2.4568661044439652e-214,-1.0597602161353735e-223,5e-324,5e-324,-5e-324,0.0
1668680994.5916731,82603,1668680994,591428098,,-1.299873333746502e-214,-5.606956124422449e-224,5e-324,5e-324,-5e-324,0.0
1668680994.5999162,82604,1668680994,599703597,,-6.877341344442737e-215,-2.9665160573627846e-224,5e-324,5e-324,-5e-324,0.0
1668680994.6077638,82605,1668680994,607583670,,-3.6386486852268434e-215,-1.5695178138205455e-224,5e-324,5e-324,-5e-324,0.0
1668680994.6153395,82606,1668680994,615170923,,-3.6386486852268434e-215,-1.5695178138205455e-224,5e-324,5e-324,-5e-324,0.0
1668680994.6237483,82607,1668680994,623504340,,-1.925128271436095e-215,-8.303970449733417e-225,5e-324,5e-324,-5e-324,0.0
1668680994.6318865,82608,1668680994,631604831,,-1.0185426464856629e-215,-4.3934464854649966e-225,5e-324,5e-324,-5e-324,0.0
1668680994.6396973,82609,1668680994,639510258,,-5.388883110298533e-216,-2.324475037271405e-225,5e-324,5e-324,-5e-324,0.0
1668680994.6477945,82610,1668680994,647587364,,-2.8511384650077644e-216,-1.2298281580926174e-225,5e-324,5e-324,-5e-324,0.0
1668680994.6558204,82611,1668680994,655604958,,-1.508474090134143e-216,-6.506747864295879e-226,5e-324,5e-324,-5e-324,0.0
1668680994.6635141,82612,1668680994,663303599,,-1.508474090134143e-216,-6.506747864295879e-226,5e-324,5e-324,-5e-324,0.0
1668680994.672126,82613,1668680994,671761129,,-7.981001654368387e-217,-3.442575898992431e-226,5e-324,5e-324,-5e-324,0.0
1668680994.6799953,82614,1668680994,679755695,,-4.222570863074396e-217,-1.821390511434244e-226,5e-324,5e-324,-5e-324,0.0
1668680994.6881752,82615,1668680994,687894890,,-2.234068537490601e-217,-9.636572997892792e-227,5e-324,5e-324,-5e-324,0.0
1668680994.695816,82616,1668680994,695578271,,-2.234068537490601e-217,-9.636572997892792e-227,5e-324,5e-324,-5e-324,0.0
1668680994.7036934,82617,1668680994,703495601,,-1.181996085335432e-217,-5.098496920937158e-227,5e-324,5e-324,-5e-324,0.0
1668680994.711661,82618,1668680994,711459856,,-6.253678982103134e-218,-2.6975015763892285e-227,5e-324,5e-324,-5e-324,0.0
1668680994.72005,82619,1668680994,719824154,,-3.3086827694611283e-218,-1.427188221834774e-227,5e-324,5e-324,-5e-324,0.0
1668680994.7286036,82620,1668680994,728311766,,-1.7505506279197143e-218,-7.550936163938686e-228,5e-324,5e-324,-5e-324,0.0
1668680994.7355847,82621,1668680994,735333163,,-1.7505506279197143e-218,-7.550936163938686e-228,5e-324,5e-324,-5e-324,0.0
1668680994.7439482,82622,1668680994,743711409,,-9.261774894814703e-219,-3.995032755986261e-228,5e-324,5e-324,-5e-324,0.0
1668680994.7517903,82623,1668680994,751555783,,-4.900199562017698e-219,-2.113683174495021e-228,5e-324,5e-324,-5e-324,0.0
1668680994.760351,82624,1668680994,760108035,,-2.5925868443468403e-219,-1.1183028613342148e-228,5e-324,5e-324,-5e-324,0.0
1668680994.7678626,82625,1668680994,767618149,,-1.3716801653507906e-219,-5.916692268542435e-229,5e-324,5e-324,-5e-324,0.0
1668680994.7759414,82626,1668680994,775693311,,-7.25725535528121e-220,-3.1303905776350864e-229,5e-324,5e-324,-5e-324,0.0
1668680994.7834835,82627,1668680994,783296942,,-7.25725535528121e-220,-3.1303905776350864e-229,5e-324,5e-324,-5e-324,0.0
1668680994.7920063,82628,1668680994,791763389,,-3.8396527574114676e-220,-1.6562201858371415e-229,5e-324,5e-324,-5e-324,0.0
1668680994.7999132,82629,1668680994,799588988,,-2.0314750654004257e-220,-8.762693459314962e-230,5e-324,5e-324,-5e-324,0.0
1668680994.8079233,82630,1668680994,807712699,,-1.0748083751526115e-220,-4.63614664997638e-230,5e-324,5e-324,-5e-324,0.0
1668680994.815641,82631,1668680994,815438404,,-1.0748083751526115e-220,-4.63614664997638e-230,5e-324,5e-324,-5e-324,0.0
1668680994.8249753,82632,1668680994,824575703,,-5.686572594335495e-221,-2.4528823083773065e-230,5e-324,5e-324,-5e-324,0.0
1668680994.8324568,82633,1668680994,832216397,,-3.0086393647663933e-221,-1.2977655956549686e-230,5e-324,5e-324,-5e-324,0.0
1668680994.840337,82634,1668680994,840067268,,-1.5918043209786348e-221,-6.866189769944028e-231,5e-324,5e-324,-5e-324,0.0
1668680994.8478622,82635,1668680994,847645128,,-8.421883413344867e-222,-3.632748634632332e-231,5e-324,5e-324,-5e-324,0.0
1668680994.8565502,82636,1668680994,856294797,,-4.455831617818896e-222,-1.9220066855988822e-231,5e-324,5e-324,-5e-324,0.0
1668680994.8635502,82637,1668680994,863360498,,-4.455831617818896e-222,-1.9220066855988822e-231,5e-324,5e-324,-5e-324,0.0
1668680994.8718736,82638,1668680994,871605850,,-2.3574816263656988e-222,-1.0168910846925909e-231,5e-324,5e-324,-5e-324,0.0
1668680994.8800673,82639,1668680994,879796871,,-1.24729121190902e-222,-5.38014506336156e-232,5e-324,5e-324,-5e-324,0.0
1668680994.8883522,82640,1668680994,888058838,,-6.599141006684317e-223,-2.84651535828581e-232,5e-324,5e-324,-5e-324,0.0
1668680994.8955185,82641,1668680994,895282684,,-6.599141006684317e-223,-2.84651535828581e-232,5e-324,5e-324,-5e-324,0.0
1668680994.9040048,82642,1668680994,903763934,,-3.491459060266275e-223,-1.5060281069623036e-232,5e-324,5e-324,-5e-324,0.0
1668680994.9127948,82643,1668680994,912415116,,-1.8472535072622077e-223,-7.968060500212221e-233,5e-324,5e-324,-5e-324,0.0
1668680994.9199038,82644,1668680994,919648420,,-9.77340836937176e-224,-4.215723985596997e-233,5e-324,5e-324,-5e-324,0.0
1668680994.9278169,82645,1668680994,927547742,,-5.170893479372752e-224,-2.230446006561381e-233,5e-324,5e-324,-5e-324,0.0
1668680994.9354858,82646,1668680994,935306701,,-5.170893479372752e-224,-2.230446006561381e-233,5e-324,5e-324,-5e-324,0.0
1668680994.9438574,82647,1668680994,943554829,,-2.7358049888524595e-224,-1.1800794846110181e-233,5e-324,5e-324,-5e-324,0.0
1668680994.9519045,82648,1668680994,951694599,,-1.4474537073499954e-224,-6.243538672997162e-234,5e-324,5e-324,-5e-324,0.0
1668680994.9598193,82649,1668680994,959560320,,-7.658156350537436e-225,-3.303317756944183e-234,5e-324,5e-324,-5e-324,0.0
1668680994.9680028,82650,1668680994,967753512,,-4.051760577313985e-225,-1.74771211885592e-234,5e-324,5e-324,-5e-324,0.0
1668680994.9754906,82651,1668680994,975249928,,-4.051760577313985e-225,-1.74771211885592e-234,5e-324,5e-324,-5e-324,0.0
1668680994.9844546,82652,1668680994,984182805,,-2.1436966058708973e-225,-9.246756973272499e-235,5e-324,5e-324,-5e-324,0.0
1668680994.9926436,82653,1668680994,992255707,,-1.1341823018251576e-225,-4.8922539130034114e-235,5e-324,5e-324,-5e-324,0.0
1668680995.0000758,82654,1668680994,999675057,,-6.000706864257095e-226,-2.5883829777810967e-235,5e-324,5e-324,-5e-324,0.0
1668680995.0080261,82655,1668680995,7820008,,-3.1748408357982983e-226,-1.3694559928419369e-235,5e-324,5e-324,-5e-324,0.0
1668680995.015978,82656,1668680995,15695109,,-3.1748408357982983e-226,-1.3694559928419369e-235,5e-324,5e-324,-5e-324,0.0
1668680995.0248055,82657,1668680995,24535417,,-1.6797378310030685e-226,-7.245487752119274e-236,5e-324,5e-324,-5e-324,0.0
1668680995.032411,82658,1668680995,32132567,,-8.88712010091503e-227,-3.833426779721986e-236,5e-324,5e-324,-5e-324,0.0
1668680995.040854,82659,1668680995,40408996,,-4.701978024804259e-227,-2.0281810387701507e-236,5e-324,5e-324,-5e-324,0.0
1668680995.048928,82660,1668680995,48678374,,-2.4877122278864924e-227,-1.07306557876269e-236,5e-324,5e-324,-5e-324,0.0
1668680995.0559452,82661,1668680995,55540154,,-2.4877122278864924e-227,-1.07306557876269e-236,5e-324,5e-324,-5e-324,0.0
1668680995.063838,82662,1668680995,63547376,,-1.3161933331310302e-227,-5.677351845393129e-237,5e-324,5e-324,-5e-324,0.0
1668680995.0718057,82663,1668680995,71595324,,-6.963686839495706e-228,-3.0037608711253794e-237,5e-324,5e-324,-5e-324,0.0
1668680995.0798867,82664,1668680995,79687350,,-3.684332170503261e-228,-1.589223218255399e-237,5e-324,5e-324,-5e-324,0.0
1668680995.0885937,82665,1668680995,88378304,,-1.9492983897001734e-228,-8.408227371627633e-238,5e-324,5e-324,-5e-324,0.0
1668680995.095394,82666,1668680995,95202094,,-1.9492983897001734e-228,-8.408227371627633e-238,5e-324,5e-324,-5e-324,0.0
1668680995.104199,82667,1668680995,103992929,,-1.0313305196823935e-228,-4.448606509197529e-238,5e-324,5e-324,-5e-324,0.0
1668680995.112285,82668,1668680995,112080538,,-5.4565409095318524e-229,-2.3536589817318096e-238,5e-324,5e-324,-5e-324,0.0
1668680995.1197662,82669,1668680995,119551762,,-2.8869347051383476e-229,-1.2452687354643354e-238,5e-324,5e-324,-5e-324,0.0
1668680995.128013,82670,1668680995,127842682,,-1.5274130864066577e-229,-6.588440532638049e-239,5e-324,5e-324,-5e-324,0.0
1668680995.1354816,82671,1668680995,135278377,,-1.5274130864066577e-229,-6.588440532638049e-239,5e-324,5e-324,-5e-324,0.0
1668680995.1452994,82672,1668680995,145038080,,0.10806769353783734,-3.4857976769104496e-239,5e-324,5e-324,-5e-324,0.0
1668680995.1517985,82673,1668680995,151590084,,0.21353855384396497,-1.844258194964544e-239,5e-324,5e-324,-5e-324,0.0
1668680995.1599977,82674,1668680995,159746457,,0.2693397530027107,-9.757560836716507e-240,5e-324,5e-324,-5e-324,0.0
1668680995.1677752,82675,1668680995,167545847,,0.333351220465209,-5.162508901529059e-240,5e-324,5e-324,-5e-324,0.0
1668680995.1760137,82676,1668680995,175788080,,0.3468138254357514,-2.731368894783668e-240,5e-324,5e-324,-5e-324,0.0
1668680995.1838548,82677,1668680995,183579044,,0.3468138254357514,-2.731368894783668e-240,5e-324,5e-324,-5e-324,0.0
1668680995.19186,82678,1668680995,191663828,,0.35393540635911863,-1.4451066684228097e-240,5e-324,5e-324,-5e-324,0.0
1668680995.1999881,82679,1668680995,199771149,,0.2039908633396167,-7.645738688422292e-241,5e-324,5e-324,-5e-324,0.0
1668680995.2082422,82680,1668680995,207995693,,0.12465228345694492,-4.045190667858295e-241,5e-324,5e-324,-5e-324,0.0
1668680995.2158551,82681,1668680995,215637455,,0.06595075692696889,-2.1402206125755632e-241,5e-324,5e-324,-5e-324,0.0
1668680995.2234766,82682,1668680995,223245633,,0.06595075692696889,-2.1402206125755632e-241,5e-324,5e-324,-5e-324,0.0
1668680995.2318778,82683,1668680995,231651722,,0.034893081928518865,-1.1323432309109089e-241,5e-324,5e-324,-5e-324,0.0
1668680995.239973,82684,1668680995,239723270,,0.018461155310447286,-5.990976748171498e-242,5e-324,5e-324,-5e-324,0.0
1668680995.2477274,82685,1668680995,247497743,,0.04567885449013663,-0.003887271097806326,5e-324,5e-324,-5e-324,0.0
1668680995.255511,82686,1668680995,255308266,,0.04567885449013663,-0.003887271097806326,5e-324,5e-324,-5e-324,0.0
1668680995.2638226,82687,1668680995,263645890,,0.03188573263385981,-0.15228626842719614,5e-324,5e-324,-5e-324,0.0
1668680995.2760534,82688,1668680995,275792522,,0.02458990840084865,-0.23079941742315774,5e-324,5e-324,-5e-324,0.0
1668680995.2814326,82689,1668680995,280094786,,0.19309313103195566,-0.3567860772619677,-0.032828442900675145,5e-324,-5e-324,0.0
1668680995.2915,82690,1668680995,290552888,,0.2822902774346535,-0.4234025099718477,-0.05019447819220341,5e-324,-5e-324,0.0
1668680995.299202,82691,1668680995,298467977,,0.2822902774346535,-0.4234025099718477,-0.05019447819220341,5e-324,-5e-324,0.0
1668680995.3060236,82692,1668680995,305572255,,0.14935352128041743,-0.6017120335070673,-0.1070605150532373,5e-324,-5e-324,0.0
1668680995.312768,82693,1668680995,312425692,,0.07901963369611181,-0.7217813545233746,-0.13441609153004527,5e-324,-5e-324,0.0
1668680995.3200212,82694,1668680995,319839253,,0.04180753460605812,-0.7853805279217818,-0.14878730368711252,5e-324,-5e-324,0.0
1668680995.3279085,82695,1668680995,327686488,,0.3475292849448901,-0.8810677855586131,-0.07872006053284342,5e-324,-5e-324,0.0
1668680995.335699,82696,1668680995,335507179,,0.3475292849448901,-0.8810677855586131,-0.07872006053284342,5e-324,-5e-324,0.0
1668680995.3439856,82697,1668680995,343722259,,0.18387003238749572,-2.3677857534144833,-0.04164903709342025,5e-324,-5e-324,0.0
1668680995.3520153,82698,1668680995,351824982,,0.09728155374169374,-3.1543716941806847,-0.022035581261848396,5e-324,-5e-324,0.0
1668680995.3597927,82699,1668680995,359499864,,0.05146951123853523,-4.946338455306858,-1.101559630657866,5e-324,-0.15254091150964816,0.0
1668680995.3679783,82700,1668680995,367786503,,0.02723137619869579,-5.894652112550768,-1.672194922833799,5e-324,-0.23324513209004,0.0
1668680995.3757415,82701,1668680995,375455572,,0.02723137619869579,-5.894652112550768,-1.672194922833799,5e-324,-0.23324513209004,0.0
1668680995.3839345,82702,1668680995,383686978,,0.2986378460773061,-7.226233916913495,-2.9022168810357583,5e-324,-0.42203360941814355,0.0
1668680995.391957,82703,1668680995,391740074,,0.7281885040621916,-8.078740268303296,-3.5989935973102885,5e-324,-0.5417451199105555,0.0
1668680995.4000785,82704,1668680995,399816590,,0.955547859068981,-8.52974929739806,-3.9676660745032297,5e-324,-0.6050821608036003,0.0
1668680995.407818,82705,1668680995,407593704,,1.0086142263859044,-8.912145754655523,-3.9846971849494435,5e-324,-0.6716816543096147,0.0
1668680995.4157052,82706,1668680995,415508012,,1.0086142263859044,-8.912145754655523,-3.9846971849494435,5e-324,-0.6716816543096147,0.0
1668680995.4239516,82707,1668680995,423590342,,1.2254884273672708,-8.895874358891668,-3.981357696097068,5e-324,-0.6768425802656817,0.0
1668680995.4320478,82708,1668680995,431782193,,1.3404287993486554,-8.887197588734928,-3.979627904891698,5e-324,-0.6795691937213316,0.0
1668680995.4403033,82709,1668680995,440065923,,1.6511435538477892,-8.586903031123123,-4.023979401992085,5e-324,-0.6486813801865183,0.0
1668680995.4491851,82710,1668680995,448884214,,1.816054265735099,-8.427770962029829,-4.047599167201338,5e-324,-0.6323284492446959,0.0
1668680995.4559228,82711,1668680995,455681670,,1.8798677990524282,-8.01973182456335,-3.684785104696152,5e-324,-0.5900121188283709,0.0
1668680995.4639416,82712,1668680995,463697286,,1.8798677990524282,-8.01973182456335,-3.684785104696152,5e-324,-0.5900121188283709,0.0
1668680995.4717934,82713,1668680995,471568215,,2.104535790254561,-7.908193077071502,-3.58684373237565,5e-324,-0.5905649043369647,0.0
1668680995.4796467,82714,1668680995,479454580,,2.223399769654713,-7.849202821946653,-3.5349832897517364,5e-324,-0.5908572910060066,0.0
1668680995.4879398,82715,1668680995,487714964,,2.4640526007880657,-7.954945049268403,-3.651731752441111,5e-324,-0.6151237807471208,0.0
1668680995.4958334,82716,1668680995,495587237,,2.4763618134265863,-8.162362246026571,-3.743147947613534,5e-324,-0.6528524694181435,0.0
1668680995.503569,82717,1668680995,503371450,,2.4763618134265863,-8.162362246026571,-3.743147947613534,5e-324,-0.6528524694181435,0.0
1668680995.511874,82718,1668680995,511632612,,2.482840026116111,-8.272211717713324,-3.791326367184971,5e-324,-0.672815467752284,0.0
1668680995.5202858,82719,1668680995,519594303,,2.6922790383834405,-8.313560622095547,-3.98825829618945,5e-324,-0.6774980435275317,0.0
1668680995.5280693,82720,1668680995,527762204,,2.8027249520743456,-8.335457168336196,-4.092689212732931,5e-324,-0.6799991483438312,0.0
1668680995.5356553,82721,1668680995,535451254,,2.8027249520743456,-8.335457168336196,-4.092689212732931,5e-324,-0.6799991483438312,0.0
1668680995.5439782,82722,1668680995,543760563,,2.8821622815756607,-8.48154343022653,-4.121914131883318,5e-324,-0.7052910775098418,0.0
1668680995.5517528,82723,1668680995,551521695,,2.6383940455375368,-8.2422299187369,-3.279705009695374,5e-324,-0.6459184025353157,0.0
1668680995.5598536,82724,1668680995,559617204,,2.5095321860583137,-8.11564927106281,-2.833905569563922,5e-324,-0.6145037925375216,0.0
1668680995.5680108,82725,1668680995,567743602,,2.2793806667394296,-8.350487218232399,-2.4874512150481713,5e-324,-0.6396514312407272,0.0
1668680995.5759327,82726,1668680995,575711106,,2.19844180909298,-8.46191670403146,-2.2956141731686617,5e-324,-0.6500188210675923,0.0
1668680995.5836365,82727,1668680995,583390577,,2.19844180909298,-8.46191670403146,-2.2956141731686617,5e-324,-0.6500188210675923,0.0
1668680995.5926948,82728,1668680995,591818718,,2.155944663832408,-8.520676717387122,-2.1943951733429503,5e-324,-0.6554955701101545,0.0
1668680995.59983,82729,1668680995,599492141,,2.3752676046312606,-8.3149795033683,-2.6980816915808816,5e-324,-0.6354101591264896,0.0
1668680995.6079571,82730,1668680995,607747549,,2.4915510956487896,-8.206080215977792,-2.9645112550995094,5e-324,-0.6247750330188989,0.0
1668680995.6155412,82731,1668680995,615263002,,2.4915510956487896,-8.206080215977792,-2.9645112550995094,5e-324,-0.6247750330188989,0.0
1668680995.6238568,82732,1668680995,623613499,,2.6570498130999027,-7.959199564116222,-3.015905136195017,5e-324,-0.5994560590316877,0.0
1668680995.6325686,82733,1668680995,632251200,,2.857710750150603,-7.910437995494762,-2.9337963238657574,5e-324,-0.6047718513230085,0.0
1668680995.6406298,82734,1668680995,640308351,,2.9638556368873514,-7.884623455708282,-2.8904126126306444,5e-324,-0.607587030360748,0.0
1668680995.648218,82735,1668680995,647998490,,3.0994468605882077,-7.829817400016168,-2.7461190404570117,5e-324,-0.6063761934792644,0.0
1668680995.656667,82736,1668680995,656437454,,3.0152741297176426,-7.964506734914968,-2.670616220452893,5e-324,-0.6314567997205252,0.0
1668680995.6642668,82737,1668680995,663943039,,3.0152741297176426,-7.964506734914968,-2.670616220452893,5e-324,-0.6314567997205252,0.0
1668680995.6725976,82738,1668680995,672322540,,2.9708337369861297,-8.035661015587955,-2.6308387263174473,5e-324,-0.6447189793781375,0.0
1668680995.6802275,82739,1668680995,679985167,,3.042446495898126,-8.153496598150628,-2.726301546866731,5e-324,-0.6617387134547041,0.0
1668680995.688025,82740,1668680995,687764851,,3.0805926550268454,-8.21564804064084,-2.7769987894776444,5e-324,-0.6707329834279456,0.0
1668680995.6955214,82741,1668680995,695291207,,3.0805926550268454,-8.21564804064084,-2.7769987894776444,5e-324,-0.6707329834279456,0.0
1668680995.7037578,82742,1668680995,703551713,,3.1662845967740685,-8.286999196725716,-2.6998572629852786,5e-324,-0.677055846678728,0.0
1668680995.7117076,82743,1668680995,711473357,,3.1139801355341747,-8.291349376556127,-2.691461427048538,5e-324,-0.6739091152117835,0.0
1668680995.7198615,82744,1668680995,719615606,,3.0863678581742535,-8.293641896504704,-2.6869752385103083,5e-324,-0.6722368371523513,0.0
1668680995.7278504,82745,1668680995,727629663,,3.0868794448061108,-8.033549141370072,-2.4594740589034156,5e-324,-0.642451858246933,0.0
1668680995.7359512,82746,1668680995,735653509,,3.2444470939618393,-7.687974536305899,-2.292318006255765,5e-324,-0.5980800000621361,0.0
1668680995.7450957,82747,1668680995,744529506,,3.2444470939618393,-7.687974536305899,-2.292318006255765,5e-324,-0.5980800000621361,0.0
1668680995.752385,82748,1668680995,752158925,,3.3282568273458026,-7.504882694050385,-2.2039311097620113,5e-324,-0.5745795219646528,0.0
1668680995.7600076,82749,1668680995,759668398,,3.156938458758209,-7.4976362138303205,-1.9421516883403211,5e-324,-0.5678934522182555,0.0
1668680995.7677374,82750,1668680995,767539975,,3.066356509759363,-7.493714770973327,-1.8038424499929555,5e-324,-0.5643505302464198,0.0
1668680995.7761307,82751,1668680995,775888800,,2.954427640594887,-7.639688601800585,-1.8166922666652883,5e-324,-0.5794400197392524,0.0
1668680995.7835872,82752,1668680995,783321483,,2.954427640594887,-7.639688601800585,-1.8166922666652883,5e-324,-0.5794400197392524,0.0
1668680995.7918513,82753,1668680995,791589393,,2.9747284998997428,-7.760895722189954,-1.9177846435037584,5e-324,-0.59407750889454,0.0
1668680995.800003,82754,1668680995,799785876,,2.9852294642342834,-7.825419652145262,-1.97042417679845,5e-324,-0.6018317040237189,0.0
1668680995.8079038,82755,1668680995,807688763,,3.164261994459631,-8.096809886399097,-2.0888323460862988,5e-324,-0.6464866287013937,0.0
1668680995.8156872,82756,1668680995,815434217,,3.164261994459631,-8.096809886399097,-2.0888323460862988,5e-324,-0.6464866287013937,0.0
1668680995.8238509,82757,1668680995,823672509,,3.4396042839557768,-8.035542870965543,-2.2603420105824723,5e-324,-0.6438003015654337,0.0
1668680995.8332317,82758,1668680995,831589377,,3.584799459496695,-8.003582316406401,-2.3505669489669065,5e-324,-0.6424090142039683,0.0
1668680995.8398166,82759,1668680995,839570152,,3.738296189871356,-8.010189295429385,-2.37919410433373,5e-324,-0.6449294150334118,0.0
1668680995.8479862,82760,1668680995,847763511,,3.8196348649094354,-8.013676772788772,-2.394178806463153,5e-324,-0.6462595624801996,0.0
1668680995.855609,82761,1668680995,855404861,,3.8196348649094354,-8.013676772788772,-2.394178806463153,5e-324,-0.6462595624801996,0.0
1668680995.8636105,82762,1668680995,863430482,,3.787340846340995,-7.948016244681112,-2.3745554837985923,5e-324,-0.6272453293613555,0.0
1668680995.8720267,82763,1668680995,871765065,,3.7539447142845983,-7.877870613597711,-2.3603195206775918,5e-324,-0.6075258918115201,0.0
1668680995.8806107,82764,1668680995,880330228,,3.736245012378944,-7.840787603826913,-2.3527530893803172,5e-324,-0.5970932007401242,0.0
1668680995.88828,82765,1668680995,887992276,,3.5362841355183248,-7.9761517237354544,-2.307248329970053,5e-324,-0.6059623798674636,0.0
1668680995.8958392,82766,1668680995,895612489,,3.3573578912572044,-8.119020925691078,-2.2719903368691474,5e-324,-0.6199629423928614,0.0
1668680995.9034598,82767,1668680995,903272703,,3.3573578912572044,-8.119020925691078,-2.2719903368691474,5e-324,-0.6199629423928614,0.0
1668680995.9124315,82768,1668680995,912182792,,3.2630876195644563,-8.194282416185107,-2.253767243423848,5e-324,-0.6273503918677839,0.0
1668680995.9204404,82769,1668680995,920228467,,3.170661816301717,-7.981722423073013,-2.1646014371682556,5e-324,-0.5945403866644408,0.0
1668680995.928432,82770,1668680995,928179231,,3.1219922585198745,-7.869319411040447,-2.116954483079685,5e-324,-0.577170503823464,0.0
1668680995.93534,82771,1668680995,935143813,,3.1219922585198745,-7.869319411040447,-2.116954483079685,5e-324,-0.577170503823464,0.0
1668680995.9441335,82772,1668680995,943906956,,3.0068507269091986,-7.624685392527505,-1.8032211916413305,5e-324,-0.5378692553489673,0.0
1668680995.9518254,82773,1668680995,951614873,,2.8777660808243377,-7.441316132678365,-1.652302282406424,5e-324,-0.5069272431500069,0.0
1668680995.9596772,82774,1668680995,959459543,,2.8099455147191224,-7.344003710469217,-1.5727209646899922,5e-324,-0.4905314263507853,0.0
1668680995.9678245,82775,1668680995,967604448,,2.7352243282306876,-7.243673233293567,-1.6020447390713088,5e-324,-0.46922311843654985,0.0
1668680995.9755657,82776,1668680995,975322645,,2.7352243282306876,-7.243673233293567,-1.6020447390713088,5e-324,-0.46922311843654985,0.0
1668680995.9837577,82777,1668680995,983579062,,2.6862297085417115,-7.163058058479621,-1.5847762596365067,5e-324,-0.4572112060973562,0.0
1668680995.9920273,82778,1668680995,991811876,,2.660348532335327,-7.120430657696627,-1.575505683137984,5e-324,-0.4508478082830524,0.0
1668680995.9997344,82779,1668680995,999535828,,2.702989369510165,-7.292790739344619,-1.5387955120238126,5e-324,-0.48600516535938676,0.0
1668680996.0077255,82780,1668680996,7495532,,2.725571359819768,-7.384043684847484,-1.5191329585616118,5e-324,-0.5046073925337188,0.0
1668680996.015861,82781,1668680996,15642681,,2.725571359819768,-7.384043684847484,-1.5191329585616118,5e-324,-0.5046073925337188,0.0
1668680996.0242236,82782,1668680996,23955193,,3.0132810181491765,-7.693114665229842,-1.8445542618548472,5e-324,-0.5618691630445186,0.0
1668680996.0323026,82783,1668680996,31915218,,3.186235967594077,-7.891902360278052,-2.07796847613331,5e-324,-0.5999106469546087,0.0
1668680996.040897,82784,1668680996,40549690,,3.2775147796279804,-7.997247394563508,-2.2012951789978783,5e-324,-0.6200453326560695,0.0
1668680996.0477602,82785,1668680996,47571186,,3.1104338531106435,-7.733881426644473,-1.99365464569119,5e-324,-0.579583817910307,0.0
1668680996.055574,82786,1668680996,55381933,,3.1104338531106435,-7.733881426644473,-1.99365464569119,5e-324,-0.579583817910307,0.0
1668680996.0637465,82787,1668680996,63504656,,3.290831325049092,-7.264543451101931,-1.8404198247415822,5e-324,-0.502256428259584,0.0
1668680996.0719075,82788,1668680996,71661773,,3.3861925870252856,-7.016274549966257,-1.7593490515417174,5e-324,-0.4613507268091027,0.0
1668680996.0797467,82789,1668680996,79539863,,3.35039067756769,-6.689124045158481,-1.3947487338483495,5e-324,-0.41703602627778646,0.0
1668680996.0877612,82790,1668680996,87553814,,3.3313036554624906,-6.516262785715395,-1.2013249634578742,5e-324,-0.39360652094251786,0.0
1668680996.095663,82791,1668680996,95465435,,3.4315454965839587,-6.607491926059106,-1.2229821658958944,5e-324,-0.4246189283364939,0.0
1668680996.1037703,82792,1668680996,103518477,,3.4315454965839587,-6.607491926059106,-1.2229821658958944,5e-324,-0.4246189283364939,0.0
1668680996.1118178,82793,1668680996,111574728,,3.71892003786939,-6.793964929496228,-1.5203633263260743,5e-324,-0.4672137934385254,0.0
1668680996.1197689,82794,1668680996,119561855,,3.8707925377077768,-6.892734675315211,-1.6776918277730064,5e-324,-0.48976454626845534,0.0
1668680996.1283197,82795,1668680996,127962636,,4.130642641434431,-7.175209454481129,-2.0399148988246636,5e-324,-0.5459552286450499,0.0
1668680996.135591,82796,1668680996,135263651,,4.130642641434431,-7.175209454481129,-2.0399148988246636,5e-324,-0.5459552286450499,0.0
1668680996.1437078,82797,1668680996,143520145,,4.239716161084104,-7.402467053499417,-2.2675901692824914,5e-324,-0.5882483398804508,0.0
1668680996.1516674,82798,1668680996,151471394,,4.2970192044385325,-7.522960033700777,-2.3880357944309516,5e-324,-0.6106597459327694,0.0
1668680996.1598787,82799,1668680996,159684357,,4.296488339261105,-7.602898897126832,-2.4985464505065327,5e-324,-0.6190344596653454,0.0
1668680996.1680024,82800,1668680996,167617163,,4.296073860342959,-7.645115373398415,-2.5573961835671453,5e-324,-0.623472148070289,0.0
1668680996.1756701,82801,1668680996,175380794,,4.296073860342959,-7.645115373398415,-2.5573961835671453,5e-324,-0.623472148070289,0.0
1668680996.1840365,82802,1668680996,183721491,,4.276987810023856,-7.5946995871617435,-2.6087600868402463,5e-324,-0.6123441865665149,0.0
1668680996.1923223,82803,1668680996,191927822,,4.013114560032794,-7.453946322793474,-2.4145706001575444,5e-324,-0.5889645284784092,0.0
1668680996.1999898,82804,1668680996,199620356,,3.8733107633631927,-7.379671536549437,-2.3116107794068497,5e-324,-0.5766094189962944,0.0
1668680996.2079105,82805,1668680996,207599801,,3.815625703376371,-7.059416054338747,-2.003532252685662,5e-324,-0.5248725802908026,0.0
1668680996.215583,82806,1668680996,215336134,,3.815625703376371,-7.059416054338747,-2.003532252685662,5e-324,-0.5248725802908026,0.0
1668680996.2237225,82807,1668680996,223525348,,3.8635743545889003,-6.821274737024732,-1.776376101449439,5e-324,-0.48072573289466164,0.0
1668680996.2319968,82808,1668680996,231792551,,3.8886181528922648,-6.6955379041212275,-1.6560518342673696,5e-324,-0.45739532937705213,0.0
1668680996.239983,82809,1668680996,239747328,,3.766550890163803,-6.613127164445457,-1.4220065824622519,5e-324,-0.44814968690022133,0.0
1668680996.2477667,82810,1668680996,247518309,,3.702118853693934,-6.5694162730716394,-1.2982349142152039,5e-324,-0.4432449699995389,0.0
1668680996.255854,82811,1668680996,255638878,,3.723752912830413,-6.565157485620075,-1.2757752219927405,5e-324,-0.44490176813746424,0.0
1668680996.2635977,82812,1668680996,263373987,,3.723752912830413,-6.565157485620075,-1.2757752219927405,5e-324,-0.44490176813746424,0.0
1668680996.27188,82813,1668680996,271642840,,3.614493307496077,-6.580367905961516,-1.2443500734132509,5e-324,-0.44356846060743854,0.0
1668680996.2800217,82814,1668680996,279714686,,3.556774591339375,-6.588210418131335,-1.228249387586414,5e-324,-0.4428550666541394,0.0
1668680996.287865,82815,1668680996,287583349,,3.455293350251387,-6.703523802697491,-1.32076333483735,5e-324,-0.45077068058790437,0.0
1668680996.295588,82816,1668680996,295367974,,3.455293350251387,-6.703523802697491,-1.32076333483735,5e-324,-0.45077068058790437,0.0
1668680996.3037486,82817,1668680996,303536547,,3.390167731949985,-6.782109508223629,-1.4207018940788034,5e-324,-0.4558489989278418,0.0
1668680996.311983,82818,1668680996,311739678,,3.3555646053325052,-6.823860553566041,-1.4732891491143305,5e-324,-0.4585487467809913,0.0
1668680996.3200066,82819,1668680996,319629243,,3.3041049581629496,-6.799717309612049,-1.5016116071019414,5e-324,-0.44980099701133885,0.0
1668680996.3281617,82820,1668680996,327893444,,3.276757124556059,-6.787092617278859,-1.5163432729639499,5e-324,-0.4451745580949161,0.0
1668680996.3362424,82821,1668680996,335949727,,3.1272027413258074,-6.716850769550804,-1.3640829277651116,5e-324,-0.43278363685830235,0.0
1668680996.3436222,82822,1668680996,343326413,,3.1272027413258074,-6.716850769550804,-1.3640829277651116,5e-324,-0.43278363685830235,0.0
1668680996.3519158,82823,1668680996,351690869,,3.1484131428206465,-6.458594942986644,-1.0016735206993206,5e-324,-0.40041151426314525,0.0
1668680996.3602808,82824,1668680996,359981579,,3.159674428672237,-6.321918988249258,-0.8100010311546071,5e-324,-0.38328367467509683,0.0
1668680996.3679605,82825,1668680996,367731417,,4.001076984491535,-5.156531228714094,-0.4867402415828911,5e-324,-0.22171133228000445,0.0
1668680996.3757086,82826,1668680996,375458098,,4.001076984491535,-5.156531228714094,-0.4867402415828911,5e-324,-0.22171133228000445,0.0
1668680996.3836653,82827,1668680996,383482188,,4.557522052497366,-4.394086180190425,-0.310356270192225,5e-324,-0.11730254575082436,0.0
1668680996.3916664,82828,1668680996,391452291,,4.851825092837597,-3.9907944414235974,-0.21717747795974035,5e-324,-0.0620621738100719,0.0
1668680996.399821,82829,1668680996,399502534,,4.303084068978447,-4.362457629915847,-0.19365530039399875,5e-324,-0.11632989600345142,0.0
1668680996.4079373,82830,1668680996,407695726,,4.012772663326793,-4.559073581600386,-0.18126170500832683,5e-324,-0.1450416489104216,0.0
1668680996.415475,82831,1668680996,415244698,,4.012772663326793,-4.559073581600386,-0.18126170500832683,5e-324,-0.1450416489104216,0.0
1668680996.4241033,82832,1668680996,423835821,,3.921013084765562,-4.852391506795982,-0.4020187149184746,5e-324,-0.1890994913294097,0.0
1668680996.432382,82833,1668680996,431595891,,3.9571548181387364,-5.263002610385646,-0.664827696828058,5e-324,-0.2473637438496562,0.0
1668680996.4400184,82834,1668680996,439730453,,3.9762682270116403,-5.4803503304618175,-0.8035437706696948,5e-324,-0.2781975489719329,0.0
1668680996.4478016,82835,1668680996,447613188,,3.7693317474395602,-5.866520151055826,-0.8698002493835766,5e-324,-0.33251108507406224,0.0
1668680996.45576,82836,1668680996,455561068,,3.5660989002243006,-6.131715190175144,-0.902721655329548,5e-324,-0.37373583087070783,0.0
1668680996.4633636,82837,1668680996,463179892,,3.5660989002243006,-6.131715190175144,-0.902721655329548,5e-324,-0.37373583087070783,0.0
1668680996.4717233,82838,1668680996,471533116,,3.45829601519888,-6.272157118808247,-0.9202489202061093,5e-324,-0.3955631692807676,0.0
1668680996.479926,82839,1668680996,479676093,,3.5767285480273716,-6.130949494411818,-0.9447610818293143,5e-324,-0.3804361007892282,0.0
1668680996.488587,82840,1668680996,488355788,,3.6391337837063436,-6.056397074355831,-0.957781872869581,5e-324,-0.3724539218111257,0.0
1668680996.496139,82841,1668680996,495659472,,3.6391337837063436,-6.056397074355831,-0.957781872869581,5e-324,-0.3724539218111257,0.0
1668680996.5045557,82842,1668680996,503819307,,3.6144271844566473,-5.958761617857826,-0.8669218145610691,5e-324,-0.3615413232335123,0.0
1668680996.5118928,82843,1668680996,511640461,,4.692882478769572,-4.159463194438047,-0.4653010949194366,5e-324,-0.19128349089460353,0.0
1668680996.520004,82844,1668680996,519722355,,5.263417874963175,-3.207557458102841,-0.25296684521333423,5e-324,-0.10120385012031814,0.0
1668680996.5275872,82845,1668680996,527418495,,5.400137540301181,-2.7473482837717684,-0.13383914402987432,5e-324,-0.0535447112099143,0.0
1668680996.5361826,82846,1668680996,535915039,,5.400137540301181,-2.7473482837717684,-0.13383914402987432,5e-324,-0.0535447112099143,0.0
1668680996.544464,82847,1668680996,544235584,,5.43933533295983,-2.551662691251683,-0.07081132098375566,5e-324,-0.028329318451270298,0.0
1668680996.5521698,82848,1668680996,551952880,,5.460221907214281,-2.447843868482699,-0.037464698506628535,5e-324,-0.014988413715916802,0.0
1668680996.5606644,82849,1668680996,560417419,,5.311923737413647,-2.3998832952013585,-0.01982174057329852,5e-324,-0.007930037078227325,0.0
1668680996.5685494,82850,1668680996,568325273,,5.233493268099231,-2.3744597248248294,-0.010487243058572425,5e-324,-0.004195606636830389,0.0
1668680996.5759792,82851,1668680996,575776546,,5.233493268099231,-2.3744597248248294,-0.010487243058572425,5e-324,-0.004195606636830389,0.0
1668680996.5848496,82852,1668680996,584566458,,5.1205122764612945,-2.358712640164158,-0.0055485675722005195,5e-324,-0.002219802363767786,0.0
1668680996.5922837,82853,1668680996,592084449,,5.245853252404295,-2.5538242294356395,-0.00293562397012528,5e-324,-0.0011744481694097985,0.0
1668680996.6000805,82854,1668680996,599860712,,5.312234326369634,-2.656944571315292,-0.0015531734960121109,5e-324,-0.00062137446339539,0.0
1668680996.607754,82855,1668680996,607567802,,5.523374539550674,-2.6149469381773223,-0.0008217496291296237,5e-324,-0.0003287554392067731,0.0
1668680996.6157997,82856,1668680996,615561049,,5.523374539550674,-2.6149469381773223,-0.0008217496291296237,5e-324,-0.0003287554392067731,0.0
1668680996.6252882,82857,1668680996,623750379,,5.634507430303335,-2.5405191588077978,-0.00043476949272472566,5e-324,-0.0001739372072316162,0.0
1668680996.63198,82858,1668680996,631710597,,5.693277149517577,-2.501161591003518,-0.00023002689031247295,5e-324,-9.202631637831439e-05,0.0
1668680996.6404028,82859,1668680996,640038976,,5.584766725937555,-2.4640010275196813,-0.00012170212296916595,5e-324,-4.868908177239177e-05,0.0
1668680996.648115,82860,1668680996,647856206,,5.527432522458671,-2.4442037712874276,-6.438989248205673e-05,5e-324,-2.5760312670705578e-05,0.0
1668680996.6555147,82861,1668680996,655300312,,5.527432522458671,-2.4442037712874276,-6.438989248205673e-05,5e-324,-2.5760312670705578e-05,0.0
1668680996.6638265,82862,1668680996,663584457,,5.546067518831332,-2.485216720250623,-3.4067263189001704e-05,5e-324,-1.3629209768108478e-05,0.0
1668680996.6721148,82863,1668680996,671880790,,5.489401297219068,-2.479330515588213,-1.802423294171712e-05,5e-324,-7.210912432532043e-06,0.0
1668680996.6799765,82864,1668680996,679767636,,5.459494702931334,-2.476044879705361,-9.53622166051081e-06,5e-324,-3.815133745414617e-06,0.0
1668680996.687843,82865,1668680996,687632093,,5.427095321668055,-2.38607826725466,-5.045403255298363e-06,5e-324,-2.0185026002722414e-06,0.0
1668680996.6957185,82866,1668680996,695499320,,5.364621279267755,-2.351762203371386,-2.6694108961401547e-06,5e-324,-1.0679449317347621e-06,0.0
1668680996.7035341,82867,1668680996,703323982,,5.364621279267755,-2.351762203371386,-2.6694108961401547e-06,5e-324,-1.0679449317347621e-06,0.0
1668680996.712202,82868,1668680996,711948473,,5.331531848289843,-2.3336355521686336,-1.4123260662958442e-06,5e-324,-5.650259638328641e-07,0.0
1668680996.7205455,82869,1668680996,720159681,,5.203088678591833,-2.3141874909940263,-7.472303797151975e-07,5e-324,-2.9894269855905646e-07,0.0
1668680996.728884,82870,1668680996,728461306,,5.135207559847598,-2.30380442297541,-3.953430115707843e-07,5e-324,-1.5816394775126786e-07,0.0
1668680996.7360456,82871,1668680996,735775547,,5.135207559847598,-2.30380442297541,-3.953430115707843e-07,5e-324,-1.5816394775126786e-07,0.0
1668680996.7444108,82872,1668680996,744164839,,5.165309191498303,-2.3505113534000737,-2.0916721407583647e-07,5e-324,-8.36810348232134e-08,0.0
1668680996.7525237,82873,1668680996,752302375,,5.304029005158274,-2.4508561764009644,-1.1066573118471176e-07,5e-324,-4.427377849784178e-08,0.0
1668680996.7606335,82874,1668680996,760348626,,5.377421799000393,-2.5039447659757785,-5.855078250555366e-08,5e-324,-2.3424273691369315e-08,0.0
1668680996.7683878,82875,1668680996,768176679,,5.340745045827314,-2.5358670562528722,-3.097791968039919e-08,5e-324,-1.239326338489325e-08,0.0
1668680996.7759306,82876,1668680996,775716851,,5.340745045827314,-2.5358670562528722,-3.097791968039919e-08,5e-324,-1.239326338489325e-08,0.0
1668680996.7844634,82877,1668680996,784140381,,5.338761162179763,-2.4914353150920006,-1.6389729849199548e-08,5e-324,-6.557000628964095e-09,0.0
1668680996.7932363,82878,1668680996,792281175,,5.33780478332209,-2.467793332509046,-8.671442346714778e-09,5e-324,-3.4691635215824854e-09,0.0
1668680996.8024573,82879,1668680996,801793123,,5.7883494124594375,-2.677556770821492,-4.587867711319882e-09,0.01186363137655883,-1.8354574325212396e-09,0.0
1668680996.8096037,82880,1668680996,809203698,,6.026817828698456,-2.788370875301193,-2.427338993327434e-09,0.018160793033465822,-9.710997955670622e-10,0.0
1668680996.816235,82881,1668680996,815918928,,6.231224790116098,-2.8800432814244132,-1.2842511945124898e-09,0.03452828174886448,-5.137873514478671e-10,0.0
1668680996.823584,82882,1668680996,823376881,,6.231224790116098,-2.8800432814244132,-1.2842511945124898e-09,0.03452828174886448,-5.137873514478671e-10,0.0
1668680996.8325717,82883,1668680996,832357394,,6.4328710839792205,-2.8993684664768455,-6.794688072578891e-10,0.05140913665092395,-2.718334858197222e-10,0.0
1668680996.8404768,82884,1668680996,840183991,,6.539281871022503,-2.910170054768238,-3.5949186733029626e-10,0.06026871450885089,-1.4382106489127713e-10,0.0
1668680996.848642,82885,1668680996,848346255,,6.646880826240167,-2.8585170661450254,-1.9019916925718863e-10,0.07477975005299284,-7.609253379540864e-11,0.0
1668680996.8565223,82886,1668680996,855742999,,6.692202226280569,-2.771745767514778,-1.0063015960493738e-10,0.07806472489604073,-4.025887100601338e-11,0.0
1668680996.8635843,82887,1668680996,863334367,,6.692202226280569,-2.771745767514778,-1.0063015960493738e-10,0.07806472489604073,-4.025887100601338e-11,0.0
1668680996.8720016,82888,1668680996,871670944,,6.716029516858242,-2.726084349334502,-5.324118428941267e-11,0.07977849070624823,-2.1300075235195037e-11,0.0
1668680996.8799906,82889,1668680996,879723396,,6.708032166955999,-2.689941070086587,-2.8168729093421036e-11,0.07817369984034805,-1.1269397121374857e-11,0.0
1668680996.8878772,82890,1668680996,887655763,,6.703937548711053,-2.6705530626795038,-1.4903449450434794e-11,0.07735372206257124,-5.9623879294757346e-12,0.0
1668680996.8957486,82891,1668680996,895528024,,6.693952602738888,-2.66493674449611,-7.885084370865026e-12,0.07650206407965754,-3.1545671377690222e-12,0.0
1668680996.9035478,82892,1668680996,903353584,,6.693952602738888,-2.66493674449611,-7.885084370865026e-12,0.07650206407965754,-3.1545671377690222e-12,0.0
1668680996.9118068,82893,1668680996,911597995,,6.548793485614594,-2.5927022570627516,-4.171823156943442e-12,0.054937355921140726,-1.6690114672842574e-12,0.0
1668680996.9199266,82894,1668680996,919664248,,6.47204519454788,-2.554369552248647,-2.207219052356221e-12,0.04354121213542082,-8.830369290844719e-13,0.0
1668680996.9278772,82895,1668680996,927652013,,6.353350748356606,-2.5707246220051783,-1.1677906185874172e-12,0.032546456024786945,-4.671952430594841e-13,0.0
1668680996.9355376,82896,1668680996,935334825,,6.353350748356606,-2.5707246220051783,-1.1677906185874172e-12,0.032546456024786945,-4.671952430594841e-13,0.0
1668680996.9444695,82897,1668680996,944011911,,6.241063918272793,-2.645907791588014,-6.178521009978535e-13,0.02128567629588466,-2.471826352310237e-13,0.0
1668680996.9518948,82898,1668680996,951684748,,6.18154812147131,-2.6859001243516616,-3.268918354295598e-13,0.015301579639794373,-1.307788468898731e-13,0.0
1668680996.9601123,82899,1668680996,959725420,,6.099168675843659,-2.662681042174042,-1.729512158296887e-13,0.00809572621885661,-6.91921856802758e-14,0.0
1668680996.9676867,82900,1668680996,967532285,,6.055412077196118,-2.6507376884380234,-9.150465020841175e-14,0.004283269084208295,-3.66080499489745e-14,0.0
1668680996.9755576,82901,1668680996,975347724,,6.055412077196118,-2.6507376884380234,-9.150465020841175e-14,0.004283269084208295,-3.66080499489745e-14,0.0
