Time,header.seq,header.stamp.secs,header.stamp.nsecs,header.frame_id,pose.position.x,pose.position.y,pose.position.z,pose.orientation.x,pose.orientation.y,pose.orientation.z,pose.orientation.w
1668680993.2963743,82441,1668680993,296230421,,-0.09879818043296344,-0.6160097982919182,0.0781922967147341,0.9955612156868467,0.09352316526210439,-0.00434759538630278,0.009611544820769187
1668680993.303916,82442,1668680993,303760519,,-0.09879818043296344,-0.6160097982919182,0.0781922967147341,0.9955612156868467,0.09352316526210439,-0.00434759538630278,0.009611544820769187
1668680993.3126438,82443,1668680993,312504394,,-0.09879818043296344,-0.6160097982919182,0.0781922967147341,0.9955612156868467,0.09352316526210439,-0.00434759538630278,0.009611544820769187
1668680993.3205898,82444,1668680993,320378891,,-0.09879818043296344,-0.6160097982919182,0.0781922967147341,0.9955612156868467,0.09352316526210439,-0.00434759538630278,0.009611544820769187
1668680993.3284352,82445,1668680993,328291601,,-0.09879818043296344,-0.6160097982919182,0.0781922967147341,0.9955612156868467,0.09352316526210439,-0.00434759538630278,0.009611544820769187
1668680993.3357115,82446,1668680993,335552748,,-0.09879818043296344,-0.6160097982919182,0.0781922967147341,0.9955612156868467,0.09352316526210439,-0.00434759538630278,0.009611544820769187
1668680993.3435655,82447,1668680993,343409689,,-0.09879818043296344,-0.6160097982919182,0.0781922967147341,0.9955612156868467,0.09352316526210439,-0.00434759538630278,0.009611544820769187
1668680993.3517194,82448,1668680993,351568134,,-0.09879818043296344,-0.6160097982919182,0.0781922967147341,0.9955612156868467,0.09352316526210439,-0.00434759538630278,0.009611544820769187
1668680993.3656104,82449,1668680993,364941728,,-0.09879818043296344,-0.6160097982919182,0.0781922967147341,0.9955612156868467,0.09352316526210439,-0.00434759538630278,0.009611544820769187
1668680993.3724153,82450,1668680993,371994466,,-0.09879818043296344,-0.6160097982919182,0.0781922967147341,0.9955612156868467,0.09352316526210439,-0.00434759538630278,0.009611544820769187
1668680993.3768456,82451,1668680993,376426767,,-0.09879818043296344,-0.6160097982919182,0.0781922967147341,0.9955612156868467,0.09352316526210439,-0.00434759538630278,0.009611544820769187
1668680993.384668,82452,1668680993,384410852,,-0.09879818043296344,-0.6160097982919182,0.0781922967147341,0.9955612156868467,0.09352316526210439,-0.00434759538630278,0.009611544820769187
1668680993.3917994,82453,1668680993,391675440,,-0.09879818043296344,-0.6160097982919182,0.0781922967147341,0.9955612156868467,0.09352316526210439,-0.00434759538630278,0.009611544820769187
1668680993.3998916,82454,1668680993,399668523,,-0.09879818043296344,-0.6160097982919182,0.0781922967147341,0.9955612156868467,0.09352316526210439,-0.00434759538630278,0.009611544820769187
1668680993.4076324,82455,1668680993,407486273,,-0.09879818043296344,-0.6160097982919182,0.0781922967147341,0.9955612156868467,0.09352316526210439,-0.00434759538630278,0.009611544820769187
1668680993.4157603,82456,1668680993,415629359,,-0.09879818043296344,-0.6160097982919182,0.0781922967147341,0.9955612156868467,0.09352316526210439,-0.00434759538630278,0.009611544820769187
1668680993.423773,82457,1668680993,423533921,,-0.09879818043296344,-0.6160097982919182,0.0781922967147341,0.9955612156868467,0.09352316526210439,-0.00434759538630278,0.009611544820769187
1668680993.43184,82458,1668680993,431689729,,-0.09879818043296344,-0.6160097982919182,0.0781922967147341,0.9955612156868467,0.09352316526210439,-0.00434759538630278,0.009611544820769187
1668680993.439763,82459,1668680993,439594163,,-0.09879818043296344,-0.6160097982919182,0.0781922967147341,0.9955612156868467,0.09352316526210439,-0.00434759538630278,0.009611544820769187
1668680993.4478612,82460,1668680993,447656404,,-0.09879818043296344,-0.6160097982919182,0.0781922967147341,0.9955612156868467,0.09352316526210439,-0.00434759538630278,0.009611544820769187
1668680993.4554095,82461,1668680993,455234033,,-0.09879818043296344,-0.6160097982919182,0.0781922967147341,0.9955612156868467,0.09352316526210439,-0.00434759538630278,0.009611544820769187
1668680993.463647,82462,1668680993,463489260,,-0.09879818043296344,-0.6160097982919182,0.0781922967147341,0.9955612156868467,0.09352316526210439,-0.00434759538630278,0.009611544820769187
1668680993.4718857,82463,1668680993,471659956,,-0.09879818043296344,-0.6160097982919182,0.0781922967147341,0.9955612156868467,0.09352316526210439,-0.00434759538630278,0.009611544820769187
1668680993.4801164,82464,1668680993,479872586,,-0.09879818043296344,-0.6160097982919182,0.0781922967147341,0.9955612156868467,0.09352316526210439,-0.00434759538630278,0.009611544820769187
1668680993.4878042,82465,1668680993,487597734,,-0.09879818043296344,-0.6160097982919182,0.0781922967147341,0.9955612156868467,0.09352316526210439,-0.00434759538630278,0.009611544820769187
1668680993.4955528,82466,1668680993,495326672,,-0.09879818043296344,-0.6160097982919182,0.0781922967147341,0.9955612156868467,0.09352316526210439,-0.00434759538630278,0.009611544820769187
1668680993.5040288,82467,1668680993,503851189,,-0.09879818043296344,-0.6160097982919182,0.0781922967147341,0.9955612156868467,0.09352316526210439,-0.00434759538630278,0.009611544820769187
1668680993.5122776,82468,1668680993,512105387,,-0.09879818043296344,-0.6160097982919182,0.0781922967147341,0.9955612156868467,0.09352316526210439,-0.00434759538630278,0.009611544820769187
1668680993.5197775,82469,1668680993,519573346,,-0.09879818043296344,-0.6160097982919182,0.0781922967147341,0.9955612156868467,0.09352316526210439,-0.00434759538630278,0.009611544820769187
1668680993.5279915,82470,1668680993,527772570,,-0.09879818043296344,-0.6160097982919182,0.0781922967147341,0.9955612156868467,0.09352316526210439,-0.00434759538630278,0.009611544820769187
1668680993.5354292,82471,1668680993,535280279,,-0.09879818043296344,-0.6160097982919182,0.0781922967147341,0.9955612156868467,0.09352316526210439,-0.00434759538630278,0.009611544820769187
1668680993.5441072,82472,1668680993,543919751,,-0.09879818043296344,-0.6160097982919182,0.0781922967147341,0.9955612156868467,0.09352316526210439,-0.00434759538630278,0.009611544820769187
1668680993.5516956,82473,1668680993,551462126,,-0.09879818043296344,-0.6160097982919182,0.0781922967147341,0.9955612156868467,0.09352316526210439,-0.00434759538630278,0.009611544820769187
1668680993.5597463,82474,1668680993,559615860,,-0.09879818043296344,-0.6160097982919182,0.0781922967147341,0.9955612156868467,0.09352316526210439,-0.00434759538630278,0.009611544820769187
1668680993.5677733,82475,1668680993,567597966,,-0.09879818043296344,-0.6160097982919182,0.0781922967147341,0.9955612156868467,0.09352316526210439,-0.00434759538630278,0.009611544820769187
1668680993.5755186,82476,1668680993,575331309,,-0.09879818043296344,-0.6160097982919182,0.0781922967147341,0.9955612156868467,0.09352316526210439,-0.00434759538630278,0.009611544820769187
1668680993.5837493,82477,1668680993,583587601,,-0.09879818043296344,-0.6160097982919182,0.0781922967147341,0.9955612156868467,0.09352316526210439,-0.00434759538630278,0.009611544820769187
1668680993.5917902,82478,1668680993,591596519,,-0.09879818043296344,-0.6160097982919182,0.0781922967147341,0.9955612156868467,0.09352316526210439,-0.00434759538630278,0.009611544820769187
1668680993.5999742,82479,1668680993,599773618,,-0.09879818043296344,-0.6160097982919182,0.0781922967147341,0.9955612156868467,0.09352316526210439,-0.00434759538630278,0.009611544820769187
1668680993.6076896,82480,1668680993,607566627,,-0.09879818043296344,-0.6160097982919182,0.0781922967147341,0.9955612156868467,0.09352316526210439,-0.00434759538630278,0.009611544820769187
1668680993.6154146,82481,1668680993,615276376,,-0.09879818043296344,-0.6160097982919182,0.0781922967147341,0.9955612156868467,0.09352316526210439,-0.00434759538630278,0.009611544820769187
1668680993.6238294,82482,1668680993,623648476,,-0.09879818043296344,-0.6160097982919182,0.0781922967147341,0.9955612156868467,0.09352316526210439,-0.00434759538630278,0.009611544820769187
1668680993.6318064,82483,1668680993,631672038,,-0.09879818043296344,-0.6160097982919182,0.0781922967147341,0.9955612156868467,0.09352316526210439,-0.00434759538630278,0.009611544820769187
1668680993.6398966,82484,1668680993,639752711,,-0.09879818043296344,-0.6160097982919182,0.0781922967147341,0.9955612156868467,0.09352316526210439,-0.00434759538630278,0.009611544820769187
1668680993.647719,82485,1668680993,647524840,,-0.09879818043296344,-0.6160097982919182,0.0781922967147341,0.9955612156868467,0.09352316526210439,-0.00434759538630278,0.009611544820769187
1668680993.6557136,82486,1668680993,655533193,,-0.09879818043296344,-0.6160097982919182,0.0781922967147341,0.9955612156868467,0.09352316526210439,-0.00434759538630278,0.009611544820769187
1668680993.6638274,82487,1668680993,663681991,,-0.09879818043296344,-0.6160097982919182,0.0781922967147341,0.9955612156868467,0.09352316526210439,-0.00434759538630278,0.009611544820769187
1668680993.67163,82488,1668680993,671464232,,-0.09879818043296344,-0.6160097982919182,0.0781922967147341,0.9955612156868467,0.09352316526210439,-0.00434759538630278,0.009611544820769187
1668680993.6798596,82489,1668680993,679647357,,-0.09879818043296344,-0.6160097982919182,0.0781922967147341,0.9955612156868467,0.09352316526210439,-0.00434759538630278,0.009611544820769187
1668680993.6876893,82490,1668680993,687558556,,-0.09879818043296344,-0.6160097982919182,0.0781922967147341,0.9955612156868467,0.09352316526210439,-0.00434759538630278,0.009611544820769187
1668680993.6958482,82491,1668680993,695489804,,-0.09879818043296344,-0.6160097982919182,0.0781922967147341,0.9955612156868467,0.09352316526210439,-0.00434759538630278,0.009611544820769187
1668680993.7036338,82492,1668680993,703490849,,-0.09879818043296344,-0.6160097982919182,0.0781922967147341,0.9955612156868467,0.09352316526210439,-0.00434759538630278,0.009611544820769187
1668680993.71218,82493,1668680993,711874169,,-0.09879818043296344,-0.6160097982919182,0.0781922967147341,0.9955612156868467,0.09352316526210439,-0.00434759538630278,0.009611544820769187
1668680993.7198806,82494,1668680993,719650735,,-0.09879818043296344,-0.6160097982919182,0.0781922967147341,0.9955612156868467,0.09352316526210439,-0.00434759538630278,0.009611544820769187
1668680993.7276406,82495,1668680993,727516314,,-0.09879818043296344,-0.6160097982919182,0.0781922967147341,0.9955612156868467,0.09352316526210439,-0.00434759538630278,0.009611544820769187
1668680993.7358112,82496,1668680993,735638910,,-0.09879818043296344,-0.6160097982919182,0.0781922967147341,0.9955612156868467,0.09352316526210439,-0.00434759538630278,0.009611544820769187
1668680993.7433271,82497,1668680993,743158354,,-0.09879818043296344,-0.6160097982919182,0.0781922967147341,0.9955612156868467,0.09352316526210439,-0.00434759538630278,0.009611544820769187
1668680993.7517655,82498,1668680993,751626114,,-0.09879818043296344,-0.6160097982919182,0.0781922967147341,0.9955612156868467,0.09352316526210439,-0.00434759538630278,0.009611544820769187
1668680993.7598834,82499,1668680993,759695596,,-0.09879818043296344,-0.6160097982919182,0.0781922967147341,0.9955612156868467,0.09352316526210439,-0.00434759538630278,0.009611544820769187
1668680993.7680557,82500,1668680993,767771852,,-0.09879818043296344,-0.6160097982919182,0.0781922967147341,0.9955612156868467,0.09352316526210439,-0.00434759538630278,0.009611544820769187
1668680993.7758572,82501,1668680993,775708259,,-0.09879818043296344,-0.6160097982919182,0.0781922967147341,0.9955612156868467,0.09352316526210439,-0.00434759538630278,0.009611544820769187
1668680993.7833934,82502,1668680993,783209339,,-0.09879818043296344,-0.6160097982919182,0.0781922967147341,0.9955612156868467,0.09352316526210439,-0.00434759538630278,0.009611544820769187
1668680993.7920127,82503,1668680993,791745735,,-0.09879818043296344,-0.6160097982919182,0.0781922967147341,0.9955612156868467,0.09352316526210439,-0.00434759538630278,0.009611544820769187
1668680993.7999747,82504,1668680993,799691511,,-0.09879818043296344,-0.6160097982919182,0.0781922967147341,0.9955612156868467,0.09352316526210439,-0.00434759538630278,0.009611544820769187
1668680993.8080459,82505,1668680993,807834883,,-0.09879818043296344,-0.6160097982919182,0.0781922967147341,0.9955612156868467,0.09352316526210439,-0.00434759538630278,0.009611544820769187
1668680993.815687,82506,1668680993,815463192,,-0.09879818043296344,-0.6160097982919182,0.0781922967147341,0.9955612156868467,0.09352316526210439,-0.00434759538630278,0.009611544820769187
1668680993.82444,82507,1668680993,824184584,,-0.09879818043296344,-0.6160097982919182,0.0781922967147341,0.9955612156868467,0.09352316526210439,-0.00434759538630278,0.009611544820769187
1668680993.8324094,82508,1668680993,832241943,,-0.09879818043296344,-0.6160097982919182,0.0781922967147341,0.9955612156868467,0.09352316526210439,-0.00434759538630278,0.009611544820769187
1668680993.8403146,82509,1668680993,840108990,,-0.09879818043296344,-0.6160097982919182,0.0781922967147341,0.9955612156868467,0.09352316526210439,-0.00434759538630278,0.009611544820769187
1668680993.848526,82510,1668680993,848286783,,-0.09879818043296344,-0.6160097982919182,0.0781922967147341,0.9955612156868467,0.09352316526210439,-0.00434759538630278,0.009611544820769187
1668680993.8559415,82511,1668680993,855751412,,-0.09879818043296344,-0.6160097982919182,0.0781922967147341,0.9955612156868467,0.09352316526210439,-0.00434759538630278,0.009611544820769187
1668680993.8639114,82512,1668680993,863717661,,-0.09879818043296344,-0.6160097982919182,0.0781922967147341,0.9955612156868467,0.09352316526210439,-0.00434759538630278,0.009611544820769187
1668680993.8718247,82513,1668680993,871594721,,-0.09879818043296344,-0.6160097982919182,0.0781922967147341,0.9955612156868467,0.09352316526210439,-0.00434759538630278,0.009611544820769187
1668680993.8799794,82514,1668680993,879821921,,-0.09879818043296344,-0.6160097982919182,0.0781922967147341,0.9955612156868467,0.09352316526210439,-0.00434759538630278,0.009611544820769187
1668680993.8877523,82515,1668680993,887626252,,-0.09879818043296344,-0.6160097982919182,0.0781922967147341,0.9955612156868467,0.09352316526210439,-0.00434759538630278,0.009611544820769187
1668680993.8955357,82516,1668680993,895336375,,-0.09879818043296344,-0.6160097982919182,0.0781922967147341,0.9955612156868467,0.09352316526210439,-0.00434759538630278,0.009611544820769187
1668680993.903867,82517,1668680993,903660755,,-0.09879818043296344,-0.6160097982919182,0.0781922967147341,0.9955612156868467,0.09352316526210439,-0.00434759538630278,0.009611544820769187
1668680993.9117308,82518,1668680993,911559675,,-0.09879818043296344,-0.6160097982919182,0.0781922967147341,0.9955612156868467,0.09352316526210439,-0.00434759538630278,0.009611544820769187
1668680993.9198956,82519,1668680993,919724196,,-0.09879818043296344,-0.6160097982919182,0.0781922967147341,0.9955612156868467,0.09352316526210439,-0.00434759538630278,0.009611544820769187
1668680993.9282272,82520,1668680993,928029532,,-0.09879818043296344,-0.6160097982919182,0.0781922967147341,0.9955612156868467,0.09352316526210439,-0.00434759538630278,0.009611544820769187
1668680993.9358892,82521,1668680993,935708863,,-0.09879818043296344,-0.6160097982919182,0.0781922967147341,0.9955612156868467,0.09352316526210439,-0.00434759538630278,0.009611544820769187
1668680993.944407,82522,1668680993,943891819,,-0.09879818043296344,-0.6160097982919182,0.0781922967147341,0.9955612156868467,0.09352316526210439,-0.00434759538630278,0.009611544820769187
1668680993.952019,82523,1668680993,951784953,,-0.09879818043296344,-0.6160097982919182,0.0781922967147341,0.9955612156868467,0.09352316526210439,-0.00434759538630278,0.009611544820769187
1668680993.9600933,82524,1668680993,959814151,,-0.09879818043296344,-0.6160097982919182,0.0781922967147341,0.9955612156868467,0.09352316526210439,-0.00434759538630278,0.009611544820769187
1668680993.9679813,82525,1668680993,967781328,,-0.09879818043296344,-0.6160097982919182,0.0781922967147341,0.9955612156868467,0.09352316526210439,-0.00434759538630278,0.009611544820769187
1668680993.9758096,82526,1668680993,975640690,,-0.09879818043296344,-0.6160097982919182,0.0781922967147341,0.9955612156868467,0.09352316526210439,-0.00434759538630278,0.009611544820769187
1668680993.9834325,82527,1668680993,983216885,,-0.09879818043296344,-0.6160097982919182,0.0781922967147341,0.9955612156868467,0.09352316526210439,-0.00434759538630278,0.009611544820769187
1668680993.9918327,82528,1668680993,991606433,,-0.09879818043296344,-0.6160097982919182,0.0781922967147341,0.9955612156868467,0.09352316526210439,-0.00434759538630278,0.009611544820769187
1668680993.9996912,82529,1668680993,999557514,,-0.09879818043296344,-0.6160097982919182,0.0781922967147341,0.9955612156868467,0.09352316526210439,-0.00434759538630278,0.009611544820769187
1668680994.007691,82530,1668680994,7536538,,-0.09879818043296344,-0.6160097982919182,0.0781922967147341,0.9955612156868467,0.09352316526210439,-0.00434759538630278,0.009611544820769187
1668680994.015845,82531,1668680994,15587195,,-0.09879818043296344,-0.6160097982919182,0.0781922967147341,0.9955612156868467,0.09352316526210439,-0.00434759538630278,0.009611544820769187
1668680994.0240507,82532,1668680994,23888905,,-0.09879818043296344,-0.6160097982919182,0.0781922967147341,0.9955612156868467,0.09352316526210439,-0.00434759538630278,0.009611544820769187
1668680994.0325239,82533,1668680994,32319351,,-0.09879818043296344,-0.6160097982919182,0.0781922967147341,0.9955612156868467,0.09352316526210439,-0.00434759538630278,0.009611544820769187
1668680994.0405064,82534,1668680994,40271742,,-0.09879818043296344,-0.6160097982919182,0.0781922967147341,0.9955612156868467,0.09352316526210439,-0.00434759538630278,0.009611544820769187
1668680994.0483372,82535,1668680994,48166558,,-0.09879818043296344,-0.6160097982919182,0.0781922967147341,0.9955612156868467,0.09352316526210439,-0.00434759538630278,0.009611544820769187
1668680994.0564785,82536,1668680994,56228862,,-0.09879818043296344,-0.6160097982919182,0.0781922967147341,0.9955612156868467,0.09352316526210439,-0.00434759538630278,0.009611544820769187
1668680994.063719,82537,1668680994,63499950,,-0.09879818043296344,-0.6160097982919182,0.0781922967147341,0.9955612156868467,0.09352316526210439,-0.00434759538630278,0.009611544820769187
1668680994.0718877,82538,1668680994,71701956,,-0.09879818043296344,-0.6160097982919182,0.0781922967147341,0.9955612156868467,0.09352316526210439,-0.00434759538630278,0.009611544820769187
1668680994.0797784,82539,1668680994,79565915,,-0.09879818043296344,-0.6160097982919182,0.0781922967147341,0.9955612156868467,0.09352316526210439,-0.00434759538630278,0.009611544820769187
1668680994.0878074,82540,1668680994,87637250,,-0.09879818043296344,-0.6160097982919182,0.0781922967147341,0.9955612156868467,0.09352316526210439,-0.00434759538630278,0.009611544820769187
1668680994.0955389,82541,1668680994,95336628,,-0.09879818043296344,-0.6160097982919182,0.0781922967147341,0.9955612156868467,0.09352316526210439,-0.00434759538630278,0.009611544820769187
1668680994.1039178,82542,1668680994,103558959,,-0.09879818043296344,-0.6160097982919182,0.0781922967147341,0.9955612156868467,0.09352316526210439,-0.00434759538630278,0.009611544820769187
1668680994.111853,82543,1668680994,111572822,,-0.09879818043296344,-0.6160097982919182,0.0781922967147341,0.9955612156868467,0.09352316526210439,-0.00434759538630278,0.009611544820769187
1668680994.1199372,82544,1668680994,119680578,,-0.09879818043296344,-0.6160097982919182,0.0781922967147341,0.9955612156868467,0.09352316526210439,-0.00434759538630278,0.009611544820769187
1668680994.1276748,82545,1668680994,127529330,,-0.09879818043296344,-0.6160097982919182,0.0781922967147341,0.9955612156868467,0.09352316526210439,-0.00434759538630278,0.009611544820769187
1668680994.13564,82546,1668680994,135433911,,-0.09879690133441453,-0.6160113051943948,0.0781922967147341,0.9955612156868467,0.09352316526210439,-0.00434759538630278,0.009611544820769187
1668680994.1438503,82547,1668680994,143639914,,-0.09879306406494526,-0.6160158258709837,0.0781922967147341,0.9955612156868467,0.09352316526210439,-0.00434759538630278,0.009611544820769187
1668680994.1525798,82548,1668680994,152408122,,-0.09878666870308758,-0.6160233602291527,0.0781922967147341,0.9955612156868467,0.09352316526210439,-0.00434759538630278,0.009611544820769187
1668680994.1597197,82549,1668680994,159578034,,-0.09877771537972627,-0.6160339081146537,0.0781922967147341,0.9955612156868467,0.09352316526210439,-0.00434759538630278,0.009611544820769187
1668680994.1678789,82550,1668680994,167740285,,-0.09876620427809622,-0.61604746931148,0.0781922967147341,0.9955612156868467,0.09352316526210439,-0.00434759538630278,0.009611544820769187
1668680994.1753974,82551,1668680994,175264468,,-0.0987521356337788,-0.6160640435418062,0.0781922967147341,0.9955612156868467,0.09352316526210439,-0.00434759538630278,0.009611544820769187
1668680994.1837132,82552,1668680994,183594172,,-0.09873550973469691,-0.616083630465913,0.0781922967147341,0.9955612156868467,0.09352316526210439,-0.00434759538630278,0.009611544820769187
1668680994.1916728,82553,1668680994,191515658,,-0.09871632692110918,-0.6161062296820927,0.0781922967147341,0.9955612156868467,0.09352316526210439,-0.00434759538630278,0.009611544820769187
1668680994.1997492,82554,1668680994,199537737,,-0.09869458758560296,-0.6161318407265405,0.0781922967147341,0.9955612156868467,0.09352316526210439,-0.00434759538630278,0.009611544820769187
1668680994.207805,82555,1668680994,207645661,,-0.09867029217308625,-0.6161604630732257,0.0781922967147341,0.9955612156868467,0.09352316526210439,-0.00434759538630278,0.009611544820769187
1668680994.215621,82556,1668680994,215495262,,-0.09864344118077872,-0.6161920961337495,0.0781922967147341,0.9955612156868467,0.09352316526210439,-0.00434759538630278,0.009611544820769187
1668680994.2236178,82557,1668680994,223486743,,-0.0986140351582014,-0.6162267392571833,0.0781922967147341,0.9955612156868467,0.09352316526210439,-0.00434759538630278,0.009611544820769187
1668680994.231959,82558,1668680994,231778963,,-0.0985820747071655,-0.6162643917298916,0.0781922967147341,0.9955612156868467,0.09352316526210439,-0.00434759538630278,0.009611544820769187
1668680994.2397444,82559,1668680994,239584483,,-0.0985475604817601,-0.6163050527753383,0.0781922967147341,0.9955612156868467,0.09352316526210439,-0.00434759538630278,0.009611544820769187
1668680994.2490666,82560,1668680994,248775886,,-0.09851049318833871,-0.6163487215538758,0.0781922967147341,0.9955612156868467,0.09352316526210439,-0.00434759538630278,0.009611544820769187
1668680994.2563758,82561,1668680994,256209681,,-0.09847087358550488,-0.6163953971625175,0.0781922967147341,0.9955612156868467,0.09352316526210439,-0.00434759538630278,0.009611544820769187
1668680994.2636173,82562,1668680994,263418649,,-0.09842870248409663,-0.616445078634695,0.0781922967147341,0.9955612156868467,0.09352316526210439,-0.00434759538630278,0.009611544820769187
1668680994.2719226,82563,1668680994,271677828,,-0.09838398074716988,-0.6164977649399972,0.0781922967147341,0.9955612156868467,0.09352316526210439,-0.00434759538630278,0.009611544820769187
1668680994.2800124,82564,1668680994,279889325,,-0.09833670928998077,-0.6165534549838942,0.0781922967147341,0.9955612156868467,0.09352316526210439,-0.00434759538630278,0.009611544820769187
1668680994.2879386,82565,1668680994,287768307,,-0.09828688907996692,-0.6166121476074449,0.0781922967147341,0.9955612156868467,0.09352316526210439,-0.00434759538630278,0.009611544820769187
1668680994.29543,82566,1668680994,295269278,,-0.09823452113672769,-0.6166738415869879,0.0781922967147341,0.9955612156868467,0.09352316526210439,-0.00434759538630278,0.009611544820769187
1668680994.3049266,82567,1668680994,303621276,,-0.09817960653200324,-0.6167385356338168,0.0781922967147341,0.9955612156868467,0.09352316526210439,-0.00434759538630278,0.009611544820769187
1668680994.3125303,82568,1668680994,312286386,,-0.0981221463896526,-0.6168062283938395,0.0781922967147341,0.9955612156868467,0.09352316526210439,-0.00434759538630278,0.009611544820769187
1668680994.319996,82569,1668680994,319805734,,-0.09806214188563075,-0.6168769184472216,0.0781922967147341,0.9955612156868467,0.09352316526210439,-0.00434759538630278,0.009611544820769187
1668680994.3279128,82570,1668680994,327745108,,-0.09799959424796448,-0.6169506043080139,0.0781922967147341,0.9955612156868467,0.09352316526210439,-0.00434759538630278,0.009611544820769187
1668680994.33548,82571,1668680994,335337905,,-0.09793450475672726,-0.6170272844237645,0.0781922967147341,0.9955612156868467,0.09352316526210439,-0.00434759538630278,0.009611544820769187
1668680994.3440695,82572,1668680994,343900096,,-0.09786687474401307,-0.6171069571751155,0.0781922967147341,0.9955612156868467,0.09352316526210439,-0.00434759538630278,0.009611544820769187
1668680994.3516572,82573,1668680994,351527961,,-0.09779670559390913,-0.6171896208753839,0.0781922967147341,0.9955612156868467,0.09352316526210439,-0.00434759538630278,0.009611544820769187
1668680994.359843,82574,1668680994,359584409,,-0.09772399874246757,-0.6172752737701277,0.0781922967147341,0.9955612156868467,0.09352316526210439,-0.00434759538630278,0.009611544820769187
1668680994.3677406,82575,1668680994,367553224,,-0.09764875567767603,-0.6173639140366967,0.0781922967147341,0.9955612156868467,0.09352316526210439,-0.00434759538630278,0.009611544820769187
1668680994.3758295,82576,1668680994,375702510,,-0.09757097793942725,-0.6174555397837683,0.0781922967147341,0.9955612156868467,0.09352316526210439,-0.00434759538630278,0.009611544820769187
1668680994.3835952,82577,1668680994,383393034,,-0.09749066711948748,-0.6175501490508686,0.0781922967147341,0.9955612156868467,0.09352316526210439,-0.00434759538630278,0.009611544820769187
1668680994.3919382,82578,1668680994,391736164,,-0.097407824861464,-0.6176477398078788,0.0781922967147341,0.9955612156868467,0.09352316526210439,-0.00434759538630278,0.009611544820769187
1668680994.3998413,82579,1668680994,399645762,,-0.09732245286077139,-0.6177483099545268,0.0781922967147341,0.9955612156868467,0.09352316526210439,-0.00434759538630278,0.009611544820769187
1668680994.4084742,82580,1668680994,408239274,,-0.09723455286459687,-0.6178518573198652,0.0781922967147341,0.9955612156868467,0.09352316526210439,-0.00434759538630278,0.009611544820769187
1668680994.4157434,82581,1668680994,415524654,,-0.09714412667186459,-0.6179583796617344,0.0781922967147341,0.9955612156868467,0.09352316526210439,-0.00434759538630278,0.009611544820769187
1668680994.4233508,82582,1668680994,423212847,,-0.0970511761331987,-0.6180678746662116,0.0781922967147341,0.9955612156868467,0.09352316526210439,-0.00434759538630278,0.009611544820769187
1668680994.4318388,82583,1668680994,431607031,,-0.09695570315088564,-0.6181803399470465,0.0781922967147341,0.9955612156868467,0.09352316526210439,-0.00434759538630278,0.009611544820769187
1668680994.439872,82584,1668680994,439695694,,-0.09685770967883502,-0.6182957730450834,0.0781922967147341,0.9955612156868467,0.09352316526210439,-0.00434759538630278,0.009611544820769187
1668680994.4477358,82585,1668680994,447538413,,-0.09675719772253977,-0.6184141714276691,0.0781922967147341,0.9955612156868467,0.09352316526210439,-0.00434759538630278,0.009611544820769187
1668680994.4557474,82586,1668680994,455519340,,-0.09665416933903506,-0.618535532488048,0.0781922967147341,0.9955612156868467,0.09352316526210439,-0.00434759538630278,0.009611544820769187
1668680994.4637072,82587,1668680994,463498006,,-0.09654862663685619,-0.6186598535447445,0.0781922967147341,0.9955612156868467,0.09352316526210439,-0.00434759538630278,0.009611544820769187
1668680994.471794,82588,1668680994,471506778,,-0.09644057177599542,-0.6187871318409311,0.0781922967147341,0.9955612156868467,0.09352316526210439,-0.00434759538630278,0.009611544820769187
1668680994.4797025,82589,1668680994,479553446,,-0.0963300069678578,-0.6189173645437861,0.0781922967147341,0.9955612156868467,0.09352316526210439,-0.00434759538630278,0.009611544820769187
1668680994.4877715,82590,1668680994,487596627,,-0.09621693447521593,-0.6190505487438361,0.0781922967147341,0.9955612156868467,0.09352316526210439,-0.00434759538630278,0.009611544820769187
1668680994.4956832,82591,1668680994,495566976,,-0.09610135661216354,-0.6191866814542885,0.0781922967147341,0.9955612156868467,0.09352316526210439,-0.00434759538630278,0.009611544820769187
1668680994.5036187,82592,1668680994,503372152,,-0.0959832757440683,-0.6193257596103505,0.0781922967147341,0.9955612156868467,0.09352316526210439,-0.00434759538630278,0.009611544820769187
1668680994.5116217,82593,1668680994,511494848,,-0.09586269428752327,-0.6194677800685376,0.0781922967147341,0.9955612156868467,0.09352316526210439,-0.00434759538630278,0.009611544820769187
1668680994.519691,82594,1668680994,519548218,,-0.09573961471029752,-0.6196127396059687,0.0781922967147341,0.9955612156868467,0.09352316526210439,-0.00434759538630278,0.009611544820769187
1668680994.5279813,82595,1668680994,527783740,,-0.09561403953128556,-0.6197606349196516,0.0781922967147341,0.9955612156868467,0.09352316526210439,-0.00434759538630278,0.009611544820769187
1668680994.5360508,82596,1668680994,535695291,,-0.09548597132045587,-0.6199114626257559,0.0781922967147341,0.9955612156868467,0.09352316526210439,-0.00434759538630278,0.009611544820769187
1668680994.544618,82597,1668680994,544359516,,-0.09535541269879828,-0.6200652192588765,0.0781922967147341,0.9955612156868467,0.09352316526210439,-0.00434759538630278,0.009611544820769187
1668680994.5518048,82598,1668680994,551601591,,-0.09522236633827025,-0.6202219012712848,0.0781922967147341,0.9955612156868467,0.09352316526210439,-0.00434759538630278,0.009611544820769187
1668680994.560434,82599,1668680994,560100905,,-0.09508683496174229,-0.6203815050321712,0.0781922967147341,0.9955612156868467,0.09352316526210439,-0.00434759538630278,0.009611544820769187
1668680994.5677776,82600,1668680994,567585794,,-0.09494882134294222,-0.6205440268268753,0.0781922967147341,0.9955612156868467,0.09352316526210439,-0.00434759538630278,0.009611544820769187
1668680994.5754611,82601,1668680994,575297311,,-0.09480832830639833,-0.6207094628561086,0.0781922967147341,0.9955612156868467,0.09352316526210439,-0.00434759538630278,0.009611544820769187
1668680994.5837705,82602,1668680994,583562249,,-0.09466535872738165,-0.620877809235166,0.0781922967147341,0.9955612156868467,0.09352316526210439,-0.00434759538630278,0.009611544820769187
1668680994.5916517,82603,1668680994,591428098,,-0.09451991553184708,-0.6210490619931281,0.0781922967147341,0.9955612156868467,0.09352316526210439,-0.00434759538630278,0.009611544820769187
1668680994.5998862,82604,1668680994,599703597,,-0.09437200169637351,-0.6212232170720551,0.0781922967147341,0.9955612156868467,0.09352316526210439,-0.00434759538630278,0.009611544820769187
1668680994.6077452,82605,1668680994,607583670,,-0.09422162024810288,-0.6214002703261704,0.0781922967147341,0.9955612156868467,0.09352316526210439,-0.00434759538630278,0.009611544820769187
1668680994.6153135,82606,1668680994,615170923,,-0.09406877426467829,-0.6215802175210379,0.0781922967147341,0.9955612156868467,0.09352316526210439,-0.00434759538630278,0.009611544820769187
1668680994.6237197,82607,1668680994,623504340,,-0.09391346687418094,-0.6217630543327288,0.0781922967147341,0.9955612156868467,0.09352316526210439,-0.00434759538630278,0.009611544820769187
1668680994.631878,82608,1668680994,631604831,,-0.09375570125506615,-0.6219487763469815,0.0781922967147341,0.9955612156868467,0.09352316526210439,-0.00434759538630278,0.009611544820769187
1668680994.6396801,82609,1668680994,639510258,,-0.0935954806360983,-0.6221373790583542,0.0781922967147341,0.9955612156868467,0.09352316526210439,-0.00434759538630278,0.009611544820769187
1668680994.647701,82610,1668680994,647587364,,-0.0934328082962848,-0.6223288578693686,0.0781922967147341,0.9955612156868467,0.09352316526210439,-0.00434759538630278,0.009611544820769187
1668680994.655753,82611,1668680994,655604958,,-0.09326768756480888,-0.622523208089648,0.0781922967147341,0.9955612156868467,0.09352316526210439,-0.00434759538630278,0.009611544820769187
1668680994.663429,82612,1668680994,663303599,,-0.09310012182096158,-0.6227204249350479,0.0781922967147341,0.9955612156868467,0.09352316526210439,-0.00434759538630278,0.009611544820769187
1668680994.672089,82613,1668680994,671761129,,-0.09293011449407249,-0.62292050352678,0.0781922967147341,0.9955612156868467,0.09352316526210439,-0.00434759538630278,0.009611544820769187
1668680994.6799872,82614,1668680994,679755695,,-0.09275766906343957,-0.6231234388905302,0.0781922967147341,0.9955612156868467,0.09352316526210439,-0.00434759538630278,0.009611544820769187
1668680994.6881366,82615,1668680994,687894890,,-0.09258278905825808,-0.623329225955571,0.0781922967147341,0.9955612156868467,0.09352316526210439,-0.00434759538630278,0.009611544820769187
1668680994.695803,82616,1668680994,695578271,,-0.09240547805754816,-0.6235378595538675,0.0781922967147341,0.9955612156868467,0.09352316526210439,-0.00434759538630278,0.009611544820769187
1668680994.7036223,82617,1668680994,703495601,,-0.09222573969008172,-0.6237493344191787,0.0781922967147341,0.9955612156868467,0.09352316526210439,-0.00434759538630278,0.009611544820769187
1668680994.711644,82618,1668680994,711459856,,-0.09204357763430811,-0.6239636451861539,0.0781922967147341,0.9955612156868467,0.09352316526210439,-0.00434759538630278,0.009611544820769187
1668680994.7200289,82619,1668680994,719824154,,-0.09185899561827889,-0.6241807863894244,0.0781922967147341,0.9955612156868467,0.09352316526210439,-0.00434759538630278,0.009611544820769187
1668680994.7284784,82620,1668680994,728311766,,-0.09167199741957145,-0.624400752462691,0.0781922967147341,0.9955612156868467,0.09352316526210439,-0.00434759538630278,0.009611544820769187
1668680994.7354841,82621,1668680994,735333163,,-0.09148258686521182,-0.6246235377378065,0.0781922967147341,0.9955612156868467,0.09352316526210439,-0.00434759538630278,0.009611544820769187
1668680994.7438843,82622,1668680994,743711409,,-0.09129076783159622,-0.624849136443857,0.0781922967147341,0.9955612156868467,0.09352316526210439,-0.00434759538630278,0.009611544820769187
1668680994.7517722,82623,1668680994,751555783,,-0.09109654424441181,-0.6250775427062369,0.0781922967147341,0.9955612156868467,0.09352316526210439,-0.00434759538630278,0.009611544820769187
1668680994.7602513,82624,1668680994,760108035,,-0.09089992007855635,-0.6253087505457233,0.0781922967147341,0.9955612156868467,0.09352316526210439,-0.00434759538630278,0.009611544820769187
1668680994.7678213,82625,1668680994,767618149,,-0.09070089935805678,-0.6255427538775469,0.0781922967147341,0.9955612156868467,0.09352316526210439,-0.00434759538630278,0.009611544820769187
1668680994.7758675,82626,1668680994,775693311,,-0.09049948615598694,-0.62577954651046,0.0781922967147341,0.9955612156868467,0.09352316526210439,-0.00434759538630278,0.009611544820769187
1668680994.7834601,82627,1668680994,783296942,,-0.09029568459438418,-0.6260191221458042,0.0781922967147341,0.9955612156868467,0.09352316526210439,-0.00434759538630278,0.009611544820769187
1668680994.7919908,82628,1668680994,791763389,,-0.09008949884416502,-0.6262614743765749,0.0781922967147341,0.9955612156868467,0.09352316526210439,-0.00434759538630278,0.009611544820769187
1668680994.799894,82629,1668680994,799588988,,-0.08988093312503975,-0.6265065966864856,0.0781922967147341,0.9955612156868467,0.09352316526210439,-0.00434759538630278,0.009611544820769187
1668680994.8078642,82630,1668680994,807712699,,-0.08966999170542614,-0.6267544824490309,0.0781922967147341,0.9955612156868467,0.09352316526210439,-0.00434759538630278,0.009611544820769187
1668680994.8155787,82631,1668680994,815438404,,-0.08945667890236196,-0.6270051249265494,0.0781922967147341,0.9955612156868467,0.09352316526210439,-0.00434759538630278,0.009611544820769187
1668680994.824879,82632,1668680994,824575703,,-0.08924099908141679,-0.6272585172692859,0.0781922967147341,0.9955612156868467,0.09352316526210439,-0.00434759538630278,0.009611544820769187
1668680994.8324347,82633,1668680994,832216397,,-0.08902295665660256,-0.6275146525144547,0.0781922967147341,0.9955612156868467,0.09352316526210439,-0.00434759538630278,0.009611544820769187
1668680994.8403184,82634,1668680994,840067268,,-0.08880255609028326,-0.6277735235853021,0.0781922967147341,0.9955612156868467,0.09352316526210439,-0.00434759538630278,0.009611544820769187
1668680994.8477669,82635,1668680994,847645128,,-0.08857980189308359,-0.6280351232901719,0.0781922967147341,0.9955612156868467,0.09352316526210439,-0.00434759538630278,0.009611544820769187
1668680994.8565419,82636,1668680994,856294797,,-0.0883546986237967,-0.6282994443215698,0.0781922967147341,0.9955612156868467,0.09352316526210439,-0.00434759538630278,0.009611544820769187
1668680994.863522,82637,1668680994,863360498,,-0.08812725088929083,-0.6285664792552323,0.0781922967147341,0.9955612156868467,0.09352316526210439,-0.00434759538630278,0.009611544820769187
1668680994.8718464,82638,1668680994,871605850,,-0.08789746334441502,-0.6288362205491949,0.0781922967147341,0.9955612156868467,0.09352316526210439,-0.00434759538630278,0.009611544820769187
1668680994.8799562,82639,1668680994,879796871,,-0.08766534069190395,-0.6291086605428645,0.0781922967147341,0.9955612156868467,0.09352316526210439,-0.00434759538630278,0.009611544820769187
1668680994.888292,82640,1668680994,888058838,,-0.08743088768228156,-0.6293837914560948,0.0781922967147341,0.9955612156868467,0.09352316526210439,-0.00434759538630278,0.009611544820769187
1668680994.8954577,82641,1668680994,895282684,,-0.08719410911376395,-0.6296616053882637,0.0781922967147341,0.9955612156868467,0.09352316526210439,-0.00434759538630278,0.009611544820769187
1668680994.9039774,82642,1668680994,903763934,,-0.08695500983216106,-0.629942094317355,0.0781922967147341,0.9955612156868467,0.09352316526210439,-0.00434759538630278,0.009611544820769187
1668680994.912788,82643,1668680994,912415116,,-0.08671359473077764,-0.6302252500990444,0.0781922967147341,0.9955612156868467,0.09352316526210439,-0.00434759538630278,0.009611544820769187
1668680994.9198782,82644,1668680994,919648420,,-0.08646986875031294,-0.6305110644657894,0.0781922967147341,0.9955612156868467,0.09352316526210439,-0.00434759538630278,0.009611544820769187
1668680994.9277732,82645,1668680994,927547742,,-0.08622383687875976,-0.6307995290259242,0.0781922967147341,0.9955612156868467,0.09352316526210439,-0.00434759538630278,0.009611544820769187
1668680994.935459,82646,1668680994,935306701,,-0.08597550415130224,-0.6310906352627593,0.0781922967147341,0.9955612156868467,0.09352316526210439,-0.00434759538630278,0.009611544820769187
1668680994.9436734,82647,1668680994,943554829,,-0.08572487565021289,-0.6313843745336877,0.0781922967147341,0.9955612156868467,0.09352316526210439,-0.00434759538630278,0.009611544820769187
1668680994.951806,82648,1668680994,951694599,,-0.08547195650474854,-0.6316807380692959,0.0781922967147341,0.9955612156868467,0.09352316526210439,-0.00434759538630278,0.009611544820769187
1668680994.959679,82649,1668680994,959560320,,-0.08521675189104537,-0.6319797169724817,0.0781922967147341,0.9955612156868467,0.09352316526210439,-0.00434759538630278,0.009611544820769187
1668680994.9679875,82650,1668680994,967753512,,-0.08495926703201301,-0.6322813022175789,0.0781922967147341,0.9955612156868467,0.09352316526210439,-0.00434759538630278,0.009611544820769187
1668680994.9754674,82651,1668680994,975249928,,-0.08469950719722762,-0.6325854846494887,0.0781922967147341,0.9955612156868467,0.09352316526210439,-0.00434759538630278,0.009611544820769187
1668680994.9843931,82652,1668680994,984182805,,-0.08443747770282402,-0.6328922549828194,0.0781922967147341,0.9955612156868467,0.09352316526210439,-0.00434759538630278,0.009611544820769187
1668680994.9925976,82653,1668680994,992255707,,-0.08417318391138696,-0.6332016038010326,0.0781922967147341,0.9955612156868467,0.09352316526210439,-0.00434759538630278,0.009611544820769187
1668680995.0000012,82654,1668680994,999675057,,-0.08390663123184135,-0.6335135215555991,0.0781922967147341,0.9955612156868467,0.09352316526210439,-0.00434759538630278,0.009611544820769187
1668680995.0079644,82655,1668680995,7820008,,-0.08363782511934147,-0.6338279985651631,0.0781922967147341,0.9955612156868467,0.09352316526210439,-0.00434759538630278,0.009611544820769187
1668680995.015944,82656,1668680995,15695109,,-0.08336677107515948,-0.6341450250147149,0.0781922967147341,0.9955612156868467,0.09352316526210439,-0.00434759538630278,0.009611544820769187
1668680995.0246954,82657,1668680995,24535417,,-0.08309347464657274,-0.6344645909547737,0.0781922967147341,0.9955612156868467,0.09352316526210439,-0.00434759538630278,0.009611544820769187
1668680995.0323787,82658,1668680995,32132567,,-0.08281794142675028,-0.6347866863005801,0.0781922967147341,0.9955612156868467,0.09352316526210439,-0.00434759538630278,0.009611544820769187
1668680995.0407898,82659,1668680995,40408996,,-0.08254017705463837,-0.6351113008312991,0.0781922967147341,0.9955612156868467,0.09352316526210439,-0.00434759538630278,0.009611544820769187
1668680995.0489101,82660,1668680995,48678374,,-0.0822601872148451,-0.6354384241892331,0.0781922967147341,0.9955612156868467,0.09352316526210439,-0.00434759538630278,0.009611544820769187
1668680995.0559099,82661,1668680995,55540154,,-0.08197797763752403,-0.6357680458790474,0.0781922967147341,0.9955612156868467,0.09352316526210439,-0.00434759538630278,0.009611544820769187
1668680995.063817,82662,1668680995,63547376,,-0.08169355409825695,-0.6361001552670049,0.0781922967147341,0.9955612156868467,0.09352316526210439,-0.00434759538630278,0.009611544820769187
1668680995.0717816,82663,1668680995,71595324,,-0.08140692241793561,-0.6364347415802152,0.0781922967147341,0.9955612156868467,0.09352316526210439,-0.00434759538630278,0.009611544820769187
1668680995.079825,82664,1668680995,79687350,,-0.08111808846264268,-0.6367717939058939,0.0781922967147341,0.9955612156868467,0.09352316526210439,-0.00434759538630278,0.009611544820769187
1668680995.0885706,82665,1668680995,88378304,,-0.08082705814353168,-0.6371113011906362,0.0781922967147341,0.9955612156868467,0.09352316526210439,-0.00434759538630278,0.009611544820769187
1668680995.0953295,82666,1668680995,95202094,,-0.08053383741670592,-0.6374532522397021,0.0781922967147341,0.9955612156868467,0.09352316526210439,-0.00434759538630278,0.009611544820769187
1668680995.1041226,82667,1668680995,103992929,,-0.0802384322830967,-0.6377976357163162,0.0781922967147341,0.9955612156868467,0.09352316526210439,-0.00434759538630278,0.009611544820769187
1668680995.1122627,82668,1668680995,112080538,,-0.07994084878834047,-0.6381444401409806,0.0781922967147341,0.9955612156868467,0.09352316526210439,-0.00434759538630278,0.009611544820769187
1668680995.1196856,82669,1668680995,119551762,,-0.07964109302265512,-0.6384936538908024,0.0781922967147341,0.9955612156868467,0.09352316526210439,-0.00434759538630278,0.009611544820769187
1668680995.127989,82670,1668680995,127842682,,-0.07933917112071524,-0.6388452651988361,0.0781922967147341,0.9955612156868467,0.09352316526210439,-0.00434759538630278,0.009611544820769187
1668680995.135379,82671,1668680995,135278377,,-0.07903508926152673,-0.6391992621534398,0.0781922967147341,0.9955612156868467,0.09352316526210439,-0.00434759538630278,0.009611544820769187
1668680995.1452484,82672,1668680995,145038080,,-0.07872885366830021,-0.6395556326976486,0.0781922967147341,0.9955612156868467,0.09352316526210439,-0.00434759538630278,0.009611544820769187
1668680995.1517324,82673,1668680995,151590084,,-0.07842047060832374,-0.6399143646285621,0.0781922967147341,0.9955612156868467,0.09352316526210439,-0.00434759538630278,0.009611544820769187
1668680995.1599681,82674,1668680995,159746457,,-0.0781099463928345,-0.6402754455967495,0.0781922967147341,0.9955612156868467,0.09352316526210439,-0.00434759538630278,0.009611544820769187
1668680995.1677344,82675,1668680995,167545847,,-0.07779728737688968,-0.6406388631056699,0.0781922967147341,0.9955612156868467,0.09352316526210439,-0.00434759538630278,0.009611544820769187
1668680995.1759257,82676,1668680995,175788080,,-0.07748249995923637,-0.6410046045111105,0.0781922967147341,0.9955612156868467,0.09352316526210439,-0.00434759538630278,0.009611544820769187
1668680995.1838062,82677,1668680995,183579044,,-0.07716559058218062,-0.6413726570206424,0.0781922967147341,0.9955612156868467,0.09352316526210439,-0.00434759538630278,0.009611544820769187
1668680995.1918342,82678,1668680995,191663828,,-0.07684656573145564,-0.6417430076930924,0.0781922967147341,0.9955612156868467,0.09352316526210439,-0.00434759538630278,0.009611544820769187
1668680995.199909,82679,1668680995,199771149,,-0.076525431936089,-0.6421156434380351,0.0781922967147341,0.9955612156868467,0.09352316526210439,-0.00434759538630278,0.009611544820769187
1668680995.208146,82680,1668680995,207995693,,-0.07620219576826905,-0.6424905510153016,0.0781922967147341,0.9955612156868467,0.09352316526210439,-0.00434759538630278,0.009611544820769187
1668680995.215845,82681,1668680995,215637455,,-0.0758768638432104,-0.6428677170345084,0.0781922967147341,0.9955612156868467,0.09352316526210439,-0.00434759538630278,0.009611544820769187
1668680995.2234106,82682,1668680995,223245633,,-0.07554944281901854,-0.6432471279546044,0.0781922967147341,0.9955612156868467,0.09352316526210439,-0.00434759538630278,0.009611544820769187
1668680995.2318516,82683,1668680995,231651722,,-0.0752199393965536,-0.6436287700834379,0.0781922967147341,0.9955612156868467,0.09352316526210439,-0.00434759538630278,0.009611544820769187
1668680995.2399426,82684,1668680995,239723270,,-0.07488836031929313,-0.6440126295773441,0.0781922967147341,0.9955612156868467,0.09352316526210439,-0.00434759538630278,0.009611544820769187
1668680995.2476916,82685,1668680995,247497743,,-0.07455471237319423,-0.6443986924407519,0.0781922967147341,0.9955612156868467,0.09352316526210439,-0.00434759538630278,0.009611544820769187
1668680995.2554338,82686,1668680995,255308266,,-0.07421900238655456,-0.6447869445258114,0.0781922967147341,0.9955612156868467,0.09352316526210439,-0.00434759538630278,0.009611544820769187
1668680995.2637775,82687,1668680995,263645890,,-0.07388123722987261,-0.6451773715320439,0.0781922967147341,0.9955612156868467,0.09352316526210439,-0.00434759538630278,0.009611544820769187
1668680995.275987,82688,1668680995,275792522,,-0.07354142381570714,-0.6455699590060108,0.0781922967147341,0.9955612156868467,0.09352316526210439,-0.00434759538630278,0.009611544820769187
1668680995.2814255,82689,1668680995,280094786,,-0.07319956909853567,-0.6459646923410061,0.0781922967147341,0.9955612156868467,0.09352316526210439,-0.00434759538630278,0.009611544820769187
1668680995.2914171,82690,1668680995,290552888,,-0.07285568007461216,-0.6463615567767704,0.0781922967147341,0.9955612156868467,0.09352316526210439,-0.00434759538630278,0.009611544820769187
1668680995.2991347,82691,1668680995,298467977,,-0.07250976378182383,-0.6467605373992271,0.0781922967147341,0.9955612156868467,0.09352316526210439,-0.00434759538630278,0.009611544820769187
1668680995.3059697,82692,1668680995,305572255,,-0.07216182729954712,-0.6471616191402413,0.0781922967147341,0.9955612156868467,0.09352316526210439,-0.00434759538630278,0.009611544820769187
1668680995.3126342,82693,1668680995,312425692,,-0.07181187774850285,-0.6475647867774016,0.0781922967147341,0.9955612156868467,0.09352316526210439,-0.00434759538630278,0.009611544820769187
1668680995.319993,82694,1668680995,319839253,,-0.07145992229061042,-0.6479700249338264,0.0781922967147341,0.9955612156868467,0.09352316526210439,-0.00434759538630278,0.009611544820769187
1668680995.3278344,82695,1668680995,327686488,,-0.07110596812884126,-0.6483773180779919,0.0781922967147341,0.9955612156868467,0.09352316526210439,-0.00434759538630278,0.009611544820769187
1668680995.3356683,82696,1668680995,335507179,,-0.07075002250707146,-0.6487866505235862,0.0781922967147341,0.9955612156868467,0.09352316526210439,-0.00434759538630278,0.009611544820769187
1668680995.343975,82697,1668680995,343722259,,-0.07039209270993348,-0.6491980064293863,0.0781922967147341,0.9955612156868467,0.09352316526210439,-0.00434759538630278,0.009611544820769187
1668680995.3519979,82698,1668680995,351824982,,-0.07003218606266705,-0.6496113697991602,0.0781922967147341,0.9955612156868467,0.09352316526210439,-0.00434759538630278,0.009611544820769187
1668680995.3597698,82699,1668680995,359499864,,-0.06967030993096929,-0.6500267244815945,0.0781922967147341,0.9955612156868467,0.09352316526210439,-0.00434759538630278,0.009611544820769187
1668680995.3679204,82700,1668680995,367786503,,-0.06930647172084398,-0.650444054170246,0.0781922967147341,0.9955612156868467,0.09352316526210439,-0.00434759538630278,0.009611544820769187
1668680995.3757155,82701,1668680995,375455572,,-0.06894067887844993,-0.6508633424035203,0.0781922967147341,0.9955612156868467,0.09352316526210439,-0.00434759538630278,0.009611544820769187
1668680995.383903,82702,1668680995,383686978,,-0.06857293888994864,-0.6512845725646756,0.0781922967147341,0.9955612156868467,0.09352316526210439,-0.00434759538630278,0.009611544820769187
1668680995.3919191,82703,1668680995,391740074,,-0.06820325928135111,-0.6517077278818522,0.0781922967147341,0.9955612156868467,0.09352316526210439,-0.00434759538630278,0.009611544820769187
1668680995.4000635,82704,1668680995,399816590,,-0.06783164761836372,-0.6521327914281291,0.0781922967147341,0.9955612156868467,0.09352316526210439,-0.00434759538630278,0.009611544820769187
1668680995.4077516,82705,1668680995,407593704,,-0.0674581115062335,-0.652559746121607,0.0781922967147341,0.9955612156868467,0.09352316526210439,-0.00434759538630278,0.009611544820769187
1668680995.4156814,82706,1668680995,415508012,,-0.06708265858959245,-0.6529885747255191,0.0781922967147341,0.9955612156868467,0.09352316526210439,-0.00434759538630278,0.009611544820769187
1668680995.4238815,82707,1668680995,423590342,,-0.06670529655230104,-0.6534192598483669,0.0781922967147341,0.9955612156868467,0.09352316526210439,-0.00434759538630278,0.009611544820769187
1668680995.4319546,82708,1668680995,431782193,,-0.06632603311729103,-0.6538517839440868,0.0781922967147341,0.9955612156868467,0.09352316526210439,-0.00434759538630278,0.009611544820769187
1668680995.4402995,82709,1668680995,440065923,,-0.06594487604640739,-0.6542861293122415,0.0781922967147341,0.9955612156868467,0.09352316526210439,-0.00434759538630278,0.009611544820769187
1668680995.4491644,82710,1668680995,448884214,,-0.0655618331402494,-0.6547222780982411,0.0781922967147341,0.9955612156868467,0.09352316526210439,-0.00434759538630278,0.009611544820769187
1668680995.4558897,82711,1668680995,455681670,,-0.06517691223801106,-0.6551602122935921,0.0781922967147341,0.9955612156868467,0.09352316526210439,-0.00434759538630278,0.009611544820769187
1668680995.4639227,82712,1668680995,463697286,,-0.06479012121732065,-0.6555999137361747,0.0781922967147341,0.9955612156868467,0.09352316526210439,-0.00434759538630278,0.009611544820769187
1668680995.471708,82713,1668680995,471568215,,-0.06440146799407953,-0.6560413641105487,0.0781922967147341,0.9955612156868467,0.09352316526210439,-0.00434759538630278,0.009611544820769187
1668680995.4795842,82714,1668680995,479454580,,-0.06401096052230006,-0.6564845449482893,0.0781922967147341,0.9955612156868467,0.09352316526210439,-0.00434759538630278,0.009611544820769187
1668680995.4878552,82715,1668680995,487714964,,-0.06361860679394289,-0.6569294376283511,0.0781922967147341,0.9955612156868467,0.09352316526210439,-0.00434759538630278,0.009611544820769187
1668680995.495827,82716,1668680995,495587237,,-0.06322441483875338,-0.6573760233774614,0.0781922967147341,0.9955612156868467,0.09352316526210439,-0.00434759538630278,0.009611544820769187
1668680995.503546,82717,1668680995,503371450,,-0.06282839272409725,-0.6578242832705444,0.0781922967147341,0.9955612156868467,0.09352316526210439,-0.00434759538630278,0.009611544820769187
1668680995.5118573,82718,1668680995,511632612,,-0.062430548554795504,-0.6582741982311738,0.0781922967147341,0.9955612156868467,0.09352316526210439,-0.00434759538630278,0.009611544820769187
1668680995.5197535,82719,1668680995,519594303,,-0.06203089047295851,-0.6587257490320562,0.0781922967147341,0.9955612156868467,0.09352316526210439,-0.00434759538630278,0.009611544820769187
1668680995.5280418,82720,1668680995,527762204,,-0.06162942665781947,-0.659178916295544,0.0781922967147341,0.9955612156868467,0.09352316526210439,-0.00434759538630278,0.009611544820769187
1668680995.5355918,82721,1668680995,535451254,,-0.06122616532556688,-0.6596336804941803,0.0781922967147341,0.9955612156868467,0.09352316526210439,-0.00434759538630278,0.009611544820769187
1668680995.5438943,82722,1668680995,543760563,,-0.06082111472917652,-0.660090021951272,0.0781922967147341,0.9955612156868467,0.09352316526210439,-0.00434759538630278,0.009611544820769187
1668680995.5516639,82723,1668680995,551521695,,-0.060414283158242474,-0.6605479208414954,0.0781922967147341,0.9955612156868467,0.09352316526210439,-0.00434759538630278,0.009611544820769187
1668680995.5597758,82724,1668680995,559617204,,-0.06000567893880748,-0.661007357191532,0.0781922967147341,0.9955612156868467,0.09352316526210439,-0.00434759538630278,0.009611544820769187
1668680995.567988,82725,1668680995,567743602,,-0.059595310433192564,-0.6614683108807358,0.0781922967147341,0.9955612156868467,0.09352316526210439,-0.00434759538630278,0.009611544820769187
1668680995.575857,82726,1668680995,575711106,,-0.059183186039825905,-0.6619307616418306,0.0781922967147341,0.9955612156868467,0.09352316526210439,-0.00434759538630278,0.009611544820769187
1668680995.5836139,82727,1668680995,583390577,,-0.05876931419307091,-0.6623946890616405,0.0781922967147341,0.9955612156868467,0.09352316526210439,-0.00434759538630278,0.009611544820769187
1668680995.5923164,82728,1668680995,591818718,,-0.05835370336305362,-0.6628600725818496,0.0781922967147341,0.9955612156868467,0.09352316526210439,-0.00434759538630278,0.009611544820769187
1668680995.5998104,82729,1668680995,599492141,,-0.057936362055489424,-0.6633268914997955,0.0781922967147341,0.9955612156868467,0.09352316526210439,-0.00434759538630278,0.009611544820769187
1668680995.6079154,82730,1668680995,607747549,,-0.05751729881150887,-0.6637951249692927,0.0781922967147341,0.9955612156868467,0.09352316526210439,-0.00434759538630278,0.009611544820769187
1668680995.615525,82731,1668680995,615263002,,-0.05709652220748296,-0.664264752001489,0.0781922967147341,0.9955612156868467,0.09352316526210439,-0.00434759538630278,0.009611544820769187
1668680995.6237774,82732,1668680995,623613499,,-0.05667404085484759,-0.664735751465753,0.0781922967147341,0.9955612156868467,0.09352316526210439,-0.00434759538630278,0.009611544820769187
1668680995.6325276,82733,1668680995,632251200,,-0.05624986339992734,-0.6652081020905938,0.0781922967147341,0.9955612156868467,0.09352316526210439,-0.00434759538630278,0.009611544820769187
1668680995.6406024,82734,1668680995,640308351,,-0.05582399852375845,-0.6656817824646131,0.0781922967147341,0.9955612156868467,0.09352316526210439,-0.00434759538630278,0.009611544820769187
1668680995.6481783,82735,1668680995,647998490,,-0.05539645494191127,-0.6661567710374888,0.0781922967147341,0.9955612156868467,0.09352316526210439,-0.00434759538630278,0.009611544820769187
1668680995.6566312,82736,1668680995,656437454,,-0.05496724140431178,-0.6666330461209918,0.0781922967147341,0.9955612156868467,0.09352316526210439,-0.00434759538630278,0.009611544820769187
1668680995.6641133,82737,1668680995,663943039,,-0.05453636669506262,-0.6671105858900336,0.0781922967147341,0.9955612156868467,0.09352316526210439,-0.00434759538630278,0.009611544820769187
1668680995.6725745,82738,1668680995,672322540,,-0.054103839632263215,-0.6675893683837474,0.0781922967147341,0.9955612156868467,0.09352316526210439,-0.00434759538630278,0.009611544820769187
1668680995.6801512,82739,1668680995,679985167,,-0.05366966906782937,-0.6680693715066014,0.0781922967147341,0.9955612156868467,0.09352316526210439,-0.00434759538630278,0.009611544820769187
1668680995.6879315,82740,1668680995,687764851,,-0.05323386388731213,-0.6685505730295438,0.0781922967147341,0.9955612156868467,0.09352316526210439,-0.00434759538630278,0.009611544820769187
1668680995.6954892,82741,1668680995,695291207,,-0.05279643300971587,-0.6690329505911811,0.0781922967147341,0.9955612156868467,0.09352316526210439,-0.00434759538630278,0.009611544820769187
1668680995.7036822,82742,1668680995,703551713,,-0.0523573853873158,-0.6695164816989876,0.0781922967147341,0.9955612156868467,0.09352316526210439,-0.00434759538630278,0.009611544820769187
1668680995.711691,82743,1668680995,711473357,,-0.05191673000547474,-0.6700011437305492,0.0781922967147341,0.9955612156868467,0.09352316526210439,-0.00434759538630278,0.009611544820769187
1668680995.7197988,82744,1668680995,719615606,,-0.05147447588245928,-0.6704869139348375,0.0781922967147341,0.9955612156868467,0.09352316526210439,-0.00434759538630278,0.009611544820769187
1668680995.7277765,82745,1668680995,727629663,,-0.05103063206925508,-0.6709737694335179,0.0781922967147341,0.9955612156868467,0.09352316526210439,-0.00434759538630278,0.009611544820769187
1668680995.7359343,82746,1668680995,735653509,,-0.05058520764938182,-0.6714616872222894,0.0781922967147341,0.9955612156868467,0.09352316526210439,-0.00434759538630278,0.009611544820769187
1668680995.7449548,82747,1668680995,744529506,,-0.050138211738707125,-0.6719506441722568,0.0781922967147341,0.9955612156868467,0.09352316526210439,-0.00434759538630278,0.009611544820769187
1668680995.752348,82748,1668680995,752158925,,-0.049689653485260166,-0.6724406170313353,0.0781922967147341,0.9955612156868467,0.09352316526210439,-0.00434759538630278,0.009611544820769187
1668680995.7599156,82749,1668680995,759668398,,-0.049239542069044295,-0.6729315824256874,0.0781922967147341,0.9955612156868467,0.09352316526210439,-0.00434759538630278,0.009611544820769187
1668680995.7676625,82750,1668680995,767539975,,-0.04878788670184929,-0.6734235168611921,0.0781922967147341,0.9955612156868467,0.09352316526210439,-0.00434759538630278,0.009611544820769187
1668680995.7760346,82751,1668680995,775888800,,-0.04833469662706272,-0.6739163967249461,0.0781922967147341,0.9955612156868467,0.09352316526210439,-0.00434759538630278,0.009611544820769187
1668680995.783567,82752,1668680995,783321483,,-0.04787998111948086,-0.6744101982867974,0.0781922967147341,0.9955612156868467,0.09352316526210439,-0.00434759538630278,0.009611544820769187
1668680995.791834,82753,1668680995,791589393,,-0.04742374948511885,-0.67490489770091,0.0781922967147341,0.9955612156868467,0.09352316526210439,-0.00434759538630278,0.009611544820769187
1668680995.7999282,82754,1668680995,799785876,,-0.04696601106102023,-0.675400471007362,0.0781922967147341,0.9955612156868467,0.09352316526210439,-0.00434759538630278,0.009611544820769187
1668680995.8078682,82755,1668680995,807688763,,-0.04650677521506587,-0.6758968941337741,0.0781922967147341,0.9955612156868467,0.09352316526210439,-0.00434759538630278,0.009611544820769187
1668680995.8156116,82756,1668680995,815434217,,-0.04604605134578224,-0.6763941428969705,0.0781922967147341,0.9955612156868467,0.09352316526210439,-0.00434759538630278,0.009611544820769187
1668680995.8238287,82757,1668680995,823672509,,-0.04558384888214907,-0.6768921930046717,0.0781922967147341,0.9955612156868467,0.09352316526210439,-0.00434759538630278,0.009611544820769187
