Time,header.seq,header.stamp.secs,header.stamp.nsecs,header.frame_id,pose.position.x,pose.position.y,pose.position.z,pose.orientation.x,pose.orientation.y,pose.orientation.z,pose.orientation.w
1668680935.3361447,75196,1668680935,335737421,,-0.09879785947680203,-0.6160097985090074,0.07819229671453093,0.9955612123563576,0.09352316493812048,-0.004347660485268896,0.009611863492653422
1668680935.343522,75197,1668680935,343340915,,-0.09879796103570175,-0.6160097985014531,0.07819229671451774,0.9955612124430683,0.09352316490277136,-0.004347656766524136,0.00961185653749688
1668680935.351695,75198,1668680935,351525737,,-0.09879805500284337,-0.6160097984940844,0.07819229671450544,0.995561212529506,0.09352316486774842,-0.0043476530694349005,0.009611849597636758
1668680935.3601387,75199,1668680935,360044639,,-0.09879814179271873,-0.6160097984869004,0.07819229671449385,0.9955612126156618,0.0935231648330542,-0.004347649394302321,0.009611842673839563
1668680935.3686323,75200,1668680935,368360899,,-0.09879822180122759,-0.6160097984799013,0.07819229671448331,0.9955612127015269,0.09352316479869023,-0.004347645741422779,0.009611835766864536
1668680935.3762596,75201,1668680935,375961437,,-0.0987982954063648,-0.6160097984730852,0.0781922967144738,0.9955612127870926,0.09352316476465827,-0.004347642111087052,0.009611828877462088
1668680935.3844345,75202,1668680935,384216946,,-0.09879836296888997,-0.6160097984664519,0.07819229671446495,0.9955612128723506,0.09352316473096002,-0.004347638503580996,0.009611822006374579
1668680935.3923054,75203,1668680935,392024426,,-0.09879842483297796,-0.616009798459999,0.07819229671445707,0.995561212957292,0.09352316469759704,-0.004347634919185241,0.009611815154336205
1668680935.400183,75204,1668680935,399937227,,-0.0987984813268489,-0.6160097984537252,0.07819229671444998,0.9955612130419087,0.09352316466457126,-0.0043476313581749595,0.009611808322072729
1668680935.407789,75205,1668680935,407592004,,-0.09879853276338359,-0.6160097984476287,0.07819229671444371,0.9955612131261923,0.09352316463188401,-0.004347627820820703,0.0096118015103021
1668680935.4157357,75206,1668680935,415508210,,-0.09879857944071598,-0.6160097984417072,0.07819229671443811,0.9955612132101348,0.09352316459953684,-0.004347624307387217,0.0096117947197331
1668680935.423602,75207,1668680935,423500269,,-0.09879862164281242,-0.616009798435959,0.07819229671443349,0.9955612132937282,0.09352316456753104,-0.004347620818134729,0.009611787951067256
1668680935.4327052,75208,1668680935,432406329,,-0.09879865964002911,-0.616009798430381,0.07819229671442962,0.9955612133769642,0.09352316453586826,-0.004347617353317596,0.009611781204996804
1668680935.4397247,75209,1668680935,439590874,,-0.09879869368965549,-0.6160097984249712,0.07819229671442628,0.9955612134598355,0.09352316450454964,-0.004347613913185554,0.009611774482205734
1668680935.4478765,75210,1668680935,447635241,,-0.09879872403643848,-0.6160097984197264,0.07819229671442356,0.995561213542334,0.09352316447357659,-0.004347610497982941,0.009611767783370074
1668680935.455464,75211,1668680935,455340239,,-0.098798750913091,-0.6160097984146442,0.07819229671442185,0.9955612136244523,0.09352316444295022,-0.004347607107949162,0.009611761109157142
1668680935.4645555,75212,1668680935,464428396,,-0.09879877454078366,-0.6160097984097217,0.07819229671442053,0.9955612137061829,0.09352316441267189,-0.004347603743318409,0.009611754460225948
1668680935.4716287,75213,1668680935,471477187,,-0.09879879512962053,-0.6160097984049562,0.07819229671441992,0.995561213787518,0.09352316438274255,-0.004347600404319729,0.009611747837226696
1668680935.4798236,75214,1668680935,479667192,,-0.09879881287909917,-0.6160097984003439,0.07819229671441985,0.9955612138684511,0.09352316435316323,-0.004347597091177041,0.00961174124080136
1668680935.4876773,75215,1668680935,487527599,,-0.09879882797855467,-0.6160097983958827,0.07819229671442028,0.9955612139489746,0.09352316432393479,-0.00434759380410924,0.009611734671583456
1668680935.4958377,75216,1668680935,495659252,,-0.0987988406075899,-0.6160097983915687,0.07819229671442096,0.9955612140290813,0.09352316429505869,-0.004347590543330254,0.009611728130197948
1668680935.503424,75217,1668680935,503291794,,-0.09879885093648987,-0.6160097983873994,0.0781922967144226,0.9955612141087644,0.09352316426653538,-0.004347587309048734,0.009611721617261357
1668680935.5118842,75218,1668680935,511724262,,-0.09879885912662145,-0.6160097983833708,0.07819229671442418,0.9955612141880172,0.09352316423836575,-0.004347584101468245,0.009611715133381203
1668680935.5197163,75219,1668680935,519543394,,-0.09879886533082115,-0.6160097983794804,0.07819229671442661,0.9955612142668328,0.09352316421055071,-0.004347580920787837,0.009611708679157433
1668680935.527629,75220,1668680935,527509121,,-0.09879886969376583,-0.6160097983757247,0.07819229671442918,0.9955612143452046,0.09352316418309126,-0.004347577767200775,0.009611702255180215
1668680935.5365255,75221,1668680935,536295241,,-0.09879887235233371,-0.6160097983721005,0.0781922967144323,0.9955612144231261,0.09352316415598776,-0.004347574640895983,0.009611695862032282
1668680935.543846,75222,1668680935,543684995,,-0.09879887343594969,-0.6160097983686044,0.07819229671443563,0.995561214500591,0.09352316412924083,-0.004347571542056846,0.00961168950028701
1668680935.5521822,75223,1668680935,551952108,,-0.09879887306691869,-0.6160097983652334,0.0781922967144395,0.995561214577593,0.0935231641028513,-0.004347568470862263,0.00961168317050966
1668680935.5603857,75224,1668680935,560187125,,-0.09879887136074778,-0.6160097983619839,0.07819229671444368,0.9955612146541256,0.09352316407681947,-0.00434756542748591,0.009611676873256638
1668680935.5683615,75225,1668680935,568234174,,-0.09879886842645501,-0.6160097983588533,0.07819229671444786,0.9955612147301832,0.09352316405114604,-0.004347562412096461,0.009611670609075739
1668680935.5752714,75226,1668680935,575168926,,-0.09879886436686691,-0.6160097983558377,0.07819229671445248,0.9955612148057597,0.09352316402583129,-0.00434755942485787,0.009611664378506475
1668680935.5835936,75227,1668680935,583503655,,-0.09879885927890528,-0.6160097983529346,0.0781922967144572,0.9955612148808488,0.09352316400087579,-0.004347556465929113,0.0096116581820798
1668680935.5916646,75228,1668680935,591521554,,-0.09879885325386246,-0.6160097983501401,0.07819229671446211,0.9955612149554454,0.09352316397627959,-0.004347553535464224,0.00961165202031751
1668680935.5996408,75229,1668680935,599537457,,-0.09879884637766566,-0.6160097983474518,0.0781922967144672,0.9955612150295435,0.0935231639520432,-0.004347550633612423,0.00961164589373355
1668680935.607712,75230,1668680935,607593906,,-0.09879883873113152,-0.6160097983448666,0.07819229671447252,0.9955612151031376,0.09352316392816702,-0.004347547760518052,0.009611639802832809
1668680935.6159697,75231,1668680935,615760366,,-0.09879883039021134,-0.616009798342381,0.07819229671447787,0.9955612151762224,0.09352316390465087,-0.004347544916320611,0.009611633748111668
1668680935.6234677,75232,1668680935,623366046,,-0.09879882142622402,-0.6160097983399919,0.07819229671448352,0.9955612152487925,0.09352316388149513,-0.0043475421011549276,0.009611627730058133
1668680935.6316955,75233,1668680935,631587714,,-0.09879881190608349,-0.616009798337697,0.07819229671448914,0.9955612153208427,0.0935231638586998,-0.004347539315150956,0.009611621749151492
1668680935.6396873,75234,1668680935,639543298,,-0.09879880189251233,-0.6160097983354932,0.07819229671449492,0.9955612153923679,0.09352316383626506,-0.004347536558433774,0.0096116158058625
1668680935.6476905,75235,1668680935,647580757,,-0.09879879144425184,-0.6160097983333772,0.0781922967145004,0.9955612154633632,0.09352316381419089,-0.004347533831123859,0.009611609900653231
1668680935.6554801,75236,1668680935,655263028,,-0.09879878061625828,-0.6160097983313472,0.07819229671450638,0.9955612155338235,0.09352316379247719,-0.004347531133336998,0.009611604033977648
1668680935.6635945,75237,1668680935,663491855,,-0.09879876945989557,-0.6160097983293994,0.0781922967145123,0.9955612156037442,0.093523163771124,-0.004347528465184145,0.00961159820628057
1668680935.6717086,75238,1668680935,671551941,,-0.09879875802311641,-0.6160097983275316,0.0781922967145181,0.9955612156731207,0.09352316375013107,-0.004347525826771617,0.009611592417998808
1668680935.6797876,75239,1668680935,679653849,,-0.0987987463506378,-0.6160097983257412,0.07819229671452392,0.9955612157419482,0.0935231637294983,-0.004347523218201151,0.009611586669560296
1668680935.688381,75240,1668680935,688206894,,-0.09879873448410867,-0.6160097983240255,0.07819229671452979,0.9955612158102226,0.09352316370922543,-0.0043475206395698985,0.009611580961384878
1668680935.6959045,75241,1668680935,695700014,,-0.0987987224622695,-0.6160097983223819,0.0781922967145357,0.9955612158779393,0.09352316368931238,-0.0043475180909702,0.009611575293883647
1668680935.7037606,75242,1668680935,703631040,,-0.09879871032110664,-0.6160097983208083,0.07819229671454156,0.9955612159450941,0.09352316366975835,-0.004347515572489991,0.009611569667458872
1668680935.7115848,75243,1668680935,711416840,,-0.09879869809399772,-0.6160097983193017,0.07819229671454751,0.9955612160116827,0.0935231636505635,-0.004347513084212627,0.009611564082505141
1668680935.720049,75244,1668680935,719791983,,-0.09879868581185339,-0.6160097983178606,0.07819229671455313,0.9955612160777013,0.09352316363172734,-0.004347510626216937,0.009611558539408135
1668680935.7276626,75245,1668680935,727521814,,-0.09879867350325006,-0.6160097983164818,0.07819229671455895,0.9955612161431461,0.09352316361324904,-0.004347508198577238,0.009611553038545238
1668680935.735326,75246,1668680935,735199819,,-0.09879866119455806,-0.6160097983151639,0.07819229671456458,0.995561216208013,0.09352316359512867,-0.004347505801363258,0.009611547580285245
1668680935.74411,75247,1668680935,743951961,,-0.0987986489100652,-0.6160097983139039,0.07819229671457018,0.9955612162722982,0.09352316357736523,-0.004347503434640331,0.009611542164988635
1668680935.7524269,75248,1668680935,752239469,,-0.09879863667209163,-0.6160097983127001,0.07819229671457564,0.9955612163359985,0.09352316355995857,-0.0043475010984696085,0.00961153679300787
1668680935.7597497,75249,1668680935,759489668,,-0.09879862450110266,-0.6160097983115508,0.07819229671458104,0.99556121639911,0.09352316354290797,-0.0043474987929076085,0.009611531464686778
1668680935.7677348,75250,1668680935,767516760,,-0.09879861241581404,-0.6160097983104531,0.07819229671458648,0.9955612164616294,0.09352316352621277,-0.004347496518006462,0.009611526180360746
1668680935.7757456,75251,1668680935,775601782,,-0.09879860043329382,-0.6160097983094056,0.07819229671459173,0.9955612165235536,0.09352316350987228,-0.004347494273814067,0.00961152094035708
1668680935.783672,75252,1668680935,783507178,,-0.09879858856905913,-0.616009798308407,0.07819229671459678,0.9955612165848792,0.0935231634938856,-0.004347492060374034,0.009611515744994928
1668680935.7917209,75253,1668680935,791613806,,-0.09879857683716711,-0.6160097983074544,0.0781922967146022,0.995561216645603,0.09352316347825217,-0.004347489877725608,0.009611510594584937
1668680935.7997348,75254,1668680935,799562301,,-0.09879856525030309,-0.6160097983065463,0.07819229671460683,0.9955612167057223,0.09352316346297115,-0.0043474877259035575,0.009611505489429198
1668680935.8077703,75255,1668680935,807571941,,-0.09879855381986453,-0.6160097983056811,0.07819229671461177,0.995561216765234,0.09352316344804167,-0.004347485604939031,0.009611500429822582
1668680935.8156683,75256,1668680935,815527852,,-0.09879854255603962,-0.6160097983048571,0.07819229671461642,0.9955612168241355,0.09352316343346281,-0.004347483514858405,0.009611495416050877
1668680935.8234472,75257,1668680935,823264873,,-0.09879853146788245,-0.6160097983040729,0.0781922967146211,0.9955612168824237,0.09352316341923374,-0.004347481455684296,0.009611490448392334
1668680935.8325324,75258,1668680935,832269124,,-0.09879852056338571,-0.6160097983033268,0.07819229671462562,0.9955612169400964,0.09352316340535358,-0.004347479427434852,0.009611485527116862
1668680935.8403037,75259,1668680935,840065100,,-0.09879850984954816,-0.6160097983026168,0.07819229671462999,0.9955612169971509,0.09352316339182094,-0.004347477430124324,0.0096114806524862
1668680935.84791,75260,1668680935,847727526,,-0.09879849933243923,-0.6160097983019419,0.0781922967146343,0.9955612170535849,0.09352316337863524,-0.004347475463762878,0.009611475824754195
1668680935.8556514,75261,1668680935,855528046,,-0.0987984890172606,-0.6160097983013005,0.07819229671463841,0.9955612171093962,0.09352316336579528,-0.004347473528356527,0.009611471044166507
1668680935.8633554,75262,1668680935,863236700,,-0.09879847890840524,-0.6160097983006914,0.0781922967146426,0.9955612171645823,0.09352316335329991,-0.004347471623907343,0.009611466310961044
1668680935.8716369,75263,1668680935,871544720,,-0.0987984690095115,-0.616009798300113,0.07819229671464645,0.9955612172191414,0.0935231633411481,-0.004347469750413509,0.00961146162536751
1668680935.8799014,75264,1668680935,879732723,,-0.09879845932351623,-0.6160097982995646,0.07819229671465029,0.9955612172730712,0.09352316332933859,-0.004347467907869138,0.009611456987607918
1668680935.8876576,75265,1668680935,887525936,,-0.09879844985270418,-0.6160097982990439,0.07819229671465405,0.99556121732637,0.09352316331787014,-0.004347466096264362,0.009611452397896009
1668680935.8958333,75266,1668680935,895676639,,-0.09879844059875535,-0.6160097982985505,0.07819229671465776,0.995561217379036,0.09352316330674164,-0.004347464315585663,0.009611447856438431
1668680935.9034421,75267,1668680935,903325371,,-0.09879843156278884,-0.616009798298083,0.07819229671466107,0.9955612174310674,0.09352316329595178,-0.004347462565815476,0.009611443363433161
1668680935.9116707,75268,1668680935,911572394,,-0.09879842274540558,-0.6160097982976401,0.07819229671466443,0.9955612174824626,0.09352316328549923,-0.0043474608469324365,0.009611438919070922
1668680935.9196825,75269,1668680935,919550111,,-0.09879841414672777,-0.6160097982972209,0.07819229671466757,0.99556121753322,0.09352316327538264,-0.004347459158911539,0.009611434523534561
1668680935.927734,75270,1668680935,927574936,,-0.09879840576643659,-0.6160097982968246,0.07819229671467096,0.9955612175833384,0.09352316326560053,-0.004347457501723903,0.00961143017699931
1668680935.9354076,75271,1668680935,935270194,,-0.09879839760380758,-0.61600979829645,0.0781922967146741,0.9955612176328161,0.09352316325615169,-0.00434745587533696,0.009611425879632663
1668680935.9437625,75272,1668680935,943644839,,-0.09879838965774426,-0.616009798296096,0.0781922967146771,0.9955612176816522,0.09352316324703455,-0.004347454279714385,0.009611421631594312
1668680935.9516428,75273,1668680935,951484347,,-0.09879838192680916,-0.6160097982957616,0.07819229671467999,0.9955612177298454,0.09352316323824758,-0.004347452714816329,0.009611417433036637
1668680935.9601235,75274,1668680935,959791536,,-0.0987983744092546,-0.6160097982954461,0.07819229671468254,0.9955612177773945,0.09352316322978943,-0.004347451180599074,0.009611413284103964
1668680935.967591,75275,1668680935,967476005,,-0.09879836710304964,-0.6160097982951485,0.07819229671468536,0.9955612178242986,0.09352316322165864,-0.004347449677015933,0.009611409184934378
1668680935.9761395,75276,1668680935,975891724,,-0.09879836000590729,-0.6160097982948683,0.07819229671468791,0.995561217870557,0.09352316321385351,-0.004347448204015944,0.009611405135657013
1668680935.9843814,75277,1668680935,984191727,,-0.09879835311530843,-0.6160097982946046,0.07819229671469029,0.9955612179161687,0.09352316320637266,-0.004347446761544974,0.00961140113639441
1668680935.991751,75278,1668680935,991617916,,-0.09879834642852586,-0.6160097982943558,0.07819229671469273,0.995561217961133,0.09352316319921432,-0.004347445349545438,0.009611397187261516
1668680935.9997475,75279,1668680935,999582711,,-0.09879833994264581,-0.6160097982941224,0.0781922967146948,0.9955612180054495,0.09352316319237675,-0.004347443967956159,0.00961139328836604
1668680936.0076957,75280,1668680936,7587944,,-0.09879833365458836,-0.6160097982939028,0.07819229671469702,0.9955612180491172,0.09352316318585831,-0.004347442616712736,0.009611389439808238
1668680936.0152898,75281,1668680936,15168531,,-0.09879832756112666,-0.6160097982936967,0.0781922967146991,0.9955612180921363,0.09352316317965739,-0.0043474412957473455,0.009611385641681524
1668680936.023599,75282,1668680936,23491693,,-0.09879832165890498,-0.6160097982935032,0.07819229671470106,0.9955612181345059,0.09352316317377225,-0.004347440004988694,0.009611381894071567
1668680936.031881,75283,1668680936,31702942,,-0.09879831594445569,-0.6160097982933221,0.078192296714703,0.9955612181762261,0.09352316316820089,-0.004347438744362342,0.009611378197057287
1668680936.0399415,75284,1668680936,39766001,,-0.09879831041421443,-0.6160097982931524,0.07819229671470496,0.9955612182172964,0.093523163162942,-0.004347437513790541,0.00961137455071054
1668680936.0476089,75285,1668680936,47448199,,-0.09879830506453523,-0.6160097982929938,0.07819229671470687,0.9955612182577169,0.09352316315799354,-0.004347436313192205,0.009611370955095764
1668680936.0554347,75286,1668680936,55321119,,-0.09879829989170416,-0.6160097982928457,0.07819229671470852,0.9955612182974878,0.0935231631533537,-0.004347435142483071,0.009611367410270423
1668680936.063625,75287,1668680936,63497349,,-0.09879829489195191,-0.6160097982927074,0.07819229671471013,0.9955612183366086,0.09352316314902044,-0.004347434001575993,0.009611363916285436
1668680936.071986,75288,1668680936,71810861,,-0.09879829006146522,-0.6160097982925785,0.07819229671471163,0.9955612183750798,0.0935231631449922,-0.00434743289038034,0.00961136047318447
1668680936.0798197,75289,1668680936,79645269,,-0.09879828539639875,-0.6160097982924583,0.07819229671471312,0.9955612184129017,0.09352316314126666,-0.004347431808802645,0.009611357081004449
1668680936.0876915,75290,1668680936,87535679,,-0.09879828089288407,-0.6160097982923464,0.07819229671471442,0.9955612184500744,0.0935231631378424,-0.004347430756746217,0.009611353739775222
1668680936.095542,75291,1668680936,95334390,,-0.09879827654704026,-0.6160097982922429,0.07819229671471578,0.9955612184865984,0.0935231631347172,-0.004347429734111618,0.009611350449520762
1668680936.10391,75292,1668680936,103717897,,-0.09879827235498168,-0.616009798292147,0.07819229671471728,0.9955612185224743,0.09352316313188912,-0.004347428740796012,0.009611347210257115
1668680936.111679,75293,1668680936,111556108,,-0.09879826831282684,-0.6160097982920582,0.07819229671471845,0.9955612185577024,0.0935231631293559,-0.004347427776694081,0.0096113440219945
1668680936.1201034,75294,1668680936,119931705,,-0.0987982644167044,-0.6160097982919757,0.07819229671471968,0.9955612185922834,0.09352316312711599,-0.004347426841697188,0.009611340884736091
1668680936.1278248,75295,1668680936,127619887,,-0.09879826066276186,-0.6160097982919,0.07819229671472072,0.9955612186262182,0.09352316312516698,-0.004347425935694213,0.009611337798478767
1668680936.1364188,75296,1668680936,136221205,,-0.09879825704716973,-0.6160097982918301,0.07819229671472178,0.9955612186595073,0.09352316312350717,-0.004347425058570938,0.00961133476321286
1668680936.1439183,75297,1668680936,143732846,,-0.09879825356612863,-0.6160097982917662,0.07819229671472276,0.9955612186921519,0.09352316312213418,-0.0043474242102104375,0.009611331778922132
1668680936.1524625,75298,1668680936,152270695,,-0.09879825021587431,-0.6160097982917072,0.07819229671472366,0.9955612187241526,0.09352316312104592,-0.00434742339049309,0.009611328845584126
1668680936.1606157,75299,1668680936,160441381,,-0.09879824699268125,-0.6160097982916538,0.07819229671472461,0.9955612187555106,0.09352316312024038,-0.004347422599296349,0.009611325963169914
1668680936.168625,75300,1668680936,168482323,,-0.098798243892868,-0.6160097982916047,0.07819229671472541,0.995561218786227,0.0935231631197155,-0.004347421836495408,0.009611323131644266
1668680936.1758566,75301,1668680936,175734788,,-0.09879824091280072,-0.6160097982915603,0.07819229671472644,0.9955612188163029,0.093523163119469,-0.004347421101962526,0.009611320350966044
1668680936.184238,75302,1668680936,184132570,,-0.09879823804889627,-0.61600979829152,0.07819229671472719,0.9955612188457394,0.09352316311949861,-0.004347420395567173,0.00961131762108734
1668680936.1924713,75303,1668680936,192297936,,-0.09879834772141914,-0.6160097982914737,0.07819229671472736,0.9955612188745382,0.09352316311980247,-0.004347419717176121,0.009611314941954557
1668680936.1999204,75304,1668680936,199792656,,-0.09879873275515322,-0.6160097982913215,0.07819229671472468,0.9955612189027003,0.09352316312037777,-0.004347419066653709,0.00961131231351002
1668680936.2076948,75305,1668680936,207563754,,-0.09879950858197911,-0.616009798290754,0.07819229671470962,0.9955612189302271,0.09352316312122293,-0.004347418443863229,0.00961130973569229
1668680936.2156022,75306,1668680936,215471816,,-0.09880060332700233,-0.616009798289549,0.07819229671467612,0.9955612189571204,0.0935231631223351,-0.004347417848666185,0.00961130720843307
1668680936.2234123,75307,1668680936,223285841,,-0.09880180934439856,-0.6160097982880899,0.07819229671463494,0.9955612189833815,0.09352316312371255,-0.004347417280919041,0.009611304731649936
1668680936.231869,75308,1668680936,231747048,,-0.09880305182008729,-0.6160097997729096,0.07819229671459253,0.9955612190090122,0.09352316312535272,-0.0043474167404756545,0.009611302305255505
1668680936.2396212,75309,1668680936,239529933,,-0.09880428737151037,-0.616009808568774,0.07819229671454936,0.9955612190340142,0.09352316312725328,-0.004347416227188083,0.009611299929158813
1668680936.24784,75310,1668680936,247723343,,-0.09880545354936401,-0.616009835970814,0.07819229671450562,0.9955612190583896,0.09352316312941222,-0.004347415740905662,0.009611297603262282
1668680936.2556784,75311,1668680936,255477992,,-0.09880651169542248,-0.616009898289562,0.07819229671445581,0.9955612190821398,0.09352316313182688,-0.004347415281475626,0.009611295327463026
1668680936.2644649,75312,1668680936,264279672,,-0.09880743883542313,-0.6160100164221597,0.07819229671438907,0.9955612191052671,0.0935231631344952,-0.004347414848743688,0.009611293101654405
1668680936.271983,75313,1668680936,271847153,,-0.09880821337425837,-0.6160102154482701,0.0781922967142876,0.9955612191277734,0.09352316313741438,-0.004347414442553398,0.009611290925724606
1668680936.2805336,75314,1668680936,280241776,,-0.09880880809320708,-0.616010524249548,0.07819229671412295,0.9955612191496606,0.0935231631405828,-0.004347414062746303,0.009611288799556247
1668680936.28794,75315,1668680936,287768824,,-0.09880919675447278,-0.616010975151497,0.07819229671385063,0.995561219170931,0.09352316314399724,-0.004347413709162386,0.00961128672302798
1668680936.2954547,75316,1668680936,295356913,,-0.09880935241859945,-0.6160116035867317,0.07819229671340168,0.9955612191915865,0.09352316314765598,-0.004347413381639715,0.00961128469601344
1668680936.3036885,75317,1668680936,303572022,,-0.09880924705990062,-0.616012447778592,0.07819229671267557,0.9955612192116297,0.09352316315155614,-0.004347413080015121,0.009611282718382477
1668680936.3117285,75318,1668680936,311611931,,-0.09880885068110555,-0.6160135484441253,0.07819229671152937,0.9955612192310624,0.09352316315569557,-0.00434741280412382,0.00961128079000108
1668680936.3199272,75319,1668680936,319779779,,-0.09880813098575507,-0.6160149485154913,0.07819229670976917,0.995561219249887,0.09352316316007177,-0.004347412553800027,0.009611278910731597
1668680936.3278465,75320,1668680936,327730917,,-0.09880705410311515,-0.6160166928788846,0.07819229670713825,0.9955612192681061,0.0935231631646823,-0.004347412328876749,0.009611277080433378
1668680936.3358133,75321,1668680936,335650660,,-0.0988055846506976,-0.6160188281301051,0.0781922967033075,0.9955612192857217,0.0935231631695249,-0.004347412129186271,0.009611275298962826
1668680936.343695,75322,1668680936,343549988,,-0.0988036858860992,-0.616021402345948,0.0781922966978648,0.9955612193027364,0.09352316317459677,-0.004347411954560456,0.00961127356617497
1668680936.352204,75323,1668680936,351940281,,-0.0988013198078299,-0.616024464870605,0.07819229669030424,0.9955612193191525,0.09352316317989548,-0.004347411804830598,0.009611271881922385
1668680936.3596442,75324,1668680936,359544468,,-0.09879844728867011,-0.6160280661163209,0.07819229668001675,0.9955612193349723,0.09352316318541881,-0.004347411679827856,0.009611270246056713
1668680936.3675785,75325,1668680936,367464143,,-0.09879502828089441,-0.6160322573775668,0.07819229666628136,0.9955612193501984,0.09352316319116363,-0.004347411579383395,0.009611268658428363
1668680936.3754542,75326,1668680936,375276365,,-0.09879102195953215,-0.6160370906580289,0.078192296648257,0.9955612193648332,0.09352316319712814,-0.004347411503328949,0.009611267118888014
1668680936.383547,75327,1668680936,383450863,,-0.09878638686308959,-0.6160426185097434,0.07819229662497466,0.995561219378879,0.09352316320330933,-0.004347411451496283,0.009611265627285582
1668680936.391798,75328,1668680936,391681734,,-0.09878108102123649,-0.6160488938837316,0.0781922965953326,0.9955612193923382,0.09352316320970472,-0.004347411423718189,0.009611264183472228
1668680936.3997111,75329,1668680936,399599269,,-0.09877506207648232,-0.6160559699915242,0.07819229655809085,0.9955612194052134,0.09352316321631168,-0.0043474114198281885,0.009611262787299844
1668680936.4077542,75330,1668680936,407580104,,-0.09876828740338134,-0.6160639001769834,0.07819229651186704,0.9955612194175067,0.0935231632231278,-0.0043474114396608405,0.009611261438621479
1668680936.415942,75331,1668680936,415788301,,-0.0987607142152171,-0.6160727377978643,0.07819229645513491,0.9955612194292207,0.09352316323015053,-0.00434741148305206,0.009611260137292046
1668680936.4242113,75332,1668680936,423977825,,-0.09875229966323937,-0.6160825361165783,0.07819229638622299,0.9955612194403577,0.09352316323737718,-0.004347411549839294,0.009611258883168503
1668680936.4326928,75333,1668680936,432364338,,-0.09874300092803191,-0.6160933481996443,0.07819229630331427,0.9955612194509199,0.09352316324480486,-0.004347411639861355,0.00961125767611051
1668680936.4398468,75334,1668680936,439718381,,-0.09873277530393988,-0.6161052268253441,0.07819229620444773,0.9955612194609096,0.09352316325243115,-0.004347411752958815,0.009611256515979997
1668680936.4475403,75335,1668680936,447419154,,-0.09872158027719959,-0.6161182243991071,0.07819229608752154,0.995561219470329,0.0935231632602534,-0.004347411888974467,0.009611255402642465
1668680936.455498,75336,1668680936,455321451,,-0.09870937359732897,-0.6161323928761882,0.07819229595029581,0.9955612194791805,0.09352316326826886,-0.004347412047752728,0.009611254335966364
1668680936.463721,75337,1668680936,463567300,,-0.09869611334250675,-0.6161477836912091,0.07819229579039834,0.9955612194874661,0.09352316327647509,-0.004347412229140408,0.009611253315823973
1668680936.4717968,75338,1668680936,471575365,,-0.09868175797922314,-0.6161644476941583,0.07819229560532973,0.995561219495188,0.09352316328486901,-0.004347412432986487,0.009611252342090926
1668680936.4797406,75339,1668680936,479567097,,-0.09866626641657496,-0.6161824350924712,0.07819229539247073,0.9955612195023481,0.0935231632934481,-0.004347412659142066,0.00961125141464701
1668680936.487676,75340,1668680936,487570729,,-0.09864959805554176,-0.6162017953988139,0.07819229514908936,0.9955612195089486,0.09352316330220968,-0.004347412907460969,0.009611250533376203
1668680936.495409,75341,1668680936,495242044,,-0.09863171283347955,-0.6162225773842297,0.07819229487235,0.9955612195149913,0.09352316331115101,-0.004347413177799448,0.009611249698166483
1668680936.5038476,75342,1668680936,503668898,,-0.09861257126415049,-0.6162448290363122,0.07819229455932164,0.9955612195204783,0.09352316332026923,-0.004347413470015796,0.009611248908909862
1668680936.5118172,75343,1668680936,511644244,,-0.09859213447355596,-0.6162685975220904,0.07819229420698799,0.9955612195254113,0.09352316332956176,-0.004347413783971312,0.009611248165502764
1668680936.519835,75344,1668680936,519634695,,-0.0985703642318367,-0.616293929155325,0.07819229381225845,0.9955612195297922,0.0935231633390257,-0.0043474141195297186,0.009611247467846354
1668680936.5276752,75345,1668680936,527545399,,-0.09854722298149,-0.616320869367932,0.07819229337197692,0.9955612195336228,0.0935231633486582,-0.0043474144765570195,0.009611246815845279
1668680936.535403,75346,1668680936,535277676,,-0.09852267386213348,-0.6163494626852604,0.07819229288293461,0.9955612195369046,0.09352316335845663,-0.0043474148549221365,0.00961124620940911
1668680936.5436358,75347,1668680936,543542859,,-0.09849668073204218,-0.61637975270497,0.07819229234187995,0.9955612195396395,0.09352316336841814,-0.004347415254496474,0.009611245648451386
1668680936.5519493,75348,1668680936,551777293,,-0.0984692081866699,-0.6164117820792626,0.07819229174553027,0.9955612195418291,0.09352316337854003,-0.00434741567515368,0.00961124513288977
1668680936.5596793,75349,1668680936,559578871,,-0.0984402215743582,-0.6164455925002365,0.07819229109058333,0.9955612195434747,0.09352316338881951,-0.004347416116769973,0.009611244662645973
1668680936.567735,75350,1668680936,567578308,,-0.098409687009422,-0.6164812246881454,0.07819229037372864,0.995561219544578,0.09352316339925357,-0.004347416579224163,0.009611244237645556
1668680936.5756724,75351,1668680936,575504644,,-0.09837757138279393,-0.6165187183823554,0.07819228959165822,0.9955612195451405,0.0935231634098395,-0.004347417062397113,0.009611243857817812
1668680936.584254,75352,1668680936,584061818,,-0.09834384237040038,-0.6165581123347988,0.07819228874107878,0.9955612195451637,0.09352316342057428,-0.004347417566172237,0.009611243523095657
1668680936.5922706,75353,1668680936,591965225,,-0.09830846843942796,-0.6165994443057444,0.07819228781872135,0.9955612195446488,0.09352316343145531,-0.0043474180904349465,0.009611243233415332
1668680936.60042,75354,1668680936,600125796,,-0.09827141885263993,-0.6166427510617037,0.07819228682135305,0.9955612195435971,0.09352316344247973,-0.004347418635072964,0.009611242988716266
1668680936.6079032,75355,1668680936,607779637,,-0.09823266367088311,-0.6166880683753125,0.07819228574578678,0.9955612195420103,0.09352316345364424,-0.004347419199975818,0.009611242788940823
1668680936.6156864,75356,1668680936,615563190,,-0.09819217375392472,-0.6167354310270226,0.07819228458889181,0.9955612195398891,0.0935231634649467,-0.004347419785035338,0.00961124263403402
1668680936.6234214,75357,1668680936,623247549,,-0.09814992075975063,-0.6167848728084636,0.0781922833476022,0.9955612195372352,0.09352316347638381,-0.004347420390144884,0.009611242523943794
1668680936.6317492,75358,1668680936,631628263,,-0.09810587714244613,-0.6168364265273315,0.07819228201892774,0.9955612195340494,0.0935231634879529,-0.004347421015199688,0.009611242458619815
1668680936.6396573,75359,1668680936,639504732,,-0.09806001614877435,-0.6168901240136688,0.07819228059996078,0.9955612195303333,0.09352316349965138,-0.0043474216600966386,0.009611242438013989
1668680936.647797,75360,1668680936,647690413,,-0.09801231181356557,-0.6169459961274208,0.07819227908788551,0.9955612195260879,0.09352316351147584,-0.004347422324734046,0.009611242462079774
1668680936.6554892,75361,1668680936,655356971,,-0.09796273895401467,-0.6170040727671414,0.07819227747998479,0.9955612195213142,0.09352316352342381,-0.004347423009011517,0.009611242530771889
1668680936.6639857,75362,1668680936,663837163,,-0.09791127316298928,-0.617064382879745,0.07819227577364835,0.9955612195160134,0.09352316353549238,-0.004347423712830205,0.009611242644046615
1668680936.6717741,75363,1668680936,671666370,,-0.09785789080143635,-0.6171269544712001,0.07819227396637861,0.9955612195101867,0.09352316354767856,-0.0043474244360921475,0.00961124280186085
1668680936.67995,75364,1668680936,679849348,,-0.09780256898997464,-0.6171918146180647,0.07819227205579658,0.9955612195038352,0.09352316355997965,-0.004347425178700702,0.00961124300417204
1668680936.687682,75365,1668680936,687516423,,-0.09774528559975348,-0.6172589894797754,0.0781922700396478,0.99556121949696,0.09352316357239279,-0.004347425940560038,0.009611243250937967
1668680936.695446,75366,1668680936,695221659,,-0.09768601924265263,-0.6173285043116035,0.07819226791580665,0.995561219489562,0.09352316358491547,-0.004347426721574821,0.00961124354211607
1668680936.7038345,75367,1668680936,703654555,,-0.097624749260898,-0.6174003834781998,0.07819226568228121,0.9955612194816424,0.0935231635975444,-0.00434742752165081,0.009611243877663884
1668680936.7121284,75368,1668680936,711943901,,-0.09756145571615345,-0.6174746504676507,0.07819226333721645,0.9955612194732024,0.093523163610277,-0.004347428340694052,0.00961124425753819
1668680936.7200248,75369,1668680936,719915383,,-0.09749611937815783,-0.6175513279059771,0.0781922608788982,0.995561219464243,0.09352316362311058,-0.004347429178611102,0.009611244681694643
1668680936.7278383,75370,1668680936,727678442,,-0.09742872171296038,-0.6176304375720124,0.0781922583057552,0.9955612194547652,0.09352316363604221,-0.00434743003530862,0.009611245150088
1668680936.7356427,75371,1668680936,735348349,,-0.09735924487081404,-0.6177120004125943,0.07819225561636084,0.9955612194447703,0.09352316364906904,-0.0043474309106936405,0.009611245662671304
1668680936.7441819,75372,1668680936,744033355,,-0.09728767167377107,-0.6177960365580201,0.07819225280943598,0.9955612194342592,0.09352316366218882,-0.004347431804673205,0.009611246219395743
1668680936.751688,75373,1668680936,751567478,,-0.09721398560303661,-0.6178825653377049,0.07819224988384889,0.9955612194232334,0.09352316367539829,-0.004347432717154119,0.009611246820210499
1668680936.759719,75374,1668680936,759557711,,-0.09713817078611608,-0.6179716052960035,0.07819224683861697,0.9955612194116938,0.09352316368869498,-0.0043474336480432,0.009611247465062516
1668680936.7675881,75375,1668680936,767430494,,-0.0970602119838045,-0.618063174208138,0.07819224367290611,0.9955612193996417,0.09352316370207599,-0.004347434597246799,0.009611248153896154
1668680936.7756963,75376,1668680936,775557923,,-0.09698009457705073,-0.6181572890962034,0.07819224038603041,0.9955612193870783,0.09352316371553888,-0.00434743556467096,0.009611248886652443
1668680936.7834868,75377,1668680936,783330824,,-0.09689780455373634,-0.6182539662451998,0.07819223697745206,0.995561219374005,0.09352316372908077,-0.004347436550220999,0.009611249663269728
1668680936.7917292,75378,1668680936,791618136,,-0.09681332849539839,-0.618353221219062,0.07819223344678014,0.9955612193604229,0.09352316374269913,-0.004347437553802023,0.009611250483682918
1668680936.7997954,75379,1668680936,799641901,,-0.0967266535639287,-0.6184550688766525,0.07819222979376883,0.9955612193463333,0.09352316375639122,-0.004347438575317754,0.009611251347823061
1668680936.8078728,75380,1668680936,807701845,,-0.09663776748827674,-0.6185595233876857,0.07819222601831616,0.9955612193317379,0.09352316377015453,-0.004347439614671683,0.009611252255617778
1668680936.8155289,75381,1668680936,815362332,,-0.09654665855118133,-0.6186665982485584,0.07819222212046102,0.9955612193166377,0.0935231637839863,-0.00434744067176601,0.009611253206989849
1668680936.8237388,75382,1668680936,823621005,,-0.09645331557595709,-0.618776306298056,0.07819221810038161,0.9955612193010344,0.09352316379788389,-0.004347441746501909,0.009611254201858235
1668680936.831886,75383,1668680936,831674666,,-0.09635772791335322,-0.6188886597329184,0.07819221395839288,0.9955612192849294,0.09352316381184515,-0.004347442838779566,0.009611255240137338
1668680936.8399196,75384,1668680936,839739187,,-0.09625988542850997,-0.6190036701232391,0.07819220969494185,0.9955612192683244,0.09352316382586726,-0.0043474439484979845,0.009611256321736778
1668680936.847857,75385,1668680936,847711258,,-0.09615977848802557,-0.6191213484276762,0.07819220531060651,0.9955612192512209,0.09352316383994771,-0.004347445075554403,0.009611257446560667
1668680936.8559668,75386,1668680936,855823376,,-0.09605739794715307,-0.6192417050084694,0.07819220080609159,0.9955612192336204,0.09352316385408416,-0.004347446219845438,0.009611258614508768
1668680936.8635354,75387,1668680936,863357719,,-0.0959527351371418,-0.6193647496462309,0.07819219618222446,0.9955612192155249,0.0935231638682739,-0.004347447381265635,0.00961125982547496
1668680936.8720746,75388,1668680936,871910767,,-0.09584578185273536,-0.6194904915545126,0.07819219143995218,0.995561219196936,0.09352316388251472,-0.004347448559708198,0.009611261079347974
1668680936.8799155,75389,1668680936,879752601,,-0.09573653033984034,-0.6196189393941257,0.07819218658033694,0.9955612191778556,0.09352316389680392,-0.004347449755064794,0.009611262376010584
1668680936.8876765,75390,1668680936,887536821,,-0.09562497328337399,-0.6197501012872061,0.07819218160455277,0.9955612191582855,0.09352316391113935,-0.004347450967225351,0.009611263715340053
1668680936.8955302,75391,1668680936,895414820,,-0.09551110379530299,-0.6198839848310186,0.07819217651388023,0.9955612191382279,0.09352316392551857,-0.004347452196078172,0.009611265097207241
1668680936.9036963,75392,1668680936,903569520,,-0.09539491540287948,-0.6200205971114865,0.07819217130970323,0.9955612191176845,0.09352316393993938,-0.004347453441509506,0.009611266521477315
1668680936.9116607,75393,1668680936,911513187,,-0.0952764020370841,-0.6201599447164436,0.07819216599350437,0.9955612190966576,0.09352316395439927,-0.004347454703403955,0.009611267988008963
1668680936.9197059,75394,1668680936,919593214,,-0.09515555802127933,-0.6203020337486008,0.07819216056686058,0.9955612190751492,0.09352316396889619,-0.004347455981644283,0.009611269496654484
1668680936.927585,75395,1668680936,927491058,,-0.09503237806008223,-0.6204468698382217,0.07819215503143817,0.9955612190531618,0.09352316398342754,-0.004347457276110997,0.009611271047259657
1668680936.9355721,75396,1668680936,935370116,,-0.0949068572284572,-0.6205944581555078,0.07819214938898966,0.9955612190306972,0.09352316399799154,-0.004347458586683014,0.00961127263966382
1668680936.9439988,75397,1668680936,943849544,,-0.09477899096103704,-0.6207448034226811,0.0781921436413483,0.9955612190077582,0.09352316401258559,-0.004347459913237009,0.009611274273699512
1668680936.9521494,75398,1668680936,951864860,,-0.09464877504167055,-0.620897909925774,0.07819213779042385,0.9955612189843471,0.09352316402720785,-0.0043474612556474775,0.009611275949192285
1668680936.9597235,75399,1668680936,959583800,,-0.09451620559320321,-0.621053781526114,0.07819213183819838,0.9955612189604663,0.09352316404185597,-0.0043474626137867825,0.009611277665961376
1668680936.9678493,75400,1668680936,967688415,,-0.09438127906749039,-0.6212124216715089,0.07819212578672209,0.9955612189361187,0.09352316405652794,-0.004347463987525365,0.009611279423818264
1668680936.9755013,75401,1668680936,975362910,,-0.09424399223564388,-0.6213738334071308,0.07819211963810847,0.9955612189113064,0.09352316407122178,-0.004347465376731333,0.009611281222568146
1668680936.9839864,75402,1668680936,983868184,,-0.09410434217851438,-0.6215380193860979,0.07819211339453043,0.9955612188860326,0.09352316408593535,-0.004347466781270574,0.009611283062008683
1668680936.991732,75403,1668680936,991621978,,-0.09396232627740804,-0.6217049818797581,0.07819210705821625,0.9955612188602999,0.09352316410066665,-0.004347468201006943,0.009611284941930632
1668680936.999855,75404,1668680936,999729413,,-0.09381794220503731,-0.6218747227876742,0.07819210063144492,0.9955612188341113,0.0935231641154136,-0.004347469635801756,0.009611286862117284
1668680937.007704,75405,1668680937,7565106,,-0.09367118791670499,-0.6220472436473115,0.07819209411654236,0.9955612188074696,0.09352316413017454,-0.004347471085514238,0.009611288822344997
1668680937.0155447,75406,1668680937,15435230,,-0.0935220616417224,-0.6222225456434339,0.07819208751587764,0.9955612187803782,0.0935231641449471,-0.004347472550001065,0.009611290822382657
1668680937.02405,75407,1668680937,23901791,,-0.09337056187505448,-0.6224006296172065,0.07819208083185936,0.9955612187528396,0.09352316415972993,-0.004347474029117059,0.009611292861991746
1668680937.032169,75408,1668680937,31982986,,-0.09321668736919787,-0.6225814960750146,0.07819207406693122,0.9955612187248575,0.09352316417452099,-0.004347475522714238,0.009611294940926765
1668680937.0403318,75409,1668680937,40170199,,-0.09306043711943308,-0.6227651451764946,0.07819232498642888,0.995561218696435,0.09352316418931823,-0.004347477030642864,0.009611297058934746
1668680937.0478017,75410,1668680937,47627791,,-0.09290181034053054,-0.6229515766959447,0.07819367296516072,0.9955612186675753,0.09352316420412023,-0.00434747855275034,0.009611299215754938
1668680937.0555966,75411,1668680937,55487743,,-0.09274080647255,-0.6231407900698244,0.0781969498596231,0.9955612186382822,0.09352316421892513,-0.004347480088881874,0.009611301411119827
1668680937.0634804,75412,1668680937,63354357,,-0.09257855260739076,-0.6233371795900675,0.07820340330273962,0.9955612186085386,0.09352316423372947,-0.004347481639670026,0.009611303646504053
1668680937.0717957,75413,1668680937,71614892,,-0.09241608297616169,-0.6235447828500448,0.07821385622162212,0.9955612185783094,0.09352316424852895,-0.00434748320647822,0.009611305924998606
1668680937.079571,75414,1668680937,79441785,,-0.09225381681561122,-0.6237652324006621,0.07822854699806138,0.9955612185475916,0.09352316426332152,-0.004347484789395853,0.009611308246865628
1668680937.0878341,75415,1668680937,87731531,,-0.09209300513016862,-0.6240022401509354,0.07824860246653842,0.9955612185163809,0.09352316427810481,-0.004347486388588285,0.009611310612532667
1668680937.0954618,75416,1668680937,95374423,,-0.09193407017285207,-0.6242589252583366,0.07827553126150484,0.9955612184846522,0.09352316429287569,-0.004347488005014448,0.009611313024182326
1668680937.1037397,75417,1668680937,103590529,,-0.09177652170261999,-0.6245358973269098,0.07830979304223397,0.9955612184523139,0.09352316430762579,-0.004347489642229807,0.009611315489748699
1668680937.1116276,75418,1668680937,111504925,,-0.09161996159719132,-0.624832716211608,0.07835129986577122,0.9955612184193566,0.09352316432235283,-0.004347491300609205,0.009611318010104853
1668680937.119786,75419,1668680937,119678358,,-0.09146313544565139,-0.6251483888059485,0.07840035865038843,0.9955612183856951,0.0935231643370494,-0.004347492983465985,0.009611320592632583
1668680937.1278467,75420,1668680937,127698834,,-0.0913043029616615,-0.6254798648834151,0.0784568317625432,0.9955612183512363,0.0935231643517081,-0.004347494694419869,0.009611323245383094
1668680937.1359107,75421,1668680937,135775452,,-0.09114239851617323,-0.6258243248065174,0.07852025623007178,0.995561218315955,0.09352316436632643,-0.00434749643446706,0.009611325970580085
1668680937.1433938,75422,1668680937,143212407,,-0.09097490758224899,-0.6261754680018063,0.07858906758557596,0.9955612182798129,0.0935231643809007,-0.004347498205095583,0.009611328771529096
1668680937.1518292,75423,1668680937,151653277,,-0.09079986664822505,-0.6265280227503334,0.07866173539442542,0.9955612182427511,0.0935231643954266,-0.004347500008608709,0.00961133165333816
1668680937.1597135,75424,1668680937,159606668,,-0.09061650363974826,-0.6268793481222779,0.07873729721943633,0.9955612182047828,0.09352316440990449,-0.0043475018444945526,0.009611334614861865
1668680937.1678896,75425,1668680937,167742853,,-0.09042544556488655,-0.6272262556385099,0.07881505865948475,0.9955612181660219,0.09352316442434169,-0.004347503708309732,0.009611337646240437
1668680937.1760254,75426,1668680937,175892275,,-0.09022913353637195,-0.627572406412274,0.07889270326364747,0.9955612181267062,0.09352316443875353,-0.004347505590786866,0.009611340726921071
1668680937.184089,75427,1668680937,183860246,,-0.09002886258092002,-0.627924109741603,0.07896674208472897,0.9955612180867294,0.09352316445313179,-0.004347507496056967,0.009611343866079189
1668680937.1920285,75428,1668680937,191915411,,-0.08982513257169213,-0.6282830730028134,0.07903615654367264,0.9955612180460705,0.09352316446747479,-0.004347509424943064,0.009611347065541408
1668680937.1996348,75429,1668680937,199533714,,-0.08961823145817953,-0.6286531231231665,0.07909958163209131,0.9955612180046609,0.09352316448177768,-0.004347511380126895,0.009611350331247097
1668680937.2077096,75430,1668680937,207599119,,-0.08940852461685585,-0.629041127263046,0.07915333128674606,0.9955612179622442,0.09352316449602459,-0.0043475133716341695,0.009611353685407723
1668680937.2157133,75431,1668680937,215558644,,-0.08919621157897288,-0.6294507259638001,0.07919433315772273,0.9955612179186597,0.0935231645102063,-0.004347515405738795,0.009611357141883313
1668680937.2235572,75432,1668680937,223369390,,-0.08898140448822768,-0.6298837623145173,0.07922029071760783,0.9955612178738313,0.09352316452431919,-0.004347517485435771,0.009611360707240836
1668680937.2318342,75433,1668680937,231644078,,-0.08876415377529447,-0.6303401143940015,0.07923040882016316,0.995561217827731,0.0935231645383633,-0.00434751961185055,0.009611364383887124
1668680937.239663,75434,1668680937,239501897,,-0.08854449498554269,-0.6308187389912053,0.07922489743822629,0.9955612177804153,0.0935231645523432,-0.00434752178281135,0.00961136816690689
1668680937.2475905,75435,1668680937,247431173,,-0.08832232901566703,-0.6313188492554864,0.07920329476429504,0.9955612177318925,0.09352316456626095,-0.004347523998015444,0.009611372055529753
1668680937.255523,75436,1668680937,255394885,,-0.08809670183173074,-0.6318378327336291,0.07916687117467969,0.995561217682157,0.09352316458011789,-0.004347526257733167,0.00961137605025064
1668680937.2635996,75437,1668680937,263504900,,-0.08786686959113771,-0.6323730376641842,0.07911751298601255,0.9955612176311875,0.09352316459391465,-0.004347528562814392,0.009611380152843215
1668680937.2717328,75438,1668680937,271605063,,-0.08763255188159279,-0.6329223954122202,0.07905667982311872,0.9955612175790535,0.09352316460765714,-0.004347530910592258,0.009611384357272355
1668680937.2798135,75439,1668680937,279694722,,-0.08739247552525703,-0.6334828083198161,0.07898672432001573,0.995561217525722,0.09352316462134548,-0.0043475333023857,0.009611388666344351
1668680937.2878494,75440,1668680937,287657173,,-0.08714485229028551,-0.6340509906471439,0.07890964495224052,0.9955612174710717,0.09352316463497592,-0.00434753574296951,0.009611393090517926
1668680937.2956824,75441,1668680937,295582729,,-0.08688849885337928,-0.6346246165459021,0.07882639009237323,0.9955612174149949,0.09352316464854611,-0.004347538236578099,0.009611397639031537
1668680937.3036125,75442,1668680937,303500503,,-0.08662290484285617,-0.6352036365137445,0.07873636112394483,0.9955612173574195,0.09352316466205589,-0.004347540786086959,0.009611402318084484
1668680937.314916,75443,1668680937,314653815,,-0.08634817911443542,-0.6357884563413517,0.07863893800731742,0.9955612172982733,0.09352316467550559,-0.004347543394366775,0.009611407133849828
1668680937.3201203,75444,1668680937,319918415,,-0.0860646760013401,-0.6363788628202045,0.07853419334809925,0.9955612172376448,0.09352316468890326,-0.004347546058027809,0.009611412078592922
1668680937.3277814,75445,1668680937,327644596,,-0.08577252838794863,-0.6369762373327404,0.07842129903085114,0.9955612171754803,0.09352316470225072,-0.004347548779234766,0.009611417156904003
1668680937.3355742,75446,1668680937,335479796,,-0.08547445016808565,-0.6375813186235085,0.07830413325336141,0.9955612171120477,0.09352316471556309,-0.004347551547616084,0.009611422345561369
1668680937.3432724,75447,1668680937,343156809,,-0.0851743815923172,-0.6381932608851568,0.07818926243837522,0.9955612170482164,0.0935231647288785,-0.004347554329382591,0.009611427569422955
1668680937.351824,75448,1668680937,351695085,,-0.08487363814341849,-0.6388111473661124,0.07807880843546817,0.9955612169843823,0.09352316474221303,-0.004347557109143729,0.009611432794299124
1668680937.3596814,75449,1668680937,359539092,,-0.08457293307524662,-0.63943370193794,0.07797514671344402,0.995561216920714,0.09352316475557206,-0.004347559880328025,0.00961143800563437
1668680937.3678067,75450,1668680937,367664730,,-0.08427330563993324,-0.6400596715485088,0.07788176638985499,0.9955612168575232,0.09352316476896468,-0.004347562630794797,0.009611443176543721
1668680937.3756206,75451,1668680937,375526717,,-0.08397518063764932,-0.6406882170397593,0.07780004818630226,0.9955612167949595,0.09352316478239332,-0.004347565354709294,0.009611448294182165
1668680937.3836658,75452,1668680937,383449859,,-0.0836786636603613,-0.641319051105391,0.07773049894237233,0.9955612167330778,0.09352316479585708,-0.004347568049874641,0.0096114533537987
1668680937.3916802,75453,1668680937,391500712,,-0.08338364000988274,-0.6419519468472833,0.07767286689201469,0.9955612166718709,0.09352316480935204,-0.004347570716560185,0.009611458356120234
1668680937.3997607,75454,1668680937,399599238,,-0.08308994693934431,-0.6425865014743598,0.07762662520936343,0.9955612166113337,0.0935231648228749,-0.004347573354915917,0.009611463301604882
1668680937.4077642,75455,1668680937,407611064,,-0.08279745805948781,-0.6432222124561571,0.07759143473529129,0.9955612165514679,0.09352316483642273,-0.004347575964842969,0.009611468190156819
1668680937.4153912,75456,1668680937,415230997,,-0.08250601088097767,-0.643857777430831,0.07756678233686601,0.9955612164923104,0.09352316484999326,-0.0043475785448782245,0.00961147301865162
1668680937.4240994,75457,1668680937,423924093,,-0.0822154197890262,-0.6444921339305648,0.0775520062573383,0.9955612164339002,0.09352316486358397,-0.004347581093464141,0.009611477783759217
1668680937.431701,75458,1668680937,431580674,,-0.08192549942752755,-0.6451246024544667,0.07754642004238331,0.9955612163762331,0.09352316487719149,-0.004347583610726125,0.009611482485886657
1668680937.4397707,75459,1668680937,439611236,,-0.0816344939830461,-0.6457554361163096,0.07754776773206987,0.9955612163190928,0.09352316489080809,-0.004347586105048716,0.009611487143747433
1668680937.4484649,75460,1668680937,448292177,,-0.08133940834000666,-0.646385967830351,0.07755126936734351,0.9955612162618359,0.09352316490441799,-0.004347588601410446,0.009611491812822113
1668680937.4591029,75461,1668680937,458881354,,-0.08103834683298831,-0.6470169638638317,0.07755273858108187,0.9955612162040238,0.09352316491801252,-0.0043475911168678275,0.009611496530913201
1668680937.4637384,75462,1668680937,463517080,,-0.08073021704681105,-0.6476485488503865,0.07754942552464233,0.9955612161454422,0.09352316493158941,-0.004347593659776526,0.009611501316448235
1668680937.4718726,75463,1668680937,471725413,,-0.08041474576002962,-0.648280435857411,0.07754019310961709,0.9955612160860067,0.09352316494514973,-0.004347596233472978,0.009611506176685693
1668680937.4798644,75464,1668680937,479687393,,-0.08009203319754939,-0.6489122798735995,0.07752472483088307,0.9955612160257828,0.09352316495869754,-0.0043475988354480435,0.009611511105896892
1668680937.487635,75465,1668680937,487440426,,-0.07976241814391241,-0.6495439547867635,0.07750349758235779,0.9955612159648064,0.09352316497223574,-0.004347601464365334,0.009611516100964524
1668680937.4953592,75466,1668680937,495215591,,-0.07942621329261973,-0.6501761821407785,0.0774769581029586,0.9955612159031549,0.09352316498576811,-0.004347604117261397,0.009611521155158616
1668680937.5038257,75467,1668680937,503649322,,-0.07908347816313502,-0.6508094411993484,0.07744477008689665,0.9955612158407696,0.09352316499929651,-0.004347606796460926,0.009611526273492774
1668680937.5117185,75468,1668680937,511616797,,-0.07873446147753249,-0.6514437377150617,0.07740701708410141,0.9955612157777273,0.09352316501282427,-0.004347609499041087,0.009611531449323321
1668680937.5197437,75469,1668680937,519611309,,-0.078378441023232,-0.6520799659126676,0.07736160470468265,0.9955612157138898,0.09352316502635354,-0.004347612230405166,0.009611536694481438
1668680937.5276048,75470,1668680937,527518955,,-0.07801459746344055,-0.652718844237935,0.0773060134756146,0.9955612156489944,0.09352316503988593,-0.004347615000799842,0.009611542031517015
1668680937.5353994,75471,1668680937,535209115,,-0.07764295206146016,-0.6533603489970695,0.07723957777022732,0.9955612155830298,0.09352316505342576,-0.004347617810740175,0.009611547461339366
1668680937.5438182,75472,1668680937,543652895,,-0.07726390581865075,-0.6540040695947018,0.07716273847511537,0.9955612155160871,0.09352316506697797,-0.004347620656757533,0.009611552976014032
1668680937.551664,75473,1668680937,551561273,,-0.07687810990781185,-0.6546497930628953,0.07707634018084096,0.9955612154483231,0.0935231650805468,-0.004347623532857936,0.009611558562014757
1668680937.559774,75474,1668680937,559573616,,-0.07648621342065332,-0.655297517994943,0.07698110874065874,0.9955612153798801,0.09352316509413632,-0.0043476264335672145,0.009611564206993044
1668680937.568022,75475,1668680937,567900562,,-0.07608823768287835,-0.6559466340259636,0.07687760187983976,0.9955612153108377,0.09352316510774963,-0.0043476293558557,0.009611569904044352
1668680937.5754287,75476,1668680937,575320301,,-0.0756837103833648,-0.656595954266358,0.07676666873257543,0.9955612152411648,0.09352316512138983,-0.004347632300995265,0.009611575655819818
1668680937.5837338,75477,1668680937,583552964,,-0.07527271650369453,-0.6572446278978987,0.0766493654331237,0.9955612151709136,0.09352316513506014,-0.00434763526701019,0.009611581457757354
1668680937.591776,75478,1668680937,591602871,,-0.07485555851183462,-0.6578920780082016,0.07652655928639707,0.9955612151002072,0.09352316514876291,-0.0043476382491852514,0.009611587299221777
1668680937.5997326,75479,1668680937,599503075,,-0.07443222137596457,-0.6585380878495986,0.07639893779213783,0.995561215029077,0.09352316516250034,-0.004347641246342175,0.009611593177445147
1668680937.6086018,75480,1668680937,608376832,,-0.0740026677855176,-0.6591830615237698,0.07626705592092076,0.9955612149574926,0.09352316517627565,-0.004347644259712599,0.009611599095009403
1668680937.6162531,75481,1668680937,616056495,,-0.07356702662101049,-0.6598272623020947,0.0761315782392758,0.9955612148854575,0.093523165190092,-0.0043476472892115476,0.00961160505156711
1668680937.6234381,75482,1668680937,623273286,,-0.07312720595106413,-0.6604707042970693,0.07599667555208788,0.9955612148132862,0.09352316520394724,-0.004347650322701022,0.009611611020037382
1668680937.6315541,75483,1668680937,631427199,,-0.07268511652142437,-0.6611132111716395,0.07586616684226989,0.9955612147415559,0.0935231652178333,-0.00434765333786687,0.009611616950811645
1668680937.639796,75484,1668680937,639677486,,-0.07224181003672393,-0.6617545608303061,0.07574186536283106,0.9955612146704688,0.09352316523174564,-0.0043476563268789225,0.009611622826546639
1668680937.6477382,75485,1668680937,647619898,,-0.07179990393950547,-0.6623941138358684,0.07562703132973166,0.9955612146005963,0.09352316524567028,-0.004347659267592672,0.009611628598188707
1668680937.6556578,75486,1668680937,655556516,,-0.07136254726383759,-0.6630305483539104,0.07552411075022354,0.9955612145327454,0.09352316525958478,-0.0043476621287197635,0.00961163419651981
1668680937.663567,75487,1668680937,663446042,,-0.07093179202421004,-0.6636627427256314,0.07543445308638794,0.9955612144674921,0.09352316527346781,-0.004347664887870919,0.009611639572234341
1668680937.6720166,75488,1668680937,671923485,,-0.07050796970481689,-0.6642903420777332,0.07535790949777657,0.9955612144049588,0.09352316528730571,-0.004347667540166823,0.009611644714986347
1668680937.6803246,75489,1668680937,680190947,,-0.07008978770250167,-0.6649138904944407,0.07529345856927684,0.9955612143448471,0.093523165301096,-0.004347670097003422,0.009611649650546615
1668680937.6882877,75490,1668680937,688172030,,-0.06967365710175707,-0.6655341736160396,0.07523794878871082,0.9955612142864069,0.0935231653148514,-0.004347672587277715,0.009611654443420782
1668680937.6954327,75491,1668680937,695300852,,-0.06925576915601954,-0.6661515635832506,0.07518743873749083,0.9955612142286889,0.09352316532859573,-0.00434767504763013,0.0096116591751348
1668680937.7036834,75492,1668680937,703585689,,-0.06883500044138306,-0.666766138272737,0.07514047585290336,0.9955612141713487,0.09352316534233787,-0.0043476774913567455,0.00961166387524839
1668680937.7124445,75493,1668680937,712249868,,-0.06841168862650925,-0.6673781810870625,0.07509779368790079,0.9955612141144445,0.09352316535607524,-0.0043476799162108625,0.00961166853877686
1668680937.7204044,75494,1668680937,720246499,,-0.06798620228690284,-0.6679881440378311,0.0750605460334603,0.9955612140580329,0.09352316536980514,-0.0043476823200150495,0.009611673160899935
1668680937.7285655,75495,1668680937,728295570,,-0.06755974877043266,-0.6685953857023367,0.07502970348533283,0.9955612140023293,0.09352316538351807,-0.0043476846944211335,0.009611677723128936
1668680937.7355647,75496,1668680937,735427233,,-0.06713412193978911,-0.6691987105371915,0.07500646803006843,0.9955612139478152,0.09352316539719356,-0.004347687020808135,0.00961168218423257
1668680937.7438483,75497,1668680937,743616378,,-0.06670999330930827,-0.6697977440216597,0.07499109101091816,0.9955612138947124,0.09352316541081813,-0.004347689290566411,0.009611686525273335
1668680937.7520354,75498,1668680937,751890083,,-0.06628762558924774,-0.6703923540418508,0.07498340768332025,0.995561213843039,0.0935231654243865,-0.0043476915029327925,0.009611690744762133
1668680937.7603908,75499,1668680937,760183710,,-0.06586767908748135,-0.6709819933177801,0.0749845445867256,0.9955612137929462,0.09352316543788715,-0.004347693652003873,0.009611694829813026
1668680937.768257,75500,1668680937,768025687,,-0.06545175868208243,-0.671566571526088,0.07499820927557642,0.9955612137447007,0.0935231654513019,-0.004347695727415176,0.009611698757681844
1668680937.7754173,75501,1668680937,775273084,,-0.06504164406438724,-0.6721465457375032,0.07502814689993174,0.9955612136986672,0.09352316546460698,-0.004347697714999318,0.00961170249723923
1668680937.7837744,75502,1668680937,783644965,,-0.06463756460258534,-0.672722174427372,0.07507466028805053,0.9955612136548916,0.09352316547779235,-0.004347699612872502,0.009611706044656842
1668680937.7916553,75503,1668680937,791505890,,-0.0642396528833406,-0.6732937517316605,0.07513784028059263,0.9955612136133006,0.0935231654908536,-0.00434770142376646,0.009611709406347589
1668680937.7998343,75504,1668680937,799662201,,-0.06384837274165259,-0.6738616317141704,0.07521852609915533,0.9955612135739502,0.09352316550378029,-0.004347703145426397,0.009611712577647511
1668680937.8077292,75505,1668680937,807609520,,-0.06346335656122493,-0.6744259067339087,0.0753162981335341,0.9955612135367501,0.09352316551656961,-0.004347704781231663,0.009611715566384113
1668680937.8158152,75506,1668680937,815687081,,-0.06308317550094256,-0.6749861018114194,0.07542970580536819,0.9955612135014441,0.09352316552922868,-0.004347706340981055,0.009611718394587642
1668680937.8233147,75507,1668680937,823186603,,-0.06270622459930605,-0.675541635157556,0.07555691671025266,0.9955612134677071,0.09352316554176997,-0.004347707837165268,0.009611721090202844
1668680937.83217,75508,1668680937,831975040,,-0.062331734067361845,-0.6760924787318278,0.07569645835342123,0.9955612134353533,0.09352316555419947,-0.004347709276884426,0.009611723669162273
1668680937.8397715,75509,1668680937,839596692,,-0.06195885958925543,-0.6766384995141437,0.07584700420553482,0.9955612134042412,0.09352316556652135,-0.004347710665568335,0.009611726143658107
1668680937.8477912,75510,1668680937,847568092,,-0.06158665753879768,-0.6771797727891177,0.0760073392751748,0.9955612133741651,0.09352316557874489,-0.00434771201109849,0.009611728531288949
