Time,header.seq,header.stamp.secs,header.stamp.nsecs,header.frame_id,twist.linear.x,twist.linear.y,twist.linear.z,twist.angular.x,twist.angular.y,twist.angular.z
1668680935.3361526,75196,1668680935,335737421,,-1.3182596201561126e-05,9.558391341108998e-10,-1.71275831739917e-12,1.820295254235556e-06,-7.6562384212401e-07,-9.475018558026453e-09
1668680935.3435323,75197,1668680935,343340915,,-1.2207128737405907e-05,9.32653459221405e-10,-1.5981658969382759e-12,1.8160810441316496e-06,-7.606194011771976e-07,-9.423176332435518e-09
1668680935.351699,75198,1668680935,351525737,,-1.1284656630538765e-05,9.094907915235776e-10,-1.4839592629141447e-12,1.8116678178038275e-06,-7.555573177777012e-07,-9.370539342359104e-09
1668680935.360148,75199,1668680935,360044639,,-1.0412812201497472e-05,8.863916517441222e-10,-1.3706186450028905e-12,1.8070577196871176e-06,-7.504386972782727e-07,-9.317120620747581e-09
1668680935.3686447,75200,1668680935,368360899,,-9.589314981254525e-06,8.633934112730193e-10,-1.2585384053727139e-12,1.8022529023726652e-06,-7.452646434895674e-07,-9.26293321804255e-09
1668680935.37626,75201,1668680935,375961437,,-8.811969318743897e-06,8.405308421728091e-10,-1.1481535600337696e-12,1.7972555262973483e-06,-7.400362585625098e-07,-9.207990171570152e-09
1668680935.3844497,75202,1668680935,384216946,,-8.078662010355693e-06,8.178357222875084e-10,-1.0398440862795896e-12,1.792067759384172e-06,-7.347546428502392e-07,-9.152304510824864e-09
1668680935.3923063,75203,1668680935,392024426,,-7.387359953939067e-06,7.953374871166473e-10,-9.338674483788551e-13,1.7866917767115716e-06,-7.294208947894123e-07,-9.095889255938058e-09
1668680935.400185,75204,1668680935,399937227,,-6.736107830095619e-06,7.730629008722403e-10,-8.30519001982972e-13,1.781129760181217e-06,-7.240361107740055e-07,-9.038757413319174e-09
1668680935.407801,75205,1668680935,407592004,,-6.123025813617067e-06,7.510364128722761e-10,-7.300195209664458e-13,1.7753838981791864e-06,-7.186013850234747e-07,-8.980921988928725e-09
1668680935.4157498,75206,1668680935,415508210,,-5.546307316269176e-06,7.292803229408232e-10,-6.325691758658496e-13,1.7694563852616161e-06,-7.131178094759022e-07,-8.922395967771626e-09
1668680935.4236102,75207,1668680935,423500269,,-5.004216764053632e-06,7.078147162975397e-10,-5.383082432334986e-13,1.7633494217970876e-06,-7.075864736490075e-07,-8.863192321864393e-09
1668680935.4327657,75208,1668680935,432406329,,-4.495087409467761e-06,6.866578158095014e-10,-4.4742813022032914e-13,1.7570652136753548e-06,-7.020084645373789e-07,-8.80332400230606e-09
1668680935.4397347,75209,1668680935,439590874,,-4.0173191813279e-06,6.658257326391006e-10,-3.6004084927627925e-13,1.750605971950376e-06,-6.963848664739377e-07,-8.742803952165791e-09
1668680935.4479663,75210,1668680935,447635241,,-3.5693765726176965e-06,6.453329772852097e-10,-2.761855590145384e-13,1.7439739125228467e-06,-6.907167610280376e-07,-8.681645088601162e-09
1668680935.4554873,75211,1668680935,455340239,,-3.149786568045047e-06,6.251921918326032e-10,-1.959133075439673e-13,1.7371712558319273e-06,-6.850052268800148e-07,-8.619860310526357e-09
1668680935.4645767,75212,1668680935,464428396,,-2.757136612004584e-06,6.054145343746653e-10,-1.1935816370188208e-13,1.7302002265271304e-06,-6.79251339712947e-07,-8.557462492145912e-09
1668680935.471644,75213,1668680935,471477187,,-2.390072617860657e-06,5.860096230867927e-10,-4.6481007879106596e-14,1.7230630531547148e-06,-6.734561720958405e-07,-8.494464491411073e-09
1668680935.4798322,75214,1668680935,479667192,,-2.0472970191838046e-06,5.669857320988048e-10,2.2683681935197346e-14,1.715761967830619e-06,-6.676207933706105e-07,-8.43087913426117e-09
1668680935.4876935,75215,1668680935,487527599,,-1.7275668634477858e-06,5.483496166924372e-10,8.815323096207145e-14,1.708299205934796e-06,-6.617462695391825e-07,-8.366719218441192e-09
1668680935.495842,75216,1668680935,495659252,,-1.4296919487392339e-06,5.301070376646792e-10,1.4996157933643282e-13,1.700677005801116e-06,-6.558336631557203e-07,-8.301997510314408e-09
1668680935.5034406,75217,1668680935,503291794,,-1.152533003454021e-06,5.122623958364282e-10,2.0820901653804376e-13,1.6928976084059324e-06,-6.498840332212919e-07,-8.236726762104773e-09
1668680935.5118945,75218,1668680935,511724262,,-8.949999094252609e-07,4.948191903582461e-10,2.6282050479587386e-13,1.6849632570631251e-06,-6.438984350698248e-07,-8.170919681155995e-09
1668680935.5197265,75219,1668680935,519543394,,-6.560499686596455e-07,4.777796470792446e-10,3.139837594208989e-13,1.6768761971034953e-06,-6.37877920261771e-07,-8.104588944800765e-09
1668680935.527639,75220,1668680935,527509121,,-4.3468621311232944e-07,4.611453079666177e-10,3.6165574442051017e-13,1.6686386756034206e-06,-6.3182353649339e-07,-8.037747198950349e-09
1668680935.5365438,75221,1668680935,536295241,,-2.2995575825942917e-07,4.4491669787473693e-10,4.0597781327528356e-13,1.6602529410426313e-06,-6.257363274728858e-07,-7.970407061647619e-09
1668680935.54396,75222,1668680935,543684995,,-4.094819938703979e-08,4.290935933174895e-10,4.4698352554518366e-13,1.651721243043314e-06,-6.196173328357662e-07,-7.902581107370376e-09
1668680935.552223,75223,1668680935,551952108,,1.332059489845568e-07,4.136749690366738e-10,4.847952198529432e-13,1.6430458320462067e-06,-6.134675880289741e-07,-7.834281868688168e-09
1668680935.560402,75224,1668680935,560187125,,2.933367710220783e-07,3.986591682355072e-10,5.194489856688833e-13,1.634228959032403e-06,-6.072881242259545e-07,-7.765521848377692e-09
1668680935.568381,75225,1668680935,568234174,,4.4023642548984474e-07,3.8404378578707994e-10,5.51041615522531e-13,1.6252728752214331e-06,-6.010799682207359e-07,-7.696313501840249e-09
1668680935.5752816,75226,1668680935,575168926,,5.746605797461221e-07,3.6982599911622676e-10,5.797426149596134e-13,1.6161798317795455e-06,-5.94844142329542e-07,-7.626669249359733e-09
1668680935.5836017,75227,1668680935,583503655,,6.973298023689442e-07,3.5600227063600717e-10,6.056033629919348e-13,1.606952079543189e-06,-5.885816643007244e-07,-7.556601461583565e-09
1668680935.5916917,75228,1668680935,591521554,,8.089309150895814e-07,3.4256873126569296e-10,6.287613821557377e-13,1.5975918687332473e-06,-5.82293547218167e-07,-7.486122473810098e-09
1668680935.5996501,75229,1668680935,599537457,,9.101183044556932e-07,3.2952090386844103e-10,6.493237165112628e-13,1.5881014486540677e-06,-5.759807994089482e-07,-7.415244563863853e-09
1668680935.6077204,75230,1668680935,607593906,,1.0015151937185002e-06,3.1685405128791964e-10,6.673965270871245e-13,1.578483067436136e-06,-5.696444243512152e-07,-7.3439799702704105e-09
1668680935.6159751,75231,1668680935,615760366,,1.083714875761507e-06,3.045630587274942e-10,6.830712608139552e-13,1.5687389717423777e-06,-5.632854205845885e-07,-7.272340891470575e-09
1668680935.6234772,75232,1668680935,623366046,,1.157281907846839e-06,2.9264240784211555e-10,6.964803714731954e-13,1.5588714064944733e-06,-5.569047816208556e-07,-7.200339462464925e-09
1668680935.631705,75233,1668680935,631587714,,1.2227532682224968e-06,2.810862351844019e-10,7.076877567827172e-13,1.5488826146059493e-06,-5.505034958604851e-07,-7.127987776916925e-09
1668680935.6396954,75234,1668680935,639543298,,1.2806394762797046e-06,2.69888577748448e-10,7.168343513252033e-13,1.5387748367058018e-06,-5.440825465039298e-07,-7.055297872442081e-09
1668680935.647701,75235,1668680935,647580757,,1.3314256757818122e-06,2.5904321573540634e-10,7.240085853552135e-13,1.5285503108708755e-06,-5.376429114636853e-07,-6.982281740474604e-09
1668680935.6554801,75236,1668680935,655263028,,1.3755726832121863e-06,2.4854361014291066e-10,7.294043912788613e-13,1.5182112723554279e-06,-5.311855632857493e-07,-6.908951315522585e-09
1668680935.6636024,75237,1668680935,663491855,,1.4135180006644126e-06,2.3838328345513837e-10,7.330080400241838e-13,1.507759953341509e-06,-5.247114690677178e-07,-6.835318477712272e-09
1668680935.6717193,75238,1668680935,671551941,,1.4456767952011724e-06,2.2855537607934748e-10,7.349465122454229e-13,1.4971985826577816e-06,-5.182215903753008e-07,-6.7613950554322914e-09
1668680935.6797976,75239,1668680935,679653849,,1.4724428445309455e-06,2.1905300486452535e-10,7.353563153111371e-13,1.4865293855372902e-06,-5.11716883162792e-07,-6.687192814731763e-09
1668680935.6884024,75240,1668680935,688206894,,1.494189450311231e-06,2.0986923712862e-10,7.343312389012501e-13,1.4757545833499847e-06,-5.051982976986957e-07,-6.612723467111309e-09
1668680935.6959255,75241,1668680935,695700014,,1.51127031971423e-06,2.0099698470213623e-10,7.319495777683322e-13,1.4648763933618239e-06,-4.986667784893011e-07,-6.537998665351839e-09
1668680935.703771,75242,1668680935,703631040,,1.5240204158366602e-06,1.9242912550816203e-10,7.282889190041682e-13,1.4538970284745616e-06,-4.921232641975197e-07,-6.463030006467731e-09
1668680935.7116067,75243,1668680935,711416840,,1.5327567781116077e-06,1.8415856072011147e-10,7.234465965051737e-13,1.4428186969664411e-06,-4.85568687575585e-07,-6.387829010731331e-09
1668680935.720054,75244,1668680935,719791983,,1.5377793129630094e-06,1.761780483830604e-10,7.174763875672662e-13,1.431643602270818e-06,-4.790039753897192e-07,-6.312407154841492e-09
1668680935.7276804,75245,1668680935,727521814,,1.539371556142332e-06,1.6848054314568683e-10,7.105355963411189e-13,1.4203739427171147e-06,-4.724300483500652e-07,-6.236775847767466e-09
1668680935.7353356,75246,1668680935,735199819,,1.5378014068125648e-06,1.6105876971477984e-10,7.026405414047697e-13,1.4090119112945977e-06,-4.658478210402929e-07,-6.16094642285964e-09
1668680935.7441185,75247,1668680935,743951961,,1.5333218345104962e-06,1.539056790936813e-10,6.939001511113294e-13,1.397559695407056e-06,-4.5925820184609876e-07,-6.084930166663052e-09
1668680935.7524495,75248,1668680935,752239469,,1.5261715600140917e-06,1.4701407447233781e-10,6.843818364179636e-13,1.386019476639794e-06,-4.526620928893929e-07,-6.008738283273401e-09
1668680935.7597547,75249,1668680935,759489668,,1.5165757100604288e-06,1.4037689669616345e-10,6.741694634165726e-13,1.3743934305383134e-06,-4.460603899694386e-07,-5.932381925392239e-09
1668680935.7677398,75250,1668680935,767516760,,1.5047464475202311e-06,1.339872405428432e-10,6.633277237263123e-13,1.3626837263672658e-06,-4.394539824917125e-07,-5.855872173843595e-09
1668680935.7757576,75251,1668680935,775601782,,1.4908835770967257e-06,1.2783804120864072e-10,6.518898894726073e-13,1.3508925268787112e-06,-4.328437534038563e-07,-5.7792200385535705e-09
1668680935.7836807,75252,1668680935,783507178,,1.4751751276958684e-06,1.2192244289906882e-10,6.39945791062562e-13,1.3390219880947366e-06,-4.2623057913725683e-07,-5.702436463518187e-09
1668680935.7917302,75253,1668680935,791613806,,1.4577979120749625e-06,1.1623380944660623e-10,6.275790402760018e-13,1.3270742590878471e-06,-4.1961532954664504e-07,-5.625532315297291e-09
1668680935.7997513,75254,1668680935,799562301,,1.4389180641330765e-06,1.107653508284419e-10,6.147271502744579e-13,1.3150514817527882e-06,-4.129988678491433e-07,-5.548518395781456e-09
1668680935.807776,75255,1668680935,807571941,,1.4186915549577973e-06,1.0551043658186198e-10,6.016243170620499e-13,1.302955790578127e-06,-4.06382050560256e-07,-5.471405434246392e-09
1668680935.8156803,75256,1668680935,815527852,,1.3972646883012178e-06,1.0046255565579083e-10,5.882095755823475e-13,1.2907893124647098e-06,-3.997657274537565e-07,-5.394204086925195e-09
1668680935.8234725,75257,1668680935,823264873,,1.3747745757791756e-06,9.561530685134262e-11,5.745780912629268e-13,1.2785541664826405e-06,-3.9315074149054784e-07,-5.316924936015621e-09
1668680935.832543,75258,1668680935,832269124,,1.3513495926082893e-06,9.096244478438914e-11,5.607359181882854e-13,1.2662524636823385e-06,-3.8653792877622647e-07,-5.239578491945053e-09
1668680935.8403242,75259,1668680935,840065100,,1.3271098147978728e-06,8.649784004996385e-11,5.467439494917351e-13,1.253886306879691e-06,-3.7992811849838094e-07,-5.162175191042858e-09
1668680935.847914,75260,1668680935,847727526,,1.3021674380039576e-06,8.22153330760388e-11,5.326484595779523e-13,1.2414577904502421e-06,-3.7332213288187185e-07,-5.084725383543431e-09
1668680935.8556628,75261,1668680935,855528046,,1.2766271788109503e-06,7.810901030383392e-11,5.184719597218845e-13,1.2289690001323447e-06,-3.6672078713829373e-07,-5.0072393570701865e-09
1668680935.8633635,75262,1668680935,863236700,,1.2505866590904755e-06,7.417304764090283e-11,5.042732248956083e-13,1.2164220128238028e-06,-3.601248894142904e-07,-4.92972731708646e-09
1668680935.8716462,75263,1668680935,871544720,,1.2241367741650036e-06,7.040175807393147e-11,4.900348486165312e-13,1.2038188963932869e-06,-3.5353524074555927e-07,-4.852199392333038e-09
1668680935.8799067,75264,1668680935,879732723,,1.1973620448673703e-06,6.678958071797389e-11,4.758472357770098e-13,1.191161709479741e-06,-3.4695263501438124e-07,-4.774665634177211e-09
1668680935.887683,75265,1668680935,887525936,,1.1703409545175964e-06,6.333115287069244e-11,4.617083146154753e-13,1.1784525013089707e-06,-3.4037785890001676e-07,-4.6971360125218164e-09
1668680935.8958428,75266,1668680935,895676639,,1.1431462711373518e-06,6.002102042220186e-11,4.4763697629745957e-13,1.1656933114934372e-06,-3.33811691834401e-07,-4.619620416523948e-09
1668680935.903451,75267,1668680935,903325371,,1.11584535555606e-06,5.6854055818453125e-11,4.3364399216223397e-13,1.152886169872369e-06,-3.272549059648314e-07,-4.5421286593878886e-09
1668680935.911687,75268,1668680935,911572394,,1.088500455678422e-06,5.382518557600878e-11,4.1982160331650124e-13,1.1400330963015233e-06,-3.2070826610972446e-07,-4.464670473449358e-09
1668680935.9196918,75269,1668680935,919550111,,1.0611689877569412e-06,5.092944072640491e-11,4.061487666266666e-13,1.1271361004904042e-06,-3.141725297171506e-07,-4.3872555065394106e-09
1668680935.927744,75270,1668680935,927574936,,1.033903804870689e-06,4.8162003223642817e-11,3.926712904981803e-13,1.1141971818218052e-06,-3.0764844683200484e-07,-4.3098933258066696e-09
1668680935.9354224,75271,1668680935,935270194,,1.0067534532402777e-06,4.55182486401008e-11,3.793150983113726e-13,1.1012183291802618e-06,-3.011367600540781e-07,-4.2325934109281494e-09
1668680935.9437733,75272,1668680935,943644839,,9.797624167567314e-07,4.299364856697347e-11,3.661319124324702e-13,1.0882015207781912e-06,-2.946382045035051e-07,-4.155365164430139e-09
1668680935.9516633,75273,1668680935,951484347,,9.529713502291394e-07,4.058376294954887e-11,3.531488689038845e-13,1.0751487239817626e-06,-2.881535077840322e-07,-4.078217902592761e-09
1668680935.9601295,75274,1668680935,959791536,,9.264173016376325e-07,3.8284233033259113e-11,3.4038073176018195e-13,1.0620618951538183e-06,-2.816833899530432e-07,-4.001160854433536e-09
1668680935.9676025,75275,1668680935,967476005,,9.00133924185715e-07,3.609088437905077e-11,3.2789588315357573e-13,1.0489429794740091e-06,-2.7522856348232887e-07,-3.9242031669214985e-09
1668680935.9761534,75276,1668680935,975891724,,8.741516780406544e-07,3.399963000291756e-11,3.1561012271555603e-13,1.0357939108204486e-06,-2.687897332433639e-07,-3.847353906786256e-09
1668680935.9844046,75277,1668680935,984191727,,8.48498022638214e-07,3.2006627647784853e-11,3.035760385458163e-13,1.022616611561882e-06,-2.623675964581511e-07,-3.770622047676328e-09
1668680935.9917712,75278,1668680935,991617916,,8.231975995024305e-07,3.010804121255035e-11,2.918214839301553e-13,1.0094129924307636e-06,-2.559628426794666e-07,-3.694016485851069e-09
1668680935.9997656,75279,1668680935,999582711,,7.982724063700243e-07,2.830001289588862e-11,2.8031048151253313e-13,9.96184952363676e-07,-2.4957615376465265e-07,-3.617546024591875e-09
1668680936.0077064,75280,1668680936,7587944,,7.737419626922796e-07,2.6579102950514362e-11,2.6911941709042996e-13,9.82934378354219e-07,-2.4320820384477064e-07,-3.5412193776993684e-09
1668680936.015299,75281,1668680936,15168531,,7.496234669304477e-07,2.4941736115440293e-11,2.581885040842962e-13,9.696631453017729e-07,-2.3685965930554329e-07,-3.4650451708435703e-09
1668680936.0236158,75282,1668680936,23491693,,7.259319460034778e-07,2.3384568346650972e-11,2.475345637314276e-13,9.563731158798432e-07,-2.3053117876073622e-07,-3.3890319461296195e-09
1668680936.031891,75283,1668680936,31702942,,7.026803972284452e-07,2.190427669960004e-11,2.3716960491494257e-13,9.4306614037696e-07,-2.242234130275334e-07,-3.313188158549763e-09
1668680936.0399883,75284,1668680936,39766001,,6.798799231044673e-07,2.0497776653283197e-11,2.270772509097812e-13,9.297440565708085e-07,-2.1793700510815247e-07,-3.2375221613887663e-09
1668680936.047628,75285,1668680936,47448199,,6.57539859040391e-07,1.9161956663856366e-11,2.1723553374217842e-13,9.16408689593747e-07,-2.1167259016867696e-07,-3.1620422374730774e-09
1668680936.0554485,75286,1668680936,55321119,,6.356678946044454e-07,1.789392671158347e-11,2.0763786891052105e-13,9.03061851787571e-07,-2.054307955168402e-07,-3.086756571779898e-09
1668680936.0636332,75287,1668680936,63497349,,6.142701884308427e-07,1.66908363323317e-11,1.983328835454646e-13,8.897053425740957e-07,-1.992122405852219e-07,-3.0116732597535645e-09
1668680936.0719917,75288,1668680936,71810861,,5.933514770375467e-07,1.5549898833695435e-11,1.8931049249569547e-13,8.763409483413851e-07,-1.9301753692179949e-07,-2.936800301787553e-09
1668680936.07983,75289,1668680936,79645269,,5.729151777617189e-07,1.446846832341958e-11,1.805784539661352e-13,8.629704423064153e-07,-1.8684728816352e-07,-2.8621456173745875e-09
1668680936.0877013,75290,1668680936,87535679,,5.529634863826641e-07,1.3443918948871753e-11,1.7211987509147798e-13,8.495955843974e-07,-1.8070209002934692e-07,-2.7877170205921293e-09
1668680936.0955467,75291,1668680936,95334390,,5.334974691557765e-07,1.2473752798511123e-11,1.6396019854676923e-13,8.362181211247475e-07,-1.7458253030229614e-07,-2.7135222540393887e-09
1668680936.1039915,75292,1668680936,103717897,,5.145171500878635e-07,1.1555699171821364e-11,1.5606457845238042e-13,8.228397854928477e-07,-1.6848918882283842e-07,-2.6395689567978793e-09
1668680936.1116884,75293,1668680936,111556108,,4.960215931569977e-07,1.0687450026133389e-11,1.483803426915381e-13,8.094622968461267e-07,-1.6242263746796313e-07,-2.565864679852606e-09
1668680936.1201148,75294,1668680936,119931705,,4.780089801448164e-07,9.86677246807527e-12,1.4097529626734176e-13,7.960873607843204e-07,-1.563834401528465e-07,-2.4924168732025533e-09
1668680936.1278284,75295,1668680936,127619887,,4.604766837034081e-07,9.091420617158602e-12,1.3381249917177339e-13,7.827166690385433e-07,-1.503721528106978e-07,-2.41923291025788e-09
1668680936.136422,75296,1668680936,136221205,,4.43421336736087e-07,8.359437777360037e-12,1.2692289987827698e-13,7.693518993741199e-07,-1.443893233953717e-07,-2.3463200587932544e-09
1668680936.1439538,75297,1668680936,143732846,,4.2683889725428993e-07,7.668804797391637e-12,1.2028355768295786e-13,7.559947154845548e-07,-1.3843549186689644e-07,-2.2736855076023937e-09
1668680936.1524873,75298,1668680936,152270695,,4.107247097911076e-07,7.017664072547465e-12,1.1389381592141608e-13,7.426467668865327e-07,-1.3251119018814954e-07,-2.201336341955918e-09
1668680936.1606252,75299,1668680936,160441381,,3.9507356313705285e-07,6.404087618080083e-12,1.0775640785074319e-13,7.293096888272736e-07,-1.2661694232196162e-07,-2.129279555048261e-09
1668680936.1686358,75300,1668680936,168482323,,3.798797443569375e-07,5.8264385818595454e-12,1.0184296930591264e-13,7.159851021835473e-07,-1.2075326422140494e-07,-2.057522051619899e-09
1668680936.1758666,75301,1668680936,175734788,,3.6513708978915733e-07,5.282909945542912e-12,9.617180851176851e-14,7.02674613369257e-07,-1.1492066384001064e-07,-1.986070643823514e-09
1668680936.1842473,75302,1668680936,184132570,,3.508390328478931e-07,4.771921397032671e-12,9.067071795303075e-14,6.893798142540229e-07,-1.0911964112074929e-07,-1.9149320498293526e-09
1668680936.1924832,75303,1668680936,192297936,,-2.776897011952453e-05,9.308341073848984e-12,-6.777615108274113e-14,6.761020812699513e-07,-1.0335099410006682e-07,-1.8441128951779385e-09
1668680936.1999347,75304,1668680936,199792656,,-6.848946517305101e-05,4.1685915315625246e-11,-1.0232473642233228e-12,6.628423380406252e-07,-9.761475758629395e-08,-1.7736197780495724e-09
1668680936.207705,75305,1668680936,207563754,,-0.00012546724635048966,1.365744809987298e-10,-3.741546902652759e-12,6.496010580223694e-07,-9.191107305887531e-08,-1.7034592153465557e-09
1668680936.2156098,75306,1668680936,215471816,,-0.00014821901232946614,1.8509877014530365e-10,-5.191027811189831e-12,6.363829076076764e-07,-8.624083954732107e-08,-1.6336373088435188e-09
1668680936.2234218,75307,1668680936,223285841,,-0.00015328533739410055,1.8469447675385928e-10,-5.279449216053891e-12,6.231895380623397e-07,-8.060479760467909e-08,-1.5641602819829042e-09
1668680936.2318783,75308,1668680936,231747048,,-0.00015733358572869415,-3.713854106044658e-07,-5.47650257264547e-12,6.100211939819454e-07,-7.500318076989473e-08,-1.495034397848297e-09
1668680936.2396295,75309,1668680936,239529933,,-0.00015155427046185984,-1.8275864809486563e-06,-5.402798628705604e-12,5.968801964796514e-07,-6.943661504641663e-08,-1.4262656486353689e-09
1668680936.24785,75310,1668680936,247723343,,-0.00013999019375333322,-5.022934302925535e-06,-5.806924584297534e-12,5.837676013993499e-07,-6.390544608973551e-08,-1.3578600326655341e-09
1668680936.25569,75311,1668680936,255477992,,-0.00012454632219861922,-1.0556765731714202e-05,-7.294782451043643e-12,5.706846024148472e-07,-5.841003598254956e-08,-1.2898234515764783e-09
1668680936.2644744,75312,1668680936,264279672,,-0.00010723867952944207,-1.8976396147453246e-05,-1.0752879192501168e-11,5.576323869288662e-07,-5.2950741240112766e-08,-1.2221617005914436e-09
1668680936.2720077,75313,1668680936,271847153,,-8.639602927351558e-05,-3.07801434078996e-05,-1.7154609448082735e-11,5.446123733231069e-07,-4.7527954196973216e-08,-1.1548804728560378e-09
1668680936.28076,75314,1668680936,280241776,,-6.228370426281647e-05,-4.64201859316064e-05,-2.8340937140581514e-11,5.316257685805435e-07,-4.2142014072798596e-08,-1.0879853665939684e-09
1668680936.28795,75315,1668680936,287768824,,-3.488160144207587e-05,-6.630530692176654e-05,-4.6997035212624314e-11,5.186737395232527e-07,-3.679324079291178e-08,-1.0214819145499079e-09
1668680936.295478,75316,1668680936,295356913,,-4.034407979897442e-06,-9.080350069360206e-05,-7.682768319158173e-11,5.057573874918509e-07,-3.1481928154428844e-08,-9.553755317919356e-10
1668680936.3036988,75317,1668680936,303572022,,3.037412223421374e-05,-0.00012024445380294591,-1.2272809455066656e-10,4.928777347156328e-07,-2.6208340981213165e-08,-8.896715658558881e-10
1668680936.3117383,75318,1668680936,311611931,,6.87206408212939e-05,-0.00015492190583630652,-1.9076654359798833e-10,4.800357056003635e-07,-2.097270589144487e-08,-8.243752648833674e-10
1668680936.3199387,75319,1668680936,319779779,,0.00011120329481485563,-0.00019509589443525674,-2.8837480076925997e-10,4.672321213644676e-07,-1.5775213723735125e-08,-7.594917971983674e-10
1668680936.3278558,75320,1668680936,327730917,,0.0001580175076281075,-0.00024099488976114594,-4.243304890790546e-10,4.5446769558285e-07,-1.0616016240731871e-08,-6.950262439685793e-10
1668680936.3358245,75321,1668680936,335650660,,0.00020934579618566527,-0.00029281782240183366,-6.08755467881127e-10,4.4174302896426163e-07,-5.495224409922259e-09,-6.309836013060344e-10
1668680936.3437037,75322,1668680936,343549988,,0.0002653456243057912,-0.0003507360093428451,-8.530925972699518e-10,4.29058607366978e-07,-4.129078127572812e-10,-5.673687861760049e-10
1668680936.3522177,75323,1668680936,351940281,,0.00032617430182356607,-0.00041489498207490893,-1.1700225009354025e-09,4.1641479464060004e-07,4.630908049291197e-09,-5.041866196460812e-10
1668680936.3596542,75324,1668680936,359544468,,0.000391955953313435,-0.00048541622130893723,-1.5734111876273565e-09,4.038118372164185e-07,9.63623991624712e-09,-4.41441840655539e-10
1668680936.3675866,75325,1668680936,367464143,,0.00046279658265118925,-0.0005623988018822764,-2.078196265684291e-09,3.9124986241713703e-07,1.4603147504509254e-08,-3.7913911051477844e-10
1668680936.3754609,75326,1668680936,375276365,,0.0005387844992363695,-0.0006459209518905731,-2.700267430528919e-09,3.787288798038221e-07,1.9531733058609813e-08,-3.172829854750092e-10
1668680936.383557,75327,1668680936,383450863,,0.0006199905264790385,-0.0007360415297093342,-3.4563339440003794e-09,3.662487838560306e-07,2.4422140450208583e-08,-2.5587795771109256e-10
1668680936.391808,75328,1668680936,391681734,,0.000706471051999154,-0.0008328014224394886,-4.3637753641347405e-09,3.5380935629382764e-07,2.927455441309511e-08,-1.949284191091888e-10
1668680936.3997216,75329,1668680936,399599269,,0.0007982664801113212,-0.0009362248692928851,-5.440493894876195e-09,3.414102713374964e-07,3.40891987388425e-08,-1.3443867568664614e-10
1668680936.407764,75330,1668680936,407580104,,0.0008954033971128303,-0.0010463207131542111,-6.704754340300089e-09,3.290511001731073e-07,3.886633476946148e-08,-7.441293978574515e-11
1668680936.4159527,75331,1668680936,415788301,,0.0009978955361597543,-0.0011630835835620093,-8.175023545639395e-09,3.167313165185836e-07,4.360625949648226e-08,-1.4855345686209942e-11
1668680936.424221,75332,1668680936,423977825,,0.001105744674078575,-0.0012864950141794466,-9.869810193669095e-09,3.0445030282926785e-07,4.830930344148501e-08,4.423006795886697e-11
1668680936.4326994,75333,1668680936,432364338,,0.0012189417021421939,-0.0014165244977159437,-1.1807505941445084e-08,2.922073568046698e-07,5.2975828429521245e-08,1.0283935421989687e-10
1668680936.4398565,75334,1668680936,439718381,,0.001337467290086535,-0.0015531304811656308,-1.4006231833792696e-08,2.8000169860851597e-07,5.760622512995361e-08,1.6096867198542308e-10
1668680936.4475493,75335,1668680936,447419154,,0.001461292796689156,-0.0016962613040975138,-1.648368956365403e-08,2.678324781610477e-07,6.220091054876399e-08,2.1861426341071577e-10
1668680936.4555042,75336,1668680936,455321451,,0.001590381043969891,-0.0018458560826476,-1.925702045340428e-08,2.5569878278190964e-07,6.676032541412871e-08,2.7577247343341105e-10
1668680936.4637334,75337,1668680936,463567300,,0.0017246870457109042,-0.002001845541751935,-2.2342672688377573e-08,2.4359964496962875e-07,7.128493151342154e-08,3.324397410998936e-10
1668680936.4718063,75338,1668680936,471575365,,0.0018641587111539863,-0.00216415279806271,-2.5756278196798317e-08,2.3153405028269712e-07,7.577520899293357e-08,3.886126065041906e-10
1668680936.4797454,75339,1668680936,479567097,,0.0020087374801900136,-0.002332694095896524,-2.9512539762883747e-08,2.1950094526969753e-07,8.023165363221611e-08,4.442877246657595e-10
1668680936.4876904,75340,1668680936,487570729,,0.002158358942980757,-0.0025073794984663703,-3.3625129039368076e-08,2.0749924535881908e-07,8.465477414788672e-08,4.994618416770402e-10
1668680936.4954145,75341,1668680936,495242044,,0.002312953415684631,-0.002688113536563999,-3.810659573342693e-08,1.955278426776891e-07,8.904508950713884e-08,5.541318142190943e-10
1668680936.5038629,75342,1668680936,503668898,,0.0024724464810034377,-0.0028747958167699436,-4.296828848588566e-08,1.8358561374020053e-07,9.340312629285946e-08,6.082946073932005e-10
1668680936.511836,75343,1668680936,511644244,,0.002636759496730128,-0.0030673215911842387,-4.822028713848166e-08,1.7167142692772373e-07,9.772941614262162e-08,6.619472973229401e-10
1668680936.5198572,75344,1668680936,519634695,,0.0028058100703567167,-0.0032655822905905446,-5.38713466751409e-08,1.5978414980860617e-07,1.0202449322112457e-07,7.15087077225729e-10
1668680936.5276835,75345,1668680936,527545399,,0.0029795125053118173,-0.0034694660228866644,-5.992885275882184e-08,1.4792265619414664e-07,1.0628889182928399e-07,7.677112409329445e-10
1668680936.535426,75346,1668680936,535277676,,0.0031577782179704928,-0.0036788580385387006,-6.639878794211738e-08,1.3608583287005416e-07,1.1052314406528266e-07,8.198172236559276e-10
1668680936.543649,75347,1668680936,543542859,,0.0033405161274246663,-0.0038936411647422834,-7.328570913273092e-08,1.242725861118254e-07,1.1472777760530351e-07,8.714025482095544e-10
1668680936.551976,75348,1668680936,551777293,,0.003527633019513707,-0.004113696209903314,-8.059273507158032e-08,1.1248184780621791e-07,1.1890331359161216e-07,9.224648805233882e-10
1668680936.559689,75349,1668680936,559578871,,0.0037190338861600846,-0.00433890233998186,-8.832154375154727e-08,1.0071258128023275e-07,1.230502646432086e-07,9.730019966819325e-10
1668680936.5677457,75350,1668680936,567578308,,0.0039146222415926525,-0.004569137428176503,-9.647237915430486e-08,8.896378675180531e-08,1.271691329776095e-07,1.0230117950676965e-09
1668680936.5756767,75351,1668680936,575504644,,0.0041143004164864725,-0.004804278379362608,-1.050440666888728e-07,7.72345064384576e-08,1.3126040865197425e-07,1.0724923050348112e-09
1668680936.5843058,75352,1668680936,584061818,,0.004317969831223597,-0.005044201430635519,-1.140340365279683e-07,6.552382929856174e-08,1.3532456793978313e-07,1.1214416773680513e-09
1668680936.5922832,75353,1668680936,591965225,,0.00452553124939537,-0.005288782429251479,-1.234383546991804e-07,5.3830895387142513e-08,1.3936207182509738e-07,1.16985820683424e-09
1668680936.600451,75354,1668680936,600125796,,0.004736885012585678,-0.005537897089200524,-1.332517605598369e-07,4.2154899880056406e-08,1.4337336462299328e-07,1.2177402957530559e-09
1668680936.6079128,75355,1668680936,607779637,,0.004951931257475565,-0.005791421227590926,-1.4346771071267013e-07,3.0495096697984755e-08,1.473588727261702e-07,1.2650864852220556e-09
1668680936.6156967,75356,1668680936,615563190,,0.005170570116223764,-0.006049230981970582,-1.540784281809784e-07,1.8850801769475733e-08,1.5131900347992817e-07,1.3118954637902913e-09
1668680936.6234272,75357,1668680936,623247549,,0.005392701901052469,-0.0063112030096614076,-1.650749565652387e-07,7.221395959916511e-09,1.5525414415285357e-07,1.3581660206207768e-09
1668680936.631759,75358,1668680936,631628263,,0.005618227273922329,-0.006577214670131063,-1.7644721804375633e-07,-4.393672349380161e-09,1.5916466107493248e-07,1.4038971114099796e-09
1668680936.6396675,75359,1668680936,639504732,,0.0058470474021402805,-0.006847144191380553,-1.881840754015924e-07,-1.5994885059920287e-08,1.630508988377348e-07,1.4490877942030522e-09
1668680936.6478064,75360,1668680936,647690413,,0.006079064100703313,-0.007120870821280333,-2.0027339652972166e-07,-2.7582652430268727e-08,1.669131796447603e-07,1.493737279700813e-09
1668680936.6554997,75361,1668680936,655356971,,0.006314179962146841,-0.007398274964742483,-2.127021215561654e-07,-3.9157311522455243e-08,1.7075180275326427e-07,1.5378449139125117e-09
1668680936.6640005,75362,1668680936,663837163,,0.0065522984746271,-0.007679238307576134,-2.254563316231674e-07,-5.071912492439132e-08,1.7456704401192652e-07,1.581410164278041e-09
1668680936.671783,75363,1668680936,671666370,,0.006793324128934923,-0.007963643927831537,-2.3852131922133856e-07,-6.226827974633263e-08,1.7835915551336467e-07,1.6244326474235127e-09
1668680936.6799648,75364,1668680936,679849348,,0.007037162515103365,-0.008251376395399308,-2.5188165912102056e-07,-7.380488695908204e-08,1.8212836534129816e-07,1.6669121118140229e-09
1668680936.6876926,75365,1668680936,687516423,,0.0072837204092408665,-0.008542321860595056,-2.655212796948333e-07,-8.532898092728121e-08,1.8587487738542076e-07,1.7088484412230986e-09
1668680936.6954508,75366,1668680936,695221659,,0.007532905851190384,-0.00883636813242242,-2.79423534189097e-07,-9.684051921981076e-08,1.8959887127401737e-07,1.7502416495285278e-09
1668680936.7038405,75367,1668680936,703654555,,0.007784628213585615,-0.009133404747174233,-2.9357127146541803e-07,-1.0833938273412114e-07,1.9330050235049105e-07,1.7910918859165292e-09
1668680936.7121391,75368,1668680936,711943901,,0.008038798262848026,-0.009433323027997728,-3.079469060011668e-07,-1.198253759027596e-07,1.9697990175478663e-07,1.8313994279428591e-09
1668680936.7200325,75369,1668680936,719915383,,0.008295328212639888,-0.009736016136018898,-3.2253248660092597e-07,-1.31298227218883e-07,2.0063717656509591e-07,1.8711646988800457e-09
1668680936.7278495,75370,1668680936,727678442,,0.00855413177026426,-0.010041379113590142,-3.373097638081522e-07,-1.4275758989951842e-07,2.0427240998537044e-07,1.9103882399618133e-09
1668680936.7356436,75371,1668680936,735348349,,0.008815124176476643,-0.010349308920196918,-3.522602554751106e-07,-1.5420304278623712e-07,2.0788566163361085e-07,1.9490707242608707e-09
1668680936.7441912,75372,1668680936,744033355,,0.009078222239150821,-0.010659704461530998,-3.673653102183254e-07,-1.6563409135729782e-07,2.114769678611102e-07,1.9872129740361455e-09
1668680936.7516966,75373,1668680936,751567478,,0.009343344361216517,-0.010972466612211124,-3.826061690298099e-07,-1.7705016891293723e-07,2.1504634210216342e-07,2.0248158913438452e-09
1668680936.759732,75374,1668680936,759557711,,0.009610410563267334,-0.011287498232607655,-3.979640242354016e-07,-1.884506379157692e-07,2.185937753081818e-07,2.061880558651419e-09
1668680936.7676013,75375,1668680936,767430494,,0.00987934250121393,-0.011604704180201278,-4.1342007617250606e-07,-1.9983479144288375e-07,2.2211923640294952e-07,2.09840815557083e-09
1668680936.7757099,75376,1668680936,775557923,,0.010150063479339716,-0.011923991315885478,-4.2895558707426777e-07,-2.112018547619247e-07,2.256226728057512e-07,2.134399983144686e-09
1668680936.7834952,75377,1668680936,783330824,,0.010422498459095556,-0.012245268505597338,-4.445519321709068e-07,-2.225509869866393e-07,2.2910401091714864e-07,2.1698574707851304e-09
1668680936.791738,75378,1668680936,791618136,,0.010696574063953142,-0.01256844661764208,-4.6019064812910584e-07,-2.3388128290820404e-07,2.3256315671404525e-07,2.204782169334951e-09
1668680936.799807,75379,1668680936,799641901,,0.010972218580618193,-0.012893438516055988,-4.7585347856918764e-07,-2.451917747475665e-07,2.3599999633602256e-07,2.2391757441286853e-09
1668680936.8078833,75380,1668680936,807701845,,0.011249361956888712,-0.013220159050332421,-4.915224165539597e-07,-2.5648143418537e-07,2.39414396682844e-07,2.273039974992619e-09
1668680936.8155365,75381,1668680936,815362332,,0.011527935796427281,-0.01354852504181782,-5.071797443131756e-07,-2.677491742467304e-07,2.428062060734872e-07,2.306376756244788e-09
1668680936.823747,75382,1668680936,823621005,,0.011807873350701333,-0.013878455267066714,-5.228080697843783e-07,-2.789938513990864e-07,2.4617525486831347e-07,2.3391881001644244e-09
1668680936.83189,75383,1668680936,831674666,,0.012089109508331163,-0.014209870438428274,-5.383903604114876e-07,-2.9021426763386734e-07,2.495213561285337e-07,2.371476123114169e-09
1668680936.8399243,75384,1668680936,839739187,,0.012371580782070856,-0.014542693182120543,-5.539099741209843e-07,-3.014091725395151e-07,2.528443063006111e-07,2.4032430316622833e-09
1668680936.8478677,75385,1668680936,847711258,,0.012655225293635351,-0.01487684801403316,-5.693506869763245e-07,-3.1257726543896147e-07,2.561438859238112e-07,2.434491153807672e-09
1668680936.8559775,75386,1668680936,855823376,,0.012939982756573293,-0.015212261313486342,-5.846967185108384e-07,-3.2371719762546987e-07,2.5941986024602924e-07,2.4652229077548604e-09
1668680936.86354,75387,1668680936,863357719,,0.013225794457373714,-0.015548861295157182,-5.999327541690312e-07,-3.3482757445612134e-07,2.626719799684197e-07,2.4954408400779116e-09
1668680936.8720834,75388,1668680936,871910767,,0.01351260323498373,-0.015886577979374775,-6.150439648655569e-07,-3.4590695752295653e-07,2.658999819024231e-07,2.5251475493925923e-09
1668680936.8799405,75389,1668680936,879752601,,0.013800353458902688,-0.016225343160969952,-6.300160241508353e-07,-3.569538668965423e-07,2.6910358969563924e-07,2.554345752275866e-09
1668680936.8876941,75390,1668680936,887536821,,0.014088991006008876,-0.016565090376855524,-6.448351227456008e-07,-3.6796678324656283e-07,2.722825144600141e-07,2.583038258979764e-09
1668680936.8955376,75391,1668680936,895414820,,0.014378463236264384,-0.016905754872501698,-6.594879807516771e-07,-3.7894415000534493e-07,2.754364555223243e-07,2.611227966492491e-09
1668680936.903707,75392,1668680936,903569520,,0.014668718967434867,-0.01724727356745866,-6.739618573067499e-07,-3.898843755388917e-07,2.7856510102244013e-07,2.6389178550689785e-09
1668680936.9116683,75393,1668680936,911513187,,0.014959708448951817,-0.01758958502007091,-6.882445581550102e-07,-4.0078583523849823e-07,2.8166812865459447e-07,2.6661109570058628e-09
1668680936.9197156,75394,1668680936,919593214,,0.015251383335037052,-0.01793262939151594,-7.023244411988122e-07,-4.116468736770941e-07,2.847452062785475e-07,2.692810446847105e-09
1668680936.9275942,75395,1668680936,927491058,,0.015543696657200309,-0.01827634840929224,-7.161904197620496e-07,-4.2246580662098064e-07,2.877959925946111e-07,2.7190194956672187e-09
1668680936.9356036,75396,1668680936,935370116,,0.015836602796214485,-0.01862068533027226,-7.298319640143719e-07,-4.3324092312841257e-07,2.908201377454893e-07,2.7447414341352783e-09
1668680936.9440086,75397,1668680936,943849544,,0.016130057453664373,-0.018965584903427486,-7.432391007748427e-07,-4.4397048755174e-07,2.9381728399021853e-07,2.7699796067981453e-09
1668680936.9521556,75398,1668680936,951864860,,0.016424017623159815,-0.019310993332326422,-7.564024113761249e-07,-4.5465274148455415e-07,2.9678706629343143e-07,2.7947374206527265e-09
1668680936.9597313,75399,1668680936,959583800,,0.016718441561295767,-0.019656858237496647,-7.693130279628571e-07,-4.6528590573751034e-07,2.9972911289781554e-07,2.8190183867793372e-09
1668680936.967866,75400,1668680936,967688415,,0.01701328875843752,-0.020003128618737254,-7.819626284310596e-07,-4.7586818223053183e-07,3.0264304599913767e-07,2.8428260578916564e-09
1668680936.9755127,75401,1668680936,975362910,,0.01730851990940215,-0.02034975481746059,-7.943434298969245e-07,-4.863977558657419e-07,3.0552848221255917e-07,2.86616403527562e-09
1668680936.9839947,75402,1668680936,983868184,,0.01760409688410267,-0.020696688479135562,-8.064481808948482e-07,-4.968727963174276e-07,3.0838503320581006e-07,2.8890359896061035e-09
1668680936.9917417,75403,1668680936,991621978,,0.017899982698215862,-0.02104388251589994,-8.182701523839013e-07,-5.072914598516017e-07,3.112123062093061e-07,2.9114456262524513e-09
1668680936.9998696,75404,1668680936,999729413,,0.018196141483930072,-0.021391291069402362,-8.298031278364251e-07,-5.17651891015949e-07,3.1400990456171944e-07,2.9333967616063106e-09
1668680937.0077143,75405,1668680937,7565106,,0.018492538460824368,-0.02173886947393055,-8.410413920735067e-07,-5.279522243469567e-07,3.1677742821586714e-07,2.9548931287926017e-09
1668680937.0155554,75406,1668680937,15435230,,0.018789139906926433,-0.02208657421987711,-8.519797194417487e-07,-5.381905859962177e-07,3.195144742199887e-07,2.975938669103062e-09
1668680937.0240614,75407,1668680937,23901791,,0.01908591312999278,-0.022434362917588845,-8.626133611314087e-07,-5.483650953842182e-07,3.222206372517156e-07,2.9965372266849144e-09
1668680937.0321848,75408,1668680937,31982986,,0.01938282643904966,-0.02278219426164299,-8.729380319134371e-07,-5.584738666578851e-07,3.2489551001922603e-07,3.016692770585472e-09
1668680937.040343,75409,1668680937,40170199,,0.019679851693960783,-0.023130020278181715,6.356320820412233e-05,-5.685150103210634e-07,3.275386837458833e-07,3.0364092629131534e-09
1668680937.0478127,75410,1668680937,47627791,,0.019976962519767615,-0.023477791524051758,0.0002734038336273418,-5.784866346365521e-07,3.3014974865856056e-07,3.0556907143486356e-09
1668680937.055606,75411,1668680937,55487743,,0.02027412681578451,-0.023825479435654055,0.0005457975434188883,-5.883868471837778e-07,3.32728294374484e-07,3.074541135572595e-09
1668680937.0634897,75412,1668680937,63354357,,0.02028970716964802,-0.02527176469909908,0.0010673890912524797,-5.995794446749664e-07,3.3574195440206744e-07,3.093255970809672e-09
1668680937.071816,75413,1668680937,71614892,,0.020328060286837375,-0.02662890878717637,0.001545668923043792,-6.105929123016761e-07,3.386871914553332e-07,3.1115468812625835e-09
1668680937.0795815,75414,1668680937,79441785,,0.020238968316170794,-0.02848328932267444,0.0021267671624026247,-6.221688787314559e-07,3.418183804518955e-07,3.1295866800840066e-09
1668680937.08785,75415,1668680937,87731531,,0.01996455575189291,-0.030768402820823545,0.0028867614286600856,-6.329498932985977e-07,3.4467082837190497e-07,3.147074129072891e-09
1668680937.095474,75416,1668680937,95374423,,0.019769931835045544,-0.033402530635997706,0.003845032806247734,-6.470276245117233e-07,3.4864671373394714e-07,3.1650027668139735e-09
1668680937.103757,75417,1668680937,103590529,,0.01961791505171035,-0.035840127083290305,0.004720011532380671,-6.60688581818772e-07,3.524751034741534e-07,3.1825203652968703e-09
1668680937.1116428,75418,1668680937,111504925,,0.01952291351887727,-0.03836417184548807,0.005656260133991584,-6.758673085312033e-07,3.568191049726187e-07,3.200134594816273e-09
1668680937.1197958,75419,1668680937,119678358,,0.019684406718538154,-0.04055353235748892,0.006608070691167046,-6.937675403369671e-07,3.6209221287194886e-07,3.2182234793731723e-09
1668680937.1278572,75420,1668680937,127698834,,0.020024420686339285,-0.042315061477693025,0.007509933528426944,-7.124951526839805e-07,3.676469263814205e-07,3.2363411742175607e-09
1668680937.1359277,75421,1668680937,135775452,,0.02045234246641707,-0.0437995123891913,0.008345965769952104,-7.31299453904453e-07,3.732268054853268e-07,3.2543071362689524e-09
1668680937.1434011,75422,1668680937,143212407,,0.021420703057340246,-0.04398606226440474,0.008856952809961268,-7.525353242372182e-07,3.7963926285424464e-07,3.272845078283737e-09
1668680937.1518447,75423,1668680937,151653277,,0.02233982276339408,-0.04415241060699879,0.009310071802525617,-7.728797410309039e-07,3.857472579520127e-07,3.2910134409314118e-09
1668680937.1597252,75424,1668680937,159606668,,0.02350103094317558,-0.04367881411580692,0.009580594489345005,-7.941218781595621e-07,3.9216391910104967e-07,3.3093754125967934e-09
1668680937.1679,75425,1668680937,167742853,,0.024263436086426424,-0.04304801401013615,0.009859997425491165,-8.058639996853714e-07,3.9532750613835085e-07,3.3245406774740083e-09
1668680937.1760354,75426,1668680937,175892275,,0.0248148400955476,-0.043489576344862134,0.009551002098317466,-8.206111962274273e-07,3.9951826590533743e-07,3.3404863736263835e-09
1668680937.1841056,75427,1668680937,183860246,,0.02525332417798404,-0.044436127906620895,0.008958363219815024,-8.364979712828513e-07,4.040989281060142e-07,3.356664141085375e-09
1668680937.1920383,75428,1668680937,191915411,,0.02567958061563851,-0.0453045637823751,0.008394928099328035,-8.515271177916991e-07,4.08386184803022e-07,3.3723999565138385e-09
1668680937.199644,75429,1668680937,199533714,,0.026046488186747527,-0.04720772635978493,0.00746064847264057,-8.729159714275189e-07,4.1485274806032924e-07,3.3903758550613006e-09
1668680937.2077198,75430,1668680937,207599119,,0.0263812863503493,-0.04979301682409523,0.005975711174628737,-8.988988265275742e-07,4.228975645440957e-07,3.410144194804232e-09
1668680937.2157223,75431,1668680937,215558644,,0.026698164694722425,-0.05260632661544668,0.004273506169656782,-9.264912246756797e-07,4.315012792758567e-07,3.4307036239633604e-09
1668680937.2236075,75432,1668680937,223369390,,0.027004936545303296,-0.055652394274920976,0.002214381447447582,-9.559877320326868e-07,4.4076639222874817e-07,3.452258867664426e-09
1668680937.2318618,75433,1668680937,231644078,,0.02730901312631729,-0.058435246205126086,0.0003136741245978903,-9.83544101590037e-07,4.4937780988799775e-07,3.473290502431503e-09
1668680937.2396762,75434,1668680937,239501897,,0.027607001190823783,-0.06122049450664876,-0.0016931055196136332,-1.0111619171564211e-06,4.580207854736583e-07,3.494622688449134e-09
1668680937.2476075,75435,1668680937,247431173,,0.02793577094280484,-0.0638066584928213,-0.003709150889584308,-1.0380589602072398e-06,4.6642811944047104e-07,3.5159366251757973e-09
1668680937.2555344,75436,1668680937,255394885,,0.028472203875713798,-0.06593879769134942,-0.0053981060092026046,-1.0667951668924883e-06,4.7547693363971487e-07,3.538409301673262e-09
1668680937.2636101,75437,1668680937,263504900,,0.028986959933666956,-0.0678620300976412,-0.006942716729480435,-1.0932305837898799e-06,4.837510904087423e-07,3.5601841058552353e-09
1668680937.2717414,75438,1668680937,271605063,,0.029593478482506486,-0.06947701713705433,-0.008266673904482484,-1.1195749951822733e-06,4.920066741000151e-07,3.582271618229882e-09
1668680937.2798228,75439,1668680937,279694722,,0.03042648967509833,-0.07062584856967091,-0.009222978941897858,-1.1482993870907173e-06,5.010906198941577e-07,3.6059351199435596e-09
1668680937.2878494,75440,1668680937,287657173,,0.031480108310584905,-0.07141939716617804,-0.010047417070936277,-1.1804239991076732e-06,5.11354691603693e-07,3.631833556116959e-09
1668680937.2956991,75441,1668680937,295582729,,0.032608957702702154,-0.07198676294628031,-0.010766705631127416,-1.212948237639018e-06,5.217744377017559e-07,3.658558539454404e-09
1668680937.3036242,75442,1668680937,303500503,,0.03379039514826228,-0.07276785493462787,-0.011741124722281185,-1.2495220252427362e-06,5.336009670324753e-07,3.6881573767244547e-09
1668680937.3149571,75443,1668680937,314653815,,0.034891806231462874,-0.07343674893280931,-0.01261516797948169,-1.2827978329800396e-06,5.443220507054397e-07,3.7167334210330694e-09
1668680937.320135,75444,1668680937,319918415,,0.03598478067331692,-0.07416449466128885,-0.013571570074279482,-1.3166600907751295e-06,5.552663462022114e-07,3.746413665406401e-09
1668680937.327792,75445,1668680937,327644596,,0.037053099083109525,-0.07517868179333292,-0.014652784912608546,-1.3529399350985412e-06,5.670622294910201e-07,3.77835222831191e-09
1668680937.3355808,75446,1668680937,335479796,,0.037467135458334626,-0.07609129752688025,-0.014639151858467323,-1.366259943283302e-06,5.710232766345177e-07,3.7972374966610545e-09
1668680937.3432822,75447,1668680937,343156809,,0.037550501550825906,-0.0768939907240697,-0.014078865585501131,-1.3669732855340223e-06,5.706763787647132e-07,3.808435636298846e-09
1668680937.351836,75448,1668680937,351695085,,0.03763578699647341,-0.0775773730709502,-0.013534884247553036,-1.36625286315938e-06,5.69836896618589e-07,3.818511062902985e-09
1668680937.3596895,75449,1668680937,359539092,,0.03754072548150564,-0.07806105894561916,-0.012380524996353497,-1.3570629615931949e-06,5.660947962763188e-07,3.822761024396826e-09
1668680937.3678155,75450,1668680937,367664730,,0.03736628749892459,-0.07843114282843376,-0.010964396420663115,-1.3438524437318173e-06,5.60966372480879e-07,3.823776836830994e-09
1668680937.3756297,75451,1668680937,375526717,,0.03716505587915352,-0.07870503088808417,-0.00946491108312178,-1.3286651778167836e-06,5.551482434931754e-07,3.82278081412224e-09
1668680937.3836834,75452,1668680937,383449859,,0.036964303721406175,-0.07900325060932263,-0.007922150611517189,-1.3137195301649073e-06,5.493985809586818e-07,3.8212557423866755e-09
1668680937.3917053,75453,1668680937,391500712,,0.036791689798278175,-0.07922045437128139,-0.006485588571534965,-1.2988524635221353e-06,5.436620173927126e-07,3.819102853408474e-09
1668680937.3997724,75454,1668680937,399599238,,0.036631656802938374,-0.07941795661320684,-0.005074548452902958,-1.284180178908953e-06,5.379786640485624e-07,3.816419930080528e-09
1668680937.4077742,75455,1668680937,407611064,,0.03649058893457386,-0.07950955886792299,-0.003722738778800675,-1.2690402120910669e-06,5.321220705447813e-07,3.812721249829565e-09
1668680937.4154174,75456,1668680937,415230997,,0.03637110954468775,-0.07938151080631212,-0.002439924521178514,-1.2523974639495374e-06,5.257375946818646e-07,3.807188855842192e-09
1668680937.424111,75457,1668680937,423924093,,0.036276550169555485,-0.07920745076776081,-0.0012536604825543732,-1.2361560998490296e-06,5.194763294305831e-07,3.801263193103921e-09
1668680937.4317124,75458,1668680937,431580674,,0.03620336181645711,-0.07890955276861443,-0.0001424132435518945,-1.2194260518216468e-06,5.130340330384859e-07,3.794252301236867e-09
1668680937.439794,75459,1668680937,439611236,,0.03654808538894201,-0.07879867407692276,0.00047959423106240897,-1.2182315881451326e-06,5.118987522056018e-07,3.799337788823465e-09
1668680937.448505,75460,1668680937,448292177,,0.037223600741414814,-0.07883407586412408,0.0003958025799116113,-1.2292244336669072e-06,5.149368632270408e-07,3.814471821739218e-09
1668680937.4591622,75461,1668680937,458881354,,0.03804212074351751,-0.07891476689891075,-2.8629238757411567e-05,-1.2453129049923685e-06,5.197298095754432e-07,3.8341932406815715e-09
1668680937.4637573,75462,1668680937,463517080,,0.038990699163769064,-0.07898134475132591,-0.0007998530270382114,-1.2655778788216946e-06,5.259673838478585e-07,3.857971123122361e-09
1668680937.4718833,75463,1668680937,471725413,,0.039877438835744114,-0.07899028388227042,-0.0015084223262841429,-1.2831468897367372e-06,5.312999139214011e-07,3.8799247842336015e-09
1668680937.479874,75464,1668680937,479687393,,0.04080100974454543,-0.0789706119912878,-0.0023588420347869002,-1.3016522511491348e-06,5.369696227874258e-07,3.903232542734614e-09
1668680937.4876657,75465,1668680937,487440426,,0.04160302184997199,-0.07894798694377872,-0.002948092863980239,-1.3158578924110783e-06,5.411846969863906e-07,3.923128516492014e-09
1668680937.4953704,75466,1668680937,495215591,,0.04244858622844211,-0.07910866868823606,-0.0036870399605063316,-1.3334282019179973e-06,5.46566602730586e-07,3.946622043060621e-09
1668680937.503836,75467,1668680937,503649322,,0.0432355316671311,-0.0792059297127703,-0.004360176859332896,-1.3481789744906924e-06,5.510009946294026e-07,3.967983136510256e-09
1668680937.511729,75468,1668680937,511616797,,0.04401901460290359,-0.07936801193797002,-0.00507833546418519,-1.3633984140933768e-06,5.556118852765614e-07,3.990293220845764e-09
1668680937.5197537,75469,1668680937,519611309,,0.044986636221792026,-0.07968880820711759,-0.006275235596703135,-1.3869138661489096e-06,5.630804685470558e-07,4.021381658225742e-09
1668680937.5276167,75470,1668680937,527518955,,0.04597481361822249,-0.08003053365345689,-0.007623102037567671,-1.4114142826219785e-06,5.709112408549925e-07,4.054324265201359e-09
1668680937.5354059,75471,1668680937,535209115,,0.046937074645668805,-0.0803454146869116,-0.008986345682998914,-1.4346602118110296e-06,5.783389557577692e-07,4.086896973620746e-09
1668680937.5438232,75472,1668680937,543652895,,0.04782495274096286,-0.08058450607399696,-0.010223924920557745,-1.4542385129513767e-06,5.845368864086826e-07,4.1165263003906105e-09
1668680937.5516748,75473,1668680937,551561273,,0.0486244764153758,-0.08084612491832384,-0.011376090111104265,-1.4706192640373452e-06,5.89663191293173e-07,4.143533682832157e-09
1668680937.5597904,75474,1668680937,559573616,,0.04935005708522944,-0.0810848781223878,-0.012432176181461595,-1.4837790426173482e-06,5.937073685909067e-07,4.167734157789482e-09
1668680937.5680325,75475,1668680937,567900562,,0.050144235907636676,-0.08119390947889031,-0.013444851650048538,-1.4980075428061741e-06,5.981355152779103e-07,4.19371141979763e-09
1668680937.5754402,75476,1668680937,575320301,,0.05098786214361967,-0.0811359493050691,-0.014288597105616443,-1.5121707622995457e-06,6.025608667555374e-07,4.220271479504767e-09
1668680937.5837426,75477,1668680937,583552964,,0.051760823012385444,-0.08103227689976923,-0.015037339895811649,-1.5229148536979008e-06,6.058355687238969e-07,4.2435878006008565e-09
1668680937.5917916,75478,1668680937,591602871,,0.052528823960963485,-0.08083008829388882,-0.015664216070433005,-1.5322150323085265e-06,6.086329227021278e-07,4.265779590673091e-09
1668680937.599742,75479,1668680937,599503075,,0.05330564309961147,-0.08067218424501599,-0.016241188696876456,-1.5422510536148475e-06,6.116981500410047e-07,4.289363433884752e-09
1668680937.6086159,75480,1668680937,608376832,,0.05408297730856172,-0.0805710181853523,-0.016729320192642345,-1.5528333601215125e-06,6.149674871896646e-07,4.314173379649233e-09
1668680937.616273,75481,1668680937,616056495,,0.05482752997179198,-0.08047895872772869,-0.017140128404660105,-1.5620578480689826e-06,6.177900109308708e-07,4.337926559627725e-09
1668680937.6234677,75482,1668680937,623273286,,0.05512767765655233,-0.08038140868743641,-0.016585339056149423,-1.5529055245962122e-06,6.143381853090935e-07,4.339340137216041e-09
1668680937.6315644,75483,1668680937,631427199,,0.05539468040692187,-0.08024519848915061,-0.01604161664577081,-1.541837534429374e-06,6.102286730560319e-07,4.338150574878519e-09
1668680937.639806,75484,1668680937,639677486,,0.05543184362662947,-0.08009214771495501,-0.01503341121103852,-1.5210927959497314e-06,6.028024755432015e-07,4.324254149201678e-09
1668680937.647749,75485,1668680937,647619898,,0.05504432107335983,-0.07979617527427718,-0.013674602204344907,-1.4814915766572095e-06,5.889064009080396e-07,4.285054339137062e-09
1668680937.6557238,75486,1668680937,655556516,,0.05429422546495831,-0.07931265763349339,-0.012054890035637178,-1.4256568517956054e-06,5.694182304066472e-07,4.222887220461935e-09
1668680937.6635764,75487,1668680937,663446042,,0.0533938520622372,-0.07873618297150556,-0.010358809492632659,-1.3638199622083682e-06,5.478241135508863e-07,4.150578422623674e-09
1668680937.672026,75488,1668680937,671923485,,0.05256103548063758,-0.07816386927026235,-0.008776402980080499,-1.3058681209566873e-06,5.275042626335519e-07,4.081317089843495e-09
1668680937.6803334,75489,1668680937,680190947,,0.051983969035905554,-0.07772332749485003,-0.007335743518905871,-1.2601845747800457e-06,5.113349590205041e-07,4.026984051774818e-09
1668680937.6882975,75490,1668680937,688172030,,0.05204846904562165,-0.07734741508339267,-0.006541295826919966,-1.2402043665305429e-06,5.039315255422547e-07,4.007199946864937e-09
1668680937.6954403,75491,1668680937,695300852,,0.05242343737598642,-0.07699998434650197,-0.006085905701370079,-1.2323949232130463e-06,5.006852269360228e-07,4.004167886151322e-09
1668680937.7036934,75492,1668680937,703585689,,0.052768642906572884,-0.0766436087699847,-0.005654510159006602,-1.2232973139766727e-06,4.969983246317332e-07,3.9991557981844394e-09
1668680937.712466,75493,1668680937,712249868,,0.053059250929111304,-0.0763669714985384,-0.00501571617794138,-1.2128903337388103e-06,4.928624477841363e-07,3.992063637991983e-09
1668680937.7204118,75494,1668680937,720246499,,0.05331228503231833,-0.07612362620209386,-0.004295881502030256,-1.2013440560949655e-06,4.883347126910347e-07,3.983072802138388e-09
1668680937.7285702,75495,1668680937,728295570,,0.05330082375866709,-0.07568676676351699,-0.0034143103626616887,-1.1776811683347288e-06,4.796539119136106e-07,3.955634375607531e-09
1668680937.7355983,75496,1668680937,735427233,,0.05310548322146142,-0.07514448205258342,-0.002394028972939702,-1.1461106146243858e-06,4.682497128467508e-07,3.915452947977904e-09
1668680937.7438545,75497,1668680937,743616378,,0.05292628918092961,-0.0746139263260749,-0.0014497315658722513,-1.115569615276488e-06,4.5717591987733813e-07,3.875841855793816e-09
1668680937.7520502,75498,1668680937,751890083,,0.05266520209055436,-0.07403864359185633,-0.00047058252808451133,-1.081810637061165e-06,4.449786347353671e-07,3.830243400226863e-09
1668680937.7603953,75499,1668680937,760183710,,0.05232091246514852,-0.07337124614402918,0.0007554297211773296,-1.0444374158502436e-06,4.315190584368127e-07,3.7778552924860875e-09
1668680937.7682729,75500,1668680937,768025687,,0.05165864531224343,-0.07277329320068565,0.0026614961521695675,-9.965790097656588e-07,4.144395471944451e-07,3.7075135739250697e-09
1668680937.775428,75501,1668680937,775273084,,0.05086947373991475,-0.0722201798135368,0.004823703980799345,-9.453967017175081e-07,3.961837127890687e-07,3.630208675331481e-09
1668680937.7837856,75502,1668680937,783644965,,0.05014989867719001,-0.07168689056846951,0.0068053788950476245,-8.97839081906741e-07,3.7912999782631004e-07,3.5571189882510623e-09
1668680937.7916858,75503,1668680937,791505890,,0.049327559316129414,-0.07120725628206169,0.008990381421136166,-8.480373873525618e-07,3.6127125423298864e-07,3.4787716041151384e-09
1668680937.7998517,75504,1668680937,799662201,,0.04849203564068061,-0.0707625076000488,0.011181821011591533,-7.990639349971657e-07,3.4365887190764173e-07,3.400187922886211e-09
1668680937.8077395,75505,1668680937,807609520,,0.04776160645702675,-0.07030598523243238,0.013261912670440981,-7.545075326817344e-07,3.2752445966520265e-07,3.32747618347895e-09
1668680937.8158367,75506,1668680937,815687081,,0.047283277220588935,-0.06974254403936406,0.015090710676245874,-7.182631342806702e-07,3.142080675744112e-07,3.2675091243827836e-09
1668680937.8233237,75507,1668680937,823186603,,0.046954091916526705,-0.06914057138394165,0.01671267805050503,-6.871771557334172e-07,3.0263678857281144e-07,3.2153003870494246e-09
1668680937.8321705,75508,1668680937,831975040,,0.04666821414406205,-0.06857011047428821,0.018173332559540047,-6.581939904309842e-07,2.91768060340725e-07,3.165813930450234e-09
1668680937.8397808,75509,1668680937,839596692,,0.046550092903564856,-0.06793490197091133,0.019463706661543217,-6.344937047834433e-07,2.8269439118896664e-07,3.124731237647005e-09
1668680937.8477912,75510,1668680937,847568092,,0.04650017358000606,-0.06738321659760474,0.020620563371607312,-6.139448280916351e-07,2.746898678928234e-07,3.088548986007744e-09
1668680937.8556352,75511,1668680937,855489836,,0.0464946488887949,-0.06688795165068104,0.021648804690597274,-5.954764062581289e-07,2.673902113259005e-07,3.0555137309207225e-09
1668680937.8638756,75512,1668680937,863675604,,0.04650925893914074,-0.06642123358522616,0.02255294882447717,-5.78034631854127e-07,2.6043602611340935e-07,3.0238316017783262e-09
1668680937.8716984,75513,1668680937,871565656,,0.04662280604435875,-0.06597409599771181,0.023353275198724325,-5.640509295687119e-07,2.5466212002730505e-07,2.997973161389389e-09
1668680937.8798797,75514,1668680937,879700010,,0.04679031447586909,-0.06554980047293242,0.024050447124522662,-5.520598476078985e-07,2.4956905412729623e-07,2.9754220615130222e-09
1668680937.8877385,75515,1668680937,887623461,,0.04697199455674472,-0.06514816613884815,0.024674738971638844,-5.407625773214304e-07,2.4471324190124266e-07,2.953874658762068e-09
1668680937.896242,75516,1668680937,895714654,,0.04714892824126874,-0.0647894376498107,0.025356345543355033,-5.297089189154136e-07,2.3994099261322524e-07,2.9325259304213702e-09
1668680937.904009,75517,1668680937,903827301,,0.047326621380990704,-0.06446273076273351,0.026016579628085897,-5.189821851865053e-07,2.3528119304162994e-07,2.911545740613697e-09
1668680937.9116821,75518,1668680937,911526775,,0.04751053647361483,-0.06415736444456312,0.02657321183103526,-5.086665071495772e-07,2.3076308011877635e-07,2.891110920111295e-09
1668680937.919852,75519,1668680937,919642143,,0.04766737132687963,-0.06400153488103437,0.027087013725610655,-4.987139754761066e-07,2.2637067609017174e-07,2.871150830974223e-09
1668680937.9279892,75520,1668680937,927790977,,0.04805343522792926,-0.06380963964468768,0.027486398507556166,-4.958289592910635e-07,2.2440377791307226e-07,2.864629006227304e-09
1668680937.93553,75521,1668680937,935355030,,0.048545712346824116,-0.06360625705295472,0.027789610092353517,-4.962564585779018e-07,2.235806024924493e-07,2.8645836674945357e-09
1668680937.9439464,75522,1668680937,943749614,,0.049018359305621505,-0.06341692070300918,0.028013962060258937,-4.961523064038204e-07,2.2258564296297016e-07,2.8636344823196325e-09
1668680937.9519188,75523,1668680937,951719561,,0.049563561012724126,-0.06324303251824308,0.028099623044497233,-4.985171818501152e-07,2.2244772911856302e-07,2.8677001190358098e-09
1668680937.960525,75524,1668680937,960318253,,0.05013166378624643,-0.06308299705319384,0.028088349683622994,-5.01734205477747e-07,2.226145675223324e-07,2.8736807516915874e-09
