Time,header.seq,header.stamp.secs,header.stamp.nsecs,header.frame_id,wrench.force.x,wrench.force.y,wrench.force.z,wrench.torque.x,wrench.torque.y,wrench.torque.z
1668680935.3435562,75197,1668680935,343340915,,-9.021726908678837e-146,-7.637585846708125e-149,1.796061208e-314,5e-324,-5e-324,0.0
1668680935.3517482,75198,1668680935,351525737,,-4.77319549963385e-146,-4.040877180233011e-149,9.502561274e-315,5e-324,-5e-324,0.0
1668680935.360249,75199,1668680935,360044639,,-2.525391813379695e-146,-2.1379384419967876e-149,5.02759429e-315,5e-324,-5e-324,0.0
1668680935.3687174,75200,1668680935,368360899,,-1.3361287656402108e-146,-1.131135785102997e-149,2.65998857e-315,5e-324,-5e-324,0.0
1668680935.3763003,75201,1668680935,375961437,,-1.3361287656402108e-146,-1.131135785102997e-149,2.65998857e-315,5e-324,-5e-324,0.0
1668680935.3847883,75202,1668680935,384216946,,-7.069160788883973e-147,-5.984588420354978e-150,1.407340923e-315,5e-324,-5e-324,0.0
1668680935.392403,75203,1668680935,392024426,,-3.740136096474947e-147,-3.16631292482588e-150,7.4459285e-316,5e-324,-5e-324,0.0
1668680935.4003766,75204,1668680935,399937227,,-1.978823008546008e-147,-1.6752259025566791e-150,3.93947556e-316,5e-324,-5e-324,0.0
1668680935.4078486,75205,1668680935,407592004,,-1.046951340311288e-147,-8.863248488780266e-151,2.0842891e-316,5e-324,-5e-324,0.0
1668680935.4158952,75206,1668680935,415508210,,-1.046951340311288e-147,-8.863248488780266e-151,2.0842891e-316,5e-324,-5e-324,0.0
1668680935.4237103,75207,1668680935,423500269,,-5.539187204948641e-148,-4.68934808457618e-151,1.1027511e-316,5e-324,-5e-324,0.0
1668680935.4327745,75208,1668680935,432406329,,-2.93066102597891e-148,-2.481030006792068e-151,5.8344113e-317,5e-324,-5e-324,0.0
1668680935.439769,75209,1668680935,439590874,,-1.5505477124005941e-148,-1.312657918240032e-151,3.0868574e-317,5e-324,-5e-324,0.0
1668680935.4480083,75210,1668680935,447635241,,-8.203603852914571e-149,-6.944981743877242e-152,1.633188e-317,5e-324,-5e-324,0.0
1668680935.4555264,75211,1668680935,455340239,,-8.203603852914571e-149,-6.944981743877242e-152,1.633188e-317,5e-324,-5e-324,0.0
1668680935.4647186,75212,1668680935,464428396,,-4.34034474639679e-149,-3.6744357195100056e-152,8.640833e-318,5e-324,-5e-324,0.0
1668680935.4717083,75213,1668680935,471477187,,-2.296380085549993e-149,-1.944062397099033e-152,4.571673e-318,5e-324,-5e-324,0.0
1668680935.4798841,75214,1668680935,479667192,,-1.2149637426124647e-149,-1.028560272192876e-152,2.418772e-318,5e-324,-5e-324,0.0
1668680935.4877422,75215,1668680935,487527599,,-6.428103540661677e-150,-5.441884144830721e-153,1.27972e-318,5e-324,-5e-324,0.0
1668680935.4958937,75216,1668680935,495659252,,-3.400966932611349e-150,-2.879180136193977e-153,6.77073e-319,5e-324,-5e-324,0.0
1668680935.5035605,75217,1668680935,503291794,,-3.400966932611349e-150,-2.879180136193977e-153,6.77073e-319,5e-324,-5e-324,0.0
1668680935.5119987,75218,1668680935,511724262,,-1.799376130697055e-150,-1.523310316065509e-153,3.5822e-319,5e-324,-5e-324,0.0
1668680935.5198002,75219,1668680935,519543394,,-9.52009979478476e-151,-8.059496833355706e-154,1.8953e-319,5e-324,-5e-324,0.0
1668680935.5277274,75220,1668680935,527509121,,-5.036873533914838e-151,-4.26410092033259e-154,1.00276e-319,5e-324,-5e-324,0.0
1668680935.536583,75221,1668680935,536295241,,-2.664898009845425e-151,-2.256041169162e-154,5.3053e-320,5e-324,-5e-324,0.0
1668680935.5440612,75222,1668680935,543684995,,-2.664898009845425e-151,-2.256041169162e-154,5.3053e-320,5e-324,-5e-324,0.0
1668680935.552289,75223,1668680935,551952108,,-1.4099383983060673e-151,-1.19362131714201e-154,2.807e-320,5e-324,-5e-324,0.0
1668680935.5604765,75224,1668680935,560187125,,-7.459671175682953e-152,-6.31518550375142e-155,1.485e-320,5e-324,-5e-324,0.0
1668680935.5684676,75225,1668680935,568234174,,-3.946746476028337e-152,-3.341224505128975e-155,7.856e-321,5e-324,-5e-324,0.0
1668680935.5753746,75226,1668680935,575168926,,-3.946746476028337e-152,-3.341224505128975e-155,7.856e-321,5e-324,-5e-324,0.0
1668680935.5836596,75227,1668680935,583503655,,-2.0881359753254805e-152,-1.7677677381040867e-155,4.155e-321,5e-324,-5e-324,0.0
1668680935.591711,75228,1668680935,591521554,,-1.1047864051902152e-152,-9.35286680402522e-156,2.2e-321,5e-324,-5e-324,0.0
1668680935.599747,75229,1668680935,599537457,,-5.845179698620292e-153,-4.948394269693722e-156,1.16e-321,5e-324,-5e-324,0.0
1668680935.6078126,75230,1668680935,607593906,,-3.0925548638770857e-153,-2.618085594654175e-156,6.13e-322,5e-324,-5e-324,0.0
1668680935.6160278,75231,1668680935,615760366,,-1.636202149327813e-153,-1.3851709882769616e-156,3.26e-322,5e-324,-5e-324,0.0
1668680935.6235843,75232,1668680935,623366046,,-1.636202149327813e-153,-1.3851709882769616e-156,3.26e-322,5e-324,-5e-324,0.0
1668680935.6317918,75233,1668680935,631587714,,-8.656782470493171e-154,-7.328632305536277e-157,1.73e-322,5e-324,-5e-324,0.0
1668680935.639762,75234,1668680935,639543298,,-4.580111496139078e-154,-3.877416717813254e-157,9.4e-323,5e-324,-5e-324,0.0
1668680935.6477816,75235,1668680935,647580757,,-2.4232353519991216e-154,-2.0514551388013125e-157,5e-323,5e-324,-5e-324,0.0
1668680935.6555436,75236,1668680935,655263028,,-2.4232353519991216e-154,-2.0514551388013125e-157,5e-323,5e-324,-5e-324,0.0
1668680935.6637158,75237,1668680935,663491855,,-1.2820800489525893e-154,-1.0853793885965812e-157,2.5e-323,5e-324,-5e-324,0.0
1668680935.6717768,75238,1668680935,671551941,,-6.783201023236268e-155,-5.7425014805765374e-158,1.5e-323,5e-324,-5e-324,0.0
1668680935.679831,75239,1668680935,679653849,,-3.588841130413304e-155,-3.0382300973176596e-158,1e-323,5e-324,-5e-324,0.0
1668680935.688508,75240,1668680935,688206894,,-1.8987761995001724e-155,-1.6074601209018954e-158,5e-324,5e-324,-5e-324,0.0
1668680935.6959708,75241,1668680935,695700014,,-1.8987761995001724e-155,-1.6074601209018954e-158,5e-324,5e-324,-5e-324,0.0
1668680935.7038236,75242,1668680935,703631040,,-1.0046003500224914e-155,-8.504714776445636e-159,5e-324,5e-324,-5e-324,0.0
1668680935.7116392,75243,1668680935,711416840,,-5.315117513748995e-156,-4.49965585386408e-159,5e-324,5e-324,-5e-324,0.0
1668680935.7201083,75244,1668680935,719791983,,-2.8121107248597725e-156,-2.3806680571214925e-159,5e-324,5e-324,-5e-324,0.0
1668680935.7277186,75245,1668680935,727521814,,-1.4878253789150008e-156,-1.2595586378748469e-159,5e-324,5e-324,-5e-324,0.0
1668680935.7354376,75246,1668680935,735199819,,-1.4878253789150008e-156,-1.2595586378748469e-159,5e-324,5e-324,-5e-324,0.0
1668680935.744525,75247,1668680935,743951961,,-7.871753905614614e-157,-6.66404523511518e-160,5e-324,5e-324,-5e-324,0.0
1668680935.752484,75248,1668680935,752239469,,-4.1647703036055656e-157,-3.5257984471917847e-160,5e-324,5e-324,-5e-324,0.0
1668680935.7598069,75249,1668680935,759489668,,-2.203487544170183e-157,-1.865421714834014e-160,5e-324,5e-324,-5e-324,0.0
1668680935.7678127,75250,1668680935,767516760,,-1.1658163604148151e-157,-9.869532323794205e-161,5e-324,5e-324,-5e-324,0.0
1668680935.77579,75251,1668680935,775601782,,-6.168075648109386e-158,-5.221750530500607e-161,5e-324,5e-324,-5e-324,0.0
1668680935.7837515,75252,1668680935,783507178,,-6.168075648109386e-158,-5.221750530500607e-161,5e-324,5e-324,-5e-324,0.0
1668680935.791828,75253,1668680935,791613806,,-3.2633919451313046e-158,-2.7627123259981453e-161,5e-324,5e-324,-5e-324,0.0
1668680935.7998118,75254,1668680935,799562301,,-1.7265882578486523e-158,-1.4616897823133558e-161,5e-324,5e-324,-5e-324,0.0
1668680935.807891,75255,1668680935,807571941,,-9.134995312433724e-159,-7.733476263936935e-162,5e-324,5e-324,-5e-324,0.0
1668680935.8157759,75256,1668680935,815527852,,-4.833123298438471e-159,-4.0916106720143076e-162,5e-324,5e-324,-5e-324,0.0
1668680935.82353,75257,1668680935,823264873,,-4.833123298438471e-159,-4.0916106720143076e-162,5e-324,5e-324,-5e-324,0.0
1668680935.83293,75258,1668680935,832269124,,-2.5570982818255537e-159,-2.1647804066342056e-162,5e-324,5e-324,-5e-324,0.0
1668680935.8403966,75259,1668680935,840065100,,-1.3529039544734558e-159,-1.1453372729229623e-162,5e-324,5e-324,-5e-324,0.0
1668680935.8480124,75260,1668680935,847727526,,-7.15791459029568e-160,-6.059725340854259e-163,5e-324,5e-324,-5e-324,0.0
1668680935.855738,75261,1668680935,855528046,,-3.787093763201283e-160,-3.206066202043627e-163,5e-324,5e-324,-5e-324,0.0
1668680935.8634465,75262,1668680935,863236700,,-3.787093763201283e-160,-3.206066202043627e-163,5e-324,5e-324,-5e-324,0.0
1668680935.871725,75263,1668680935,871544720,,-2.0036672679389445e-160,-1.6962584793385044e-163,5e-324,5e-324,-5e-324,0.0
1668680935.879994,75264,1668680935,879732723,,-1.060095886618938e-160,-8.974527185039774e-164,5e-324,5e-324,-5e-324,0.0
1668680935.8877432,75265,1668680935,887525936,,-5.6087320824598935e-161,-4.748223173300052e-164,5e-324,5e-324,-5e-324,0.0
1668680935.8958948,75266,1668680935,895676639,,-2.9674556773488115e-161,-2.512179509695663e-164,5e-324,5e-324,-5e-324,0.0
1668680935.9035144,75267,1668680935,903325371,,-2.9674556773488115e-161,-2.512179509695663e-164,5e-324,5e-324,-5e-324,0.0
1668680935.9118073,75268,1668680935,911572394,,-1.570014945903357e-161,-1.3291384289648953e-164,5e-324,5e-324,-5e-324,0.0
1668680935.9198108,75269,1668680935,919550111,,-8.306600665261352e-162,-7.032176468811678e-165,5e-324,5e-324,-5e-324,0.0
1668680935.9277935,75270,1668680935,927574936,,-4.3948380741317884e-162,-3.7205685134708253e-165,5e-324,5e-324,-5e-324,0.0
1668680935.9354732,75271,1668680935,935270194,,-4.3948380741317884e-162,-3.7205685134708253e-165,5e-324,5e-324,-5e-324,0.0
1668680935.943858,75272,1668680935,943644839,,-2.3252112959532417e-162,-1.9684702346170903e-165,5e-324,5e-324,-5e-324,0.0
1668680935.951726,75273,1668680935,951484347,,-1.2302176962223216e-162,-1.0414739173714848e-165,5e-324,5e-324,-5e-324,0.0
1668680935.9603188,75274,1668680935,959791536,,-6.508808824094885e-163,-5.510207375709176e-166,5e-324,5e-324,-5e-324,0.0
1668680935.9677093,75275,1668680935,967476005,,-3.443666307085817e-163,-2.9153284414409205e-166,5e-324,5e-324,-5e-324,0.0
1668680935.9761944,75276,1668680935,975891724,,-1.82196742215841e-163,-1.542435582178155e-166,5e-324,5e-324,-5e-324,0.0
1668680935.984535,75277,1668680935,984191727,,-1.82196742215841e-163,-1.542435582178155e-166,5e-324,5e-324,-5e-324,0.0
1668680935.9918401,75278,1668680935,991617916,,-9.639625304507872e-164,-8.160684372129865e-167,5e-324,5e-324,-5e-324,0.0
1668680935.9998136,75279,1668680935,999582711,,-5.100111828631226e-164,-4.317637001571229e-167,5e-324,5e-324,-5e-324,0.0
1668680936.00778,75280,1668680936,7587944,,-2.698355988212561e-164,-2.2843659216869824e-167,5e-324,5e-324,-5e-324,0.0
1668680936.0153482,75281,1668680936,15168531,,-2.698355988212561e-164,-2.2843659216869824e-167,5e-324,5e-324,-5e-324,0.0
1668680936.0237112,75282,1668680936,23491693,,-1.4276402721696207e-164,-1.2086073151276537e-167,5e-324,5e-324,-5e-324,0.0
1668680936.0319467,75283,1668680936,31702942,,-7.55332786194256e-165,-6.394473093440911e-168,5e-324,5e-324,-5e-324,0.0
1668680936.040032,75284,1668680936,39766001,,-3.9962981503241888e-165,-3.3831738093047224e-168,5e-324,5e-324,-5e-324,0.0
1668680936.0477173,75285,1668680936,47448199,,-2.1143526665579263e-165,-1.7899621840157476e-168,5e-324,5e-324,-5e-324,0.0
1668680936.0555458,75286,1668680936,55321119,,-2.1143526665579263e-165,-1.7899621840157476e-168,5e-324,5e-324,-5e-324,0.0
1668680936.0637188,75287,1668680936,63497349,,-1.1186570747275095e-165,-9.470292692011804e-169,5e-324,5e-324,-5e-324,0.0
1668680936.0720987,75288,1668680936,71810861,,-5.918566333000269e-166,-5.0105217011435563e-169,5e-324,5e-324,-5e-324,0.0
1668680936.079916,75289,1668680936,79645269,,-3.1313821035509896e-166,-2.650955839918957e-169,5e-324,5e-324,-5e-324,0.0
1668680936.0877628,75290,1668680936,87535679,,-1.6567447801955682e-166,-1.4025619055988752e-169,5e-324,5e-324,-5e-324,0.0
1668680936.0956008,75291,1668680936,95334390,,-1.6567447801955682e-166,-1.4025619055988752e-169,5e-324,5e-324,-5e-324,0.0
1668680936.1040258,75292,1668680936,103717897,,-8.765468971648821e-167,-7.420643789740712e-170,5e-324,5e-324,-5e-324,0.0
1668680936.1119676,75293,1668680936,111556108,,-4.637615111958798e-167,-3.9260979522115975e-170,5e-324,5e-324,-5e-324,0.0
1668680936.1202297,75294,1668680936,119931705,,-2.4536592390244885e-167,-2.0772112996005558e-170,5e-324,5e-324,-5e-324,0.0
1668680936.1280816,75295,1668680936,127619887,,-1.2981766524189556e-167,-1.0990064017016361e-170,5e-324,5e-324,-5e-324,0.0
1668680936.1364803,75296,1668680936,136221205,,-6.8683645800616665e-168,-5.81459898284512e-171,5e-324,5e-324,-5e-324,0.0
1668680936.1440427,75297,1668680936,143732846,,-6.8683645800616665e-168,-5.81459898284512e-171,5e-324,5e-324,-5e-324,0.0
1668680936.1525297,75298,1668680936,152270695,,-3.6338992784027708e-168,-3.076375285799499e-171,5e-324,5e-324,-5e-324,0.0
1668680936.1607025,75299,1668680936,160441381,,-1.922615465683043e-168,-1.6276418936198266e-171,5e-324,5e-324,-5e-324,0.0
1668680936.1686842,75300,1668680936,168482323,,-1.0172131767252357e-168,-8.611492057211243e-172,5e-324,5e-324,-5e-324,0.0
1668680936.1759663,75301,1668680936,175734788,,-1.0172131767252357e-168,-8.611492057211243e-172,5e-324,5e-324,-5e-324,0.0
1668680936.1843498,75302,1668680936,184132570,,-0.03513243509512217,-4.5561493435443354e-172,5e-324,5e-324,-5e-324,0.0
1668680936.1925833,75303,1668680936,192297936,,-0.05372907180871691,-2.410557508822918e-172,5e-324,5e-324,-5e-324,0.0
1668680936.2000432,75304,1668680936,199792656,,-0.07824139297333682,-1.2753724834713615e-172,5e-324,5e-324,-5e-324,0.0
1668680936.2077558,75305,1668680936,207563754,,-0.04139578471014763,-6.747712782800065e-173,5e-324,5e-324,-5e-324,0.0
1668680936.2156935,75306,1668680936,215471816,,-0.02190159104596794,-3.570065089944039e-173,5e-324,5e-324,-5e-324,0.0
1668680936.2235157,75307,1668680936,223285841,,-0.02190159104596794,-3.570065089944039e-173,5e-324,5e-324,-5e-324,0.0
1668680936.2319117,75308,1668680936,231747048,,-0.011587645788176974,-1.8888422131607476e-173,5e-324,5e-324,-5e-324,0.0
1668680936.2397335,75309,1668680936,239529933,,-0.006130766236591528,-9.99344498302667e-174,5e-324,5e-324,-5e-324,0.0
1668680936.247938,75310,1668680936,247723343,,-0.0032436523634576777,-5.287309968663946e-174,5e-324,5e-324,-5e-324,0.0
1668680936.2557158,75311,1668680936,255477992,,-0.0032436523634576777,-5.287309968663946e-174,5e-324,5e-324,-5e-324,0.0
1668680936.2645473,75312,1668680936,264279672,,-0.0017161444832406478,-2.7973983698528686e-174,5e-324,5e-324,-5e-324,0.0
1668680936.2720916,75313,1668680936,271847153,,-0.0009079739618637272,-1.4800413983734914e-174,5e-324,5e-324,-5e-324,0.0
1668680936.280944,75314,1668680936,280241776,,-0.0004803888737070331,-7.830570591969609e-175,5e-324,5e-324,-5e-324,0.0
1668680936.288009,75315,1668680936,287768824,,-0.00025416309241712296,-4.1429811262850634e-175,5e-324,5e-324,-5e-324,0.0
1668680936.295587,75316,1668680936,295356913,,-0.00025416309241712296,-4.1429811262850634e-175,5e-324,5e-324,-5e-324,0.0
1668680936.3037436,75317,1668680936,303572022,,-0.00013447205187860128,-2.191959373989495e-175,5e-324,5e-324,-5e-324,0.0
1668680936.3118153,75318,1668680936,311611931,,-7.114617848119556e-05,-1.1597170614022792e-175,5e-324,5e-324,-5e-324,0.0
1668680936.3199854,75319,1668680936,319779779,,-3.764186417745606e-05,-6.135805610574165e-176,5e-324,5e-324,-5e-324,0.0
1668680936.327941,75320,1668680936,327730917,,-1.9915474998120235e-05,-3.246318584399453e-176,5e-324,5e-324,-5e-324,0.0
1668680936.3359065,75321,1668680936,335650660,,-1.9915474998120235e-05,-3.246318584399453e-176,5e-324,5e-324,-5e-324,0.0
1668680936.3437543,75322,1668680936,343549988,,-1.0536835862616334e-05,-1.7175551215728795e-176,5e-324,5e-324,-5e-324,0.0
1668680936.3522851,75323,1668680936,351940281,,-5.574806024269922e-06,-9.087202993008028e-177,5e-324,5e-324,-5e-324,0.0
1668680936.359755,75324,1668680936,359544468,,-2.9495061528384976e-06,-4.807837442824692e-177,5e-324,5e-324,-5e-324,0.0
1668680936.3677037,75325,1668680936,367464143,,-1.5605182508159922e-06,-2.5437200967572413e-177,5e-324,5e-324,-5e-324,0.0
1668680936.3755014,75326,1668680936,375276365,,-1.5605182508159922e-06,-2.5437200967572413e-177,5e-324,5e-324,-5e-324,0.0
1668680936.383646,75327,1668680936,383450863,,-8.256355759035252e-07,-1.345825853638913e-177,5e-324,5e-324,-5e-324,0.0
1668680936.3918908,75328,1668680936,391681734,,-4.3682546092690654e-07,-7.120465929533299e-178,5e-324,5e-324,-5e-324,0.0
1668680936.3998165,75329,1668680936,399599269,,-2.3111465746275095e-07,-3.7672805078425607e-178,5e-324,5e-324,-5e-324,0.0
1668680936.4078183,75330,1668680936,407580104,,-1.2227763642894067e-07,-1.9931845142191028e-178,5e-324,5e-324,-5e-324,0.0
1668680936.4160378,75331,1668680936,415788301,,-1.2227763642894067e-07,-1.9931845142191028e-178,5e-324,5e-324,-5e-324,0.0
1668680936.4242618,75332,1668680936,423977825,,-6.469438388198291e-08,-1.0545496942562336e-178,5e-324,5e-324,-5e-324,0.0
1668680936.4327805,75333,1668680936,432364338,,-3.422836283151102e-08,-5.5793884094649843e-179,5e-324,5e-324,-5e-324,0.0
1668680936.4399486,75334,1668680936,439718381,,-1.8109467187488665e-08,-2.9519305911541398e-179,5e-324,5e-324,-5e-324,0.0
1668680936.447611,75335,1668680936,447419154,,-9.581317208452972e-09,-1.5618009673263125e-179,5e-324,5e-324,-5e-324,0.0
1668680936.4555569,75336,1668680936,455321451,,-9.581317208452972e-09,-1.5618009673263125e-179,5e-324,5e-324,-5e-324,0.0
1668680936.4637706,75337,1668680936,463567300,,-5.069262308966235e-09,-8.263142327434343e-180,5e-324,5e-324,-5e-324,0.0
1668680936.4718614,75338,1668680936,471575365,,-2.6820341919620947e-09,-4.371845232003315e-180,5e-324,5e-324,-5e-324,0.0
1668680936.4798057,75339,1668680936,479567097,,-1.4190047719824315e-09,-2.313046293434063e-180,5e-324,5e-324,-5e-324,0.0
1668680936.4877462,75340,1668680936,487570729,,-7.507639346819223e-10,-1.2237814633519029e-180,5e-324,5e-324,-5e-324,0.0
1668680936.4954534,75341,1668680936,495242044,,-7.507639346819223e-10,-1.2237814633519029e-180,5e-324,5e-324,-5e-324,0.0
1668680936.5039034,75342,1668680936,503668898,,-3.9721253708797265e-10,-6.474756144289066e-181,5e-324,5e-324,-5e-324,0.0
1668680936.511888,75343,1668680936,511644244,,-2.101563385389711e-10,-3.4256497898885116e-181,5e-324,5e-324,-5e-324,0.0
1668680936.5199118,75344,1668680936,519634695,,-1.1118905498777102e-10,-1.8124352827270417e-181,5e-324,5e-324,-5e-324,0.0
1668680936.5278063,75345,1668680936,527545399,,-5.88276615162906e-11,-9.589192870123365e-182,5e-324,5e-324,-5e-324,0.0
1668680936.5354936,75346,1668680936,535277676,,-5.88276615162906e-11,-9.589192870123365e-182,5e-324,5e-324,-5e-324,0.0
1668680936.5437503,75347,1668680936,543542859,,-3.112441022055523e-11,-5.073429146781464e-182,5e-324,5e-324,-5e-324,0.0
1668680936.552023,75348,1668680936,551777293,,-1.646723474311726e-11,-2.6842387733807836e-182,5e-324,5e-324,-5e-324,0.0
1668680936.5597968,75349,1668680936,559578871,,-8.712448466118784e-12,-1.4201711670875793e-182,5e-324,5e-324,-5e-324,0.0
1668680936.5678074,75350,1668680936,567578308,,-4.609563139099718e-12,-7.513810484477282e-183,5e-324,5e-324,-5e-324,0.0
1668680936.5757253,75351,1668680936,575504644,,-4.609563139099718e-12,-7.513810484477282e-183,5e-324,5e-324,-5e-324,0.0
1668680936.5844162,75352,1668680936,584061818,,-2.4388175627066208e-12,-3.975390382866371e-183,5e-324,5e-324,-5e-324,0.0
1668680936.5923162,75353,1668680936,591965225,,-1.290324250841679e-12,-2.1032908307755727e-183,5e-324,5e-324,-5e-324,0.0
1668680936.6005297,75354,1668680936,600125796,,-6.826819265900231e-13,-1.1128045028963641e-183,5e-324,5e-324,-5e-324,0.0
1668680936.6080143,75355,1668680936,607779637,,-3.611918574642444e-13,-5.887601674228751e-184,5e-324,5e-324,-5e-324,0.0
1668680936.6157932,75356,1668680936,615563190,,-1.9109859631133469e-13,-3.1149993897543963e-184,5e-324,5e-324,-5e-324,0.0
1668680936.6234722,75357,1668680936,623247549,,-1.9109859631133469e-13,-3.1149993897543963e-184,5e-324,5e-324,-5e-324,0.0
1668680936.6331978,75358,1668680936,631628263,,-1.0110602649944168e-13,-1.648077049886589e-184,5e-324,5e-324,-5e-324,0.0
1668680936.6397097,75359,1668680936,639504732,,-5.349295490298417e-14,-8.719609934103516e-185,5e-324,5e-324,-5e-324,0.0
1668680936.6478994,75360,1668680936,647690413,,-2.830193533783567e-14,-4.61335211288506e-185,5e-324,5e-324,-5e-324,0.0
1668680936.6555855,75361,1668680936,655356971,,-2.830193533783567e-14,-4.61335211288506e-185,5e-324,5e-324,-5e-324,0.0
1668680936.664042,75362,1668680936,663837163,,-1.4973925918277265e-14,-2.4408222246525536e-185,5e-324,5e-324,-5e-324,0.0
1668680936.6740901,75363,1668680936,671666370,,-7.922371906005571e-15,-1.291384872990351e-185,5e-324,5e-324,-5e-324,0.0
1668680936.6800573,75364,1668680936,679849348,,-4.1915511643113085e-15,-6.832430782318426e-186,5e-324,5e-324,-5e-324,0.0
1668680936.6877716,75365,1668680936,687516423,,-2.217656703255901e-15,-3.614887503450041e-186,5e-324,5e-324,-5e-324,0.0
1668680936.69552,75366,1668680936,695221659,,-2.217656703255901e-15,-3.614887503450041e-186,5e-324,5e-324,-5e-324,0.0
1668680936.703891,75367,1668680936,703654555,,-1.1733129480488837e-15,-1.9125567574597733e-186,5e-324,5e-324,-5e-324,0.0
1668680936.7122986,75368,1668680936,711943901,,-6.207738429658586e-16,-1.0118913374244636e-186,5e-324,5e-324,-5e-324,0.0
1668680936.720135,75369,1668680936,719915383,,-3.2843766426631577e-16,-5.353692510096426e-187,5e-324,5e-324,-5e-324,0.0
1668680936.7278938,75370,1668680936,727678442,,-1.7376907956259663e-16,-2.832519899381207e-187,5e-324,5e-324,-5e-324,0.0
1668680936.7357824,75371,1668680936,735348349,,-1.7376907956259663e-16,-2.832519899381207e-187,5e-324,5e-324,-5e-324,0.0
1668680936.7446594,75372,1668680936,744033355,,-9.193736375968034e-17,-1.4986234202393553e-187,5e-324,5e-324,-5e-324,0.0
1668680936.7543917,75373,1668680936,751567478,,-4.864201891588519e-17,-7.928883945989353e-188,5e-324,5e-324,-5e-324,0.0
1668680936.7597845,75374,1668680936,759557711,,-2.573541275773426e-17,-4.19499654015328e-188,5e-324,5e-324,-5e-324,0.0
1668680936.7676547,75375,1668680936,767430494,,-1.3616035776727556e-17,-2.21947957515503e-188,5e-324,5e-324,-5e-324,0.0
1668680936.7757573,75376,1668680936,775557923,,-7.203942366046086e-18,-1.1742773891180276e-188,5e-324,5e-324,-5e-324,0.0
1668680936.783543,75377,1668680936,783330824,,-7.203942366046086e-18,-1.1742773891180276e-188,5e-324,5e-324,-5e-324,0.0
1668680936.7918353,75378,1668680936,791618136,,-3.811446037914747e-18,-6.212841073329247e-189,5e-324,5e-324,-5e-324,0.0
1668680936.7998862,75379,1668680936,799641901,,-2.0165515160706777e-18,-3.2870763381928022e-189,5e-324,5e-324,-5e-324,0.0
1668680936.807934,75380,1668680936,807701845,,-1.066912656381653e-18,-1.7391191446197809e-189,5e-324,5e-324,-5e-324,0.0
1668680936.8155978,75381,1668680936,815362332,,-1.066912656381653e-18,-1.7391191446197809e-189,5e-324,5e-324,-5e-324,0.0
1668680936.8246794,75382,1668680936,823621005,,-5.644798098515124e-19,-9.201293453518923e-190,5e-324,5e-324,-5e-324,0.0
1668680936.8319376,75383,1668680936,831674666,,-2.9865374060762614e-19,-4.868200173616052e-190,5e-324,5e-324,-5e-324,0.0
1668680936.839979,75384,1668680936,839739187,,-1.5801106651164357e-19,-2.5756566780653896e-190,5e-324,5e-324,-5e-324,0.0
1668680936.8479915,75385,1668680936,847711258,,-8.360014875202773e-20,-1.3627227900809922e-190,5e-324,5e-324,-5e-324,0.0
1668680936.8560846,75386,1668680936,855823376,,-4.423098347257948e-20,-7.209863870525445e-191,5e-324,5e-324,-5e-324,0.0
1668680936.863585,75387,1668680936,863357719,,-4.423098347257948e-20,-7.209863870525445e-191,5e-324,5e-324,-5e-324,0.0
1668680936.872114,75388,1668680936,871910767,,-2.3401631793198776e-20,-3.8145789745263335e-191,5e-324,5e-324,-5e-324,0.0
1668680936.8800101,75389,1668680936,879752601,,-1.2381284059034161e-20,-2.018209083306578e-191,5e-324,5e-324,-5e-324,0.0
1668680936.8877287,75390,1668680936,887536821,,-6.550662633494043e-21,-1.0677896384218795e-191,5e-324,5e-324,-5e-324,0.0
1668680936.8956337,75391,1668680936,895414820,,-6.550662633494043e-21,-1.0677896384218795e-191,5e-324,5e-324,-5e-324,0.0
1668680936.9038198,75392,1668680936,903569520,,-3.4658102288303795e-21,-5.649438015872456e-192,5e-324,5e-324,-5e-324,0.0
1668680936.9117193,75393,1668680936,911513187,,-1.8336832797414753e-21,-2.9889922833822224e-192,5e-324,5e-324,-5e-324,0.0
1668680936.919825,75394,1668680936,919593214,,-9.701611307028123e-22,-1.5814094862210399e-192,5e-324,5e-324,-5e-324,0.0
1668680936.9276788,75395,1668680936,927491058,,-5.132907246987919e-22,-8.366886649436331e-193,5e-324,5e-324,-5e-324,0.0
1668680936.9356406,75396,1668680936,935370116,,-5.132907246987919e-22,-8.366886649436331e-193,5e-324,5e-324,-5e-324,0.0
1668680936.9440994,75397,1668680936,943849544,,-2.715707316277943e-22,-4.42673405050835e-193,5e-324,5e-324,-5e-324,0.0
1668680936.952224,75398,1668680936,951864860,,-1.4368204747929878e-22,-2.342086749227112e-193,5e-324,5e-324,-5e-324,0.0
1668680936.9597955,75399,1668680936,959583800,,-7.601898276776808e-23,-1.2391461240539854e-193,5e-324,5e-324,-5e-324,0.0
1668680936.967912,75400,1668680936,967688415,,-4.0219956789513474e-23,-6.556047154379419e-194,5e-324,5e-324,-5e-324,0.0
1668680936.975553,75401,1668680936,975362910,,-4.0219956789513474e-23,-6.556047154379419e-194,5e-324,5e-324,-5e-324,0.0
1668680936.9840991,75402,1668680936,983868184,,-2.1279486586818808e-23,-3.468659059338986e-194,5e-324,5e-324,-5e-324,0.0
1668680936.9918542,75403,1668680936,991621978,,-1.1258504124416766e-23,-1.835190532743095e-194,5e-324,5e-324,-5e-324,0.0
1668680936.9999595,75404,1668680936,999729413,,-5.956624686519681e-24,-9.709585848174143e-195,5e-324,5e-324,-5e-324,0.0
1668680937.0077622,75405,1668680937,7565106,,-3.151517933817319e-24,-5.137126399739396e-195,5e-324,5e-324,-5e-324,0.0
1668680937.0156581,75406,1668680937,15435230,,-3.151517933817319e-24,-5.137126399739396e-195,5e-324,5e-324,-5e-324,0.0
1668680937.0241354,75407,1668680937,23901791,,-1.6673982011405287e-24,-2.7179395763684414e-195,5e-324,5e-324,-5e-324,0.0
1668680937.0322623,75408,1668680937,31982986,,-8.821833857689953e-25,-1.438001514069152e-195,0.08053739664553047,5e-324,-5e-324,0.0
1668680937.040381,75409,1668680937,40170199,,-4.667436522328701e-25,-7.608146893493919e-196,0.2687693716728165,5e-324,-5e-324,0.0
1668680937.0478659,75410,1668680937,47627791,,-2.46943708546245e-25,-4.025301683388742e-196,0.36834014230300616,5e-324,-5e-324,0.0
1668680937.0556765,75411,1668680937,55487743,,-0.35291417925480706,-1.3736110603506544,0.7086511399419182,5e-324,-5e-324,0.0
1668680937.0635269,75412,1668680937,63354357,,-0.35291417925480706,-1.3736110603506544,0.7086511399419182,5e-324,-5e-324,0.0
1668680937.0718546,75413,1668680937,71614892,,-0.5395504510017227,-2.1004803749725243,0.8885424987752603,5e-324,-5e-324,0.0
1668680937.079689,75414,1668680937,79441785,,-0.8119823249949314,-2.7971359983631023,1.1750973764773534,5e-324,-5e-324,0.0
1668680937.0879285,75415,1668680937,87731531,,-0.7728174839733326,-3.439186336858235,1.5053689804171655,5e-324,-5e-324,0.0
1668680937.0955641,75416,1668680937,95374423,,-0.7728174839733326,-3.439186336858235,1.5053689804171655,5e-324,-5e-324,0.0
1668680937.1037936,75417,1668680937,103590529,,-0.7520055414704505,-3.778894205548694,1.6801390328518662,5e-324,-5e-324,0.0
1668680937.1117163,75418,1668680937,111504925,,-0.4767946142750612,-3.6060196149841914,1.8057575676396138,5e-324,-5e-324,0.0
1668680937.1198826,75419,1668680937,119678358,,-0.2738019896482733,-3.2881214650124866,1.8532868883629767,5e-324,-5e-324,0.0
1668680937.1279585,75420,1668680937,127698834,,-0.16637147829905383,-3.119974927556904,1.8783823292709734,5e-324,-5e-324,0.0
1668680937.1359737,75421,1668680937,135775452,,0.5168347086761991,-1.6507094965220932,1.5741156122934559,5e-324,-5e-324,0.0
1668680937.1434443,75422,1668680937,143212407,,0.5168347086761991,-1.6507094965220932,1.5741156122934559,5e-324,-5e-324,0.0
1668680937.1519065,75423,1668680937,151653277,,0.8783537567448343,-0.8733537625066459,1.4130607899298755,5e-324,-5e-324,0.0
1668680937.1598122,75424,1668680937,159606668,,0.46471748050228845,-0.634399319711763,1.474420330874742,5e-324,-5e-324,0.0
1668680937.1680968,75425,1668680937,167742853,,0.2458717060478548,-1.9150065878274414,0.7922705191628647,5e-324,-5e-324,0.0
1668680937.1762867,75426,1668680937,175892275,,0.1300852633508479,-2.5925391654162473,0.4314500053378832,5e-324,-5e-324,0.0
1668680937.1841545,75427,1668680937,183860246,,0.1300852633508479,-2.5925391654162473,0.4314500053378832,5e-324,-5e-324,0.0
1668680937.1921387,75428,1668680937,191915411,,0.06882522602159777,-3.97771477395309,-0.06567735227305749,5e-324,-5e-324,0.0
1668680937.1997845,75429,1668680937,199533714,,0.03641389973703845,-5.02804121700483,-0.8265567836746149,5e-324,-0.027659003373983877,0.0
1668680937.20778,75430,1668680937,207599119,,0.019265786263353367,-5.583696049183349,-1.2293415126342466,5e-324,-0.0422896862826839,0.0
1668680937.2158227,75431,1668680937,215558644,,0.01019309997076964,-6.173972118053989,-1.832141237585647,5e-324,-0.09245615745735818,0.0
1668680937.2236571,75432,1668680937,223369390,,0.01019309997076964,-6.173972118053989,-1.832141237585647,5e-324,-0.09245615745735818,0.0
1668680937.2319307,75433,1668680937,231644078,,0.005392942991988718,-6.486176998482187,-2.1512504170642046,5e-324,-0.11899656801692188,0.0
1668680937.23974,75434,1668680937,239501897,,0.04645871334588468,-6.552817831259098,-2.365194787925235,5e-324,-0.11898147878081042,0.0
1668680937.2476625,75435,1668680937,247431173,,0.31205341228332695,-6.286762662175744,-2.1654344820346356,5e-324,-0.0827739575910244,0.0
1668680937.2556193,75436,1668680937,255394885,,0.31205341228332695,-6.286762662175744,-2.1654344820346356,5e-324,-0.0827739575910244,0.0
1668680937.2637026,75437,1668680937,263504900,,0.45239063382035805,-6.1459582767769305,-2.059942167696218,5e-324,-0.06361699716158069,0.0
1668680937.2718475,75438,1668680937,271605063,,0.771191896903783,-5.780541150650176,-1.7527233563548315,5e-324,-0.03365834142682385,0.0
1668680937.2799091,75439,1668680937,279694722,,1.1062525176208302,-5.509808226963139,-1.7059133097402868,5e-324,-0.017807881512031082,0.0
1668680937.2879167,75440,1668680937,287657173,,1.283302163269993,-5.366625878489416,-1.6812242623115663,5e-324,-0.009421754920276929,0.0
1668680937.2957666,75441,1668680937,295582729,,1.4407727888775086,-5.7519898019064675,-2.097052311688903,5e-324,-0.06133824659545626,0.0
1668680937.3036942,75442,1668680937,303500503,,1.4407727888775086,-5.7519898019064675,-2.097052311688903,5e-324,-0.06133824659545626,0.0
1668680937.3150287,75443,1668680937,314653815,,1.5239795006157093,-5.955841016731087,-2.317209792065267,5e-324,-0.08880780503252808,0.0
1668680937.3201952,75444,1668680937,319918415,,1.587652998148005,-6.451294516962074,-2.600394886746968,5e-324,-0.16556712929558162,0.0
1668680937.3279428,75445,1668680937,327644596,,0.8655857801766166,-6.491158956657248,-1.3758112273107117,5e-324,-0.1210643104228768,0.0
1668680937.3356173,75446,1668680937,335479796,,0.483385909552418,-6.512272879560094,-0.7279111887356944,5e-324,-0.09751772983392211,0.0
1668680937.3433166,75447,1668680937,343156809,,0.483385909552418,-6.512272879560094,-0.7279111887356944,5e-324,-0.09751772983392211,0.0
1668680937.3518803,75448,1668680937,351695085,,0.2557487575734991,-6.4009221459545405,0.054404658838580366,5e-324,-0.05159446676777665,0.0
1668680937.3598213,75449,1668680937,359539092,,0.13531099212418327,-6.378127875718168,0.4645844274533849,5e-324,-0.027297487396237777,0.0
1668680937.367852,75450,1668680937,367664730,,0.07159004314759568,-6.366155982451177,0.6812968689393254,5e-324,-0.014442494802817613,0.0
1668680937.3757102,75451,1668680937,375526717,,0.037876703122322525,-6.495501629928933,0.8601302795925798,5e-324,-0.03490681339987663,0.0
1668680937.3837538,75452,1668680937,383449859,,0.037876703122322525,-6.495501629928933,0.8601302795925798,5e-324,-0.03490681339987663,0.0
1668680937.3917806,75453,1668680937,391500712,,0.020039723072366088,-6.564102920987587,0.954082053342831,5e-324,-0.0457316941980814,0.0
1668680937.3998253,75454,1668680937,399599238,,0.010602572761419817,-6.522738829566509,1.0067157764729027,5e-324,-0.04596168270835339,0.0
1668680937.4078426,75455,1668680937,407611064,,0.005609585958611187,-6.328165137366265,1.0444104367434703,5e-324,-0.02895901666388062,0.0
1668680937.415466,75456,1668680937,415230997,,0.005609585958611187,-6.328165137366265,1.0444104367434703,5e-324,-0.02895901666388062,0.0
1668680937.4241629,75457,1668680937,423924093,,0.00296790744427147,-6.225185543625587,1.0645411465588408,5e-324,-0.019961796273778372,0.0
1668680937.4317932,75458,1668680937,431580674,,0.4960833579913587,-6.497554282136145,0.5632250966321735,5e-324,-0.10429880776618286,0.0
1668680937.4398386,75459,1668680937,439611236,,0.9220985559970127,-6.736308951464293,-0.25539303770177557,5e-324,-0.17598973530737055,0.0
1668680937.4485445,75460,1668680937,448292177,,1.1475600830696409,-6.862732614974366,-0.6880501602762493,5e-324,-0.21392411077350454,0.0
1668680937.4592156,75461,1668680937,458881354,,1.372529236093122,-6.9188991023351445,-1.1631996898889532,5e-324,-0.23663348990384853,0.0
1668680937.4638627,75462,1668680937,463517080,,1.372529236093122,-6.9188991023351445,-1.1631996898889532,5e-324,-0.23663348990384853,0.0
1668680937.4719558,75463,1668680937,471725413,,1.4911634381027756,-6.948900663425368,-1.4141283159701787,5e-324,-0.24866098453582225,0.0
1668680937.4799352,75464,1668680937,479687393,,1.4172444235882602,-7.007646215758703,-1.1777470796599814,5e-324,-0.25455813014449763,0.0
1668680937.4877083,75465,1668680937,487440426,,1.5384664111542206,-7.29839854016185,-1.4298097418544369,5e-324,-0.31058084078071113,0.0
1668680937.4954486,75466,1668680937,495215591,,1.5384664111542206,-7.29839854016185,-1.4298097418544369,5e-324,-0.31058084078071113,0.0
1668680937.5038989,75467,1668680937,503649322,,1.6026013801168888,-7.452239419393515,-1.5631387129543426,5e-324,-0.34022199500147887,0.0
1668680937.5118127,75468,1668680937,511616797,,1.9017799294741637,-7.72974952460333,-2.244213318258305,5e-324,-0.4012476578246295,0.0
1668680937.5198042,75469,1668680937,519611309,,2.016988630171869,-7.850812815753603,-2.566405106648779,5e-324,-0.4253930021915405,0.0
1668680937.5277274,75470,1668680937,527518955,,2.078157288353125,-7.914478579541889,-2.737581158252996,5e-324,-0.43816053472011374,0.0
1668680937.5354471,75471,1668680937,535209115,,2.078157288353125,-7.914478579541889,-2.737581158252996,5e-324,-0.43816053472011374,0.0
1668680937.5438807,75472,1668680937,543652895,,2.0547482192149094,-8.030003914873141,-2.7782755033432203,5e-324,-0.45844995841924563,0.0
1668680937.5517714,75473,1668680937,551561273,,2.0421136005593548,-8.091062541105238,-2.8001549820025917,5e-324,-0.4691908164886871,0.0
1668680937.5598416,75474,1668680937,559573616,,2.2016176873128166,-8.016326862013186,-2.8812029955486134,5e-324,-0.46764427299539457,0.0
1668680937.5681565,75475,1668680937,567900562,,2.3454657168888335,-7.881894519417987,-2.8037757465153392,5e-324,-0.46018034660489193,0.0
1668680937.5755253,75476,1668680937,575320301,,2.3454657168888335,-7.881894519417987,-2.8037757465153392,5e-324,-0.46018034660489193,0.0
1668680937.5838008,75477,1668680937,583552964,,2.421988439233404,-7.810598112093274,-2.7628204388548427,5e-324,-0.45621817782406343,0.0
1668680937.5918472,75478,1668680937,591602871,,2.5161979833801515,-7.907225104466734,-2.800935463888387,5e-324,-0.4707694618820333,0.0
1668680937.5997524,75479,1668680937,599503075,,2.6022323461228556,-8.022904252739439,-2.7868800411658805,5e-324,-0.48663555514492945,0.0
1668680937.6087415,75480,1668680937,608376832,,2.6482281276667665,-8.083794159363983,-2.779736303807822,5e-324,-0.49501201664888966,0.0
1668680937.6163507,75481,1668680937,616056495,,2.178372023807056,-8.126282152982693,-1.6564491980151834,5e-324,-0.47911168283531885,0.0
1668680937.6234968,75482,1668680937,623273286,,2.178372023807056,-8.126282152982693,-1.6564491980151834,5e-324,-0.47911168283531885,0.0
1668680937.6316655,75483,1668680937,631427199,,1.9295570004568705,-8.148825579358856,-1.0621488888651718,5e-324,-0.4707028545338646,0.0
1668680937.639892,75484,1668680937,639677486,,1.414644743130715,-8.010882223236983,-0.5619594061747955,5e-324,-0.417549556181024,0.0
1668680937.6478293,75485,1668680937,647619898,,0.9339288427036821,-7.801870348991274,-0.135936445125882,5e-324,-0.3555319859707143,0.0
1668680937.6557992,75486,1668680937,655556516,,0.6798043616103012,-7.691241378397965,0.08953295342357111,5e-324,-0.3227235599296945,0.0
1668680937.6636732,75487,1668680937,663446042,,0.6798043616103012,-7.691241378397965,0.08953295342357111,5e-324,-0.3227235599296945,0.0
1668680937.6721392,75488,1668680937,671923485,,0.9185390157053601,-7.849631063817041,0.04736989876508023,5e-324,-0.3624980598336954,0.0
1668680937.680397,75489,1668680937,680190947,,1.6625143134792408,-7.935610652648289,-0.6355202384541351,5e-324,-0.4230529068765834,0.0
1668680937.6883922,75490,1668680937,688172030,,2.0561798905989557,-7.981128446305109,-0.9966521913731504,5e-324,-0.45508984576975947,0.0
1668680937.6955307,75491,1668680937,695300852,,2.0561798905989557,-7.981128446305109,-0.9966521913731504,5e-324,-0.45508984576975947,0.0
1668680937.7038064,75492,1668680937,703585689,,2.0223071027611876,-8.09000372673672,-0.7087751672612997,5e-324,-0.47044533174602454,0.0
1668680937.7125154,75493,1668680937,712249868,,2.004615615012578,-8.147489412644248,-0.5567539784194104,5e-324,-0.47856189701765545,0.0
1668680937.7204838,75494,1668680937,720246499,,1.7005346278974844,-7.923238549909691,-0.29456617464648366,5e-324,-0.42341045273000544,0.0
1668680937.728621,75495,1668680937,728295570,,1.4702109469565459,-7.788698998479676,-0.04282573967472815,5e-324,-0.38918342351523605,0.0
1668680937.735633,75496,1668680937,735427233,,1.4702109469565459,-7.788698998479676,-0.04282573967472815,5e-324,-0.38918342351523605,0.0
1668680937.7440946,75497,1668680937,743616378,,1.348559242182323,-7.717467462946775,0.09034035107689081,5e-324,-0.3710742377229189,0.0
1668680937.7521355,75498,1668680937,751890083,,1.2160972690805365,-7.580854748677811,0.49407691765596784,5e-324,-0.3426278473858996,0.0
1668680937.7604556,75499,1668680937,760183710,,0.7804445053963414,-7.635390559151379,1.4666019164983193,5e-324,-0.32635384708968,0.0
1668680937.7682981,75500,1668680937,768025687,,0.5499326666392278,-7.664122576203111,1.9814469639421621,5e-324,-0.3177455695291902,0.0
1668680937.7755148,75501,1668680937,775273084,,0.5499326666392278,-7.664122576203111,1.9814469639421621,5e-324,-0.3177455695291902,0.0
1668680937.7838266,75502,1668680937,783644965,,0.33916143816230104,-7.7068884570574685,2.4480129745650823,5e-324,-0.31032170922499613,0.0
1668680937.791715,75503,1668680937,791505890,,0.2276503098808256,-7.729866210508128,2.6940873719962566,5e-324,-0.306389991746681,0.0
1668680937.7998998,75504,1668680937,799662201,,0.26010629251861184,-7.696440677712678,2.7989999437473614,5e-324,-0.3015584639097856,0.0
1668680937.807829,75505,1668680937,807609520,,0.484464043886746,-7.541260857870986,2.723099011573721,5e-324,-0.2876402977888025,0.0
1668680937.815884,75506,1668680937,815687081,,0.6033434915043272,-7.459289994336167,2.6825550187843907,5e-324,-0.280274537830968,0.0
1668680937.8233647,75507,1668680937,823186603,,0.6033434915043272,-7.459289994336167,2.6825550187843907,5e-324,-0.280274537830968,0.0
1668680937.8322573,75508,1668680937,831975040,,0.762048678496224,-7.340279609535958,2.6588672627383234,5e-324,-0.2642043437730659,0.0
1668680937.83987,75509,1668680937,839596692,,0.8119119126350498,-7.3985030550925615,2.6676860295059948,5e-324,-0.2734341432981627,0.0
1668680937.8478727,75510,1668680937,847568092,,0.8382462533295593,-7.429362254615418,2.6722504538534384,5e-324,-0.27831566078663106,0.0
1668680937.8557281,75511,1668680937,855489836,,0.8382462533295593,-7.429362254615418,2.6722504538534384,5e-324,-0.27831566078663106,0.0
1668680937.8639214,75512,1668680937,863675604,,0.9382155633464102,-7.419605221019253,2.6875269975564473,5e-324,-0.2797522972425479,0.0
1668680937.8717854,75513,1668680937,871565656,,0.9916014479058329,-7.4144325385351735,2.6953594985287577,5e-324,-0.280516126986815,0.0
1668680937.8799548,75514,1668680937,879700010,,1.0005688276046376,-7.409967332614244,2.732536151467266,5e-324,-0.28317838674467866,0.0
1668680937.8878267,75515,1668680937,887623461,,0.9872082125829404,-7.431979392715756,2.9266878324952845,5e-324,-0.2857880336066829,0.0
1668680937.896288,75516,1668680937,895714654,,0.9802796603255078,-7.44335812803223,3.0298878525125437,5e-324,-0.28717702749694446,0.0
1668680937.9040875,75517,1668680937,903827301,,0.9802796603255078,-7.44335812803223,3.0298878525125437,5e-324,-0.28717702749694446,0.0
1668680937.911775,75518,1668680937,911526775,,0.9390116638299704,-7.604973908165354,3.0970898868505303,5e-324,-0.3137051162387646,0.0
1668680937.9198952,75519,1668680937,919642143,,1.2154946946396386,-7.548557802552832,3.071659860721109,5e-324,-0.31804932520687995,0.0
1668680937.9280615,75520,1668680937,927790977,,1.3614463870586668,-7.518550861162871,3.0587435596370662,5e-324,-0.3203517929281626,0.0
1668680937.9355729,75521,1668680937,935355030,,1.3614463870586668,-7.518550861162871,3.0587435596370662,5e-324,-0.3203517929281626,0.0
1668680937.944005,75522,1668680937,943749614,,1.4753660872307068,-7.52100597157775,2.9767712443417707,5e-324,-0.3334551250054709,0.0
1668680937.9519625,75523,1668680937,951719561,,1.5353372715161269,-7.522367334590468,2.933466378279669,5e-324,-0.3403863257289481,0.0
1668680937.9605775,75524,1668680937,960318253,,1.6228411092758384,-7.464956959546356,2.8947111040814764,5e-324,-0.3414949865708952,0.0
1668680937.9689589,75525,1668680937,968622425,,1.9032774274930093,-7.350755582659705,2.9320742254506635,5e-324,-0.34720293669385593,0.0
1668680937.9759672,75526,1668680937,975742776,,2.0516278897730142,-7.290382973674699,2.9517591959562743,5e-324,-0.3502214970421412,0.0
1668680937.9835343,75527,1668680937,983335545,,2.0516278897730142,-7.290382973674699,2.9517591959562743,5e-324,-0.3502214970421412,0.0
1668680937.9919033,75528,1668680937,991604901,,2.262825480818068,-7.223302510630868,2.988543146893485,5e-324,-0.3543133164174129,0.0
1668680937.9998105,75529,1668680937,999599755,,2.438219091846376,-7.342092172509879,3.081406429913155,5e-324,-0.3840856825516405,0.0
1668680938.007829,75530,1668680938,7620199,,2.5311996241302763,-7.404902213567748,3.130457644151339,5e-324,-0.39983773445798265,0.0
1668680938.0155315,75531,1668680938,15306894,,2.5311996241302763,-7.404902213567748,3.130457644151339,5e-324,-0.39983773445798265,0.0
1668680938.0242739,75532,1668680938,24037147,,2.6556808878346954,-7.450637227016642,3.2690021905226585,5e-324,-0.4148479227831732,0.0
1668680938.032396,75533,1668680938,32045790,,2.7217501252924174,-7.47454833813933,3.3426737903412462,5e-324,-0.4227932629881332,0.0
1668680938.0401988,75534,1668680938,39834072,,2.959516684079388,-7.419712139173125,3.393221937332013,5e-324,-0.4249291512685157,0.0
1668680938.0490186,75535,1668680938,48610385,,3.4115991322355192,-7.150229282248649,3.2154845603296334,5e-324,-0.40642679881183386,0.0
1668680938.0562315,75536,1668680938,55951221,,3.6506314436833995,-7.0076372922381065,3.121665395291632,5e-324,-0.3966480834908399,0.0
1668680938.0644677,75537,1668680938,64110059,,3.6506314436833995,-7.0076372922381065,3.121665395291632,5e-324,-0.3966480834908399,0.0
1668680938.071816,75538,1668680938,71597601,,3.87058819728935,-6.796160133863976,2.983771796236825,5e-324,-0.37336628692329304,0.0
1668680938.0799773,75539,1668680938,79727764,,3.8676783792665437,-6.788468826767632,2.908989160326354,5e-324,-0.3763449268628503,0.0
1668680938.0879376,75540,1668680938,87642677,,3.8661349818885355,-6.784314094778177,2.869602012408248,5e-324,-0.3779259327232739,0.0
1668680938.0955203,75541,1668680938,95319491,,3.8661349818885355,-6.784314094778177,2.869602012408248,5e-324,-0.3779259327232739,0.0
1668680938.103734,75542,1668680938,103493892,,3.7765733633738034,-6.934050150026311,3.073225064090341,5e-324,-0.40061493908711177,0.0
1668680938.1116931,75543,1668680938,111514157,,3.729091615672906,-7.013528731069195,3.180579341507534,5e-324,-0.4126156604073695,0.0
1668680938.1199975,75544,1668680938,119765849,,3.746015783271531,-7.070229459426399,3.31710464543877,5e-324,-0.41854900470975676,0.0
1668680938.127863,75545,1668680938,127641289,,3.7917571794716194,-7.157052449654858,3.5736282246215114,5e-324,-0.42130739047509635,0.0
1668680938.1358106,75546,1668680938,135581100,,3.816232107031598,-7.2026875667637045,3.7095870422745056,5e-324,-0.4227608676783215,0.0
1668680938.143745,75547,1668680938,143510091,,3.816232107031598,-7.2026875667637045,3.7095870422745056,5e-324,-0.4227608676783215,0.0
1668680938.151897,75548,1668680938,151659081,,3.7766013445826054,-7.3270239176674625,3.821867011268698,5e-324,-0.43586652038724505,0.0
1668680938.1599061,75549,1668680938,159721370,,3.980245275393306,-7.288133185614788,3.8634649086198856,5e-324,-0.4327525425554264,0.0
1668680938.1677709,75550,1668680938,167549279,,4.088163735508819,-7.267619825739812,3.8851822321153042,5e-324,-0.43109503170608177,0.0
1668680938.1754203,75551,1668680938,175213822,,4.088163735508819,-7.267619825739812,3.8851822321153042,5e-324,-0.43109503170608177,0.0
1668680938.1838634,75552,1668680938,183590982,,4.459348019371255,-7.051167768346291,3.7722733005099833,5e-324,-0.4134605281589967,0.0
1668680938.1921163,75553,1668680938,191890350,,4.65537344708659,-6.936485724226754,3.713263246648485,5e-324,-0.40416117112413297,0.0
1668680938.2002609,75554,1668680938,199774215,,4.771419802550484,-6.84013211150667,3.6533794917616476,5e-324,-0.40111020148678406,0.0
1668680938.2078793,75555,1668680938,207669614,,4.902953746061142,-6.649928338926198,3.6845169807566482,5e-324,-0.38562318543078533,0.0
1668680938.2160997,75556,1668680938,215880479,,4.972637457903504,-6.549193654355351,3.7010340090278677,5e-324,-0.37743146700768104,0.0
1668680938.223526,75557,1668680938,223348337,,4.972637457903504,-6.549193654355351,3.7010340090278677,5e-324,-0.37743146700768104,0.0
1668680938.231639,75558,1668680938,231439029,,5.015285583826916,-6.522052594527528,3.7719547321978575,5e-324,-0.37909698593148056,0.0
1668680938.239826,75559,1668680938,239586018,,4.968665233558552,-6.768554345730404,3.9179639192161053,5e-324,-0.41764214888068807,0.0
1668680938.2477498,75560,1668680938,247517436,,4.943902925612116,-6.898980896477919,3.995313918189546,5e-324,-0.43802957147202864,0.0
1668680938.2555492,75561,1668680938,255345038,,4.943902925612116,-6.898980896477919,3.995313918189546,5e-324,-0.43802957147202864,0.0
1668680938.2641385,75562,1668680938,263838579,,4.82964234653084,-7.162790724239615,4.135028136663514,5e-324,-0.4761417733463872,0.0
1668680938.2717748,75563,1668680938,271533578,,4.769209161094539,-7.302861102263715,4.208136209226044,5e-324,-0.49629030080112424,0.0
1668680938.27993,75564,1668680938,279721665,,4.74041160558256,-7.371804105270018,4.2375743853465515,5e-324,-0.507795875236519,0.0
1668680938.2879374,75565,1668680938,287726039,,4.711086495007616,-7.2573592585768285,4.245927473789634,5e-324,-0.48975921985000126,0.0
1668680938.295363,75566,1668680938,295143986,,4.711086495007616,-7.2573592585768285,4.245927473789634,5e-324,-0.48975921985000126,0.0
1668680938.3037317,75567,1668680938,303477037,,4.69537847004098,-7.197253916179609,4.249866943535814,5e-324,-0.4802210093703343,0.0
1668680938.3120282,75568,1668680938,311799471,,4.6583988952749475,-7.1891655130087155,4.286030622760894,5e-324,-0.47580550781568254,0.0
1668680938.3198211,75569,1668680938,319637323,,4.656709092721799,-7.199264274319752,4.38070405692458,5e-324,-0.47230898013169054,0.0
1668680938.3278234,75570,1668680938,327569424,,4.655854967447308,-7.204236484297685,4.431307339745999,5e-324,-0.47045568704508656,0.0
1668680938.3354583,75571,1668680938,335221018,,4.655854967447308,-7.204236484297685,4.431307339745999,5e-324,-0.47045568704508656,0.0
1668680938.3441744,75572,1668680938,343928628,,4.8063282514331185,-7.269238908961512,4.4629688045748885,5e-324,-0.48280316703830684,0.0
1668680938.3519905,75573,1668680938,351748268,,4.886222629888497,-7.303176847138512,4.480101207055325,5e-324,-0.48932781883949084,0.0
1668680938.3604329,75574,1668680938,360196401,,4.98229906862883,-7.372396403569915,4.531912630780145,5e-324,-0.5012873448709155,0.0
1668680938.3677835,75575,1668680938,367547915,,5.10664130064336,-7.589742799586883,4.666055279609287,5e-324,-0.5388266101493446,0.0
1668680938.3762276,75576,1668680938,375901791,,5.1724144053681,-7.705148181464063,4.736415644991117,5e-324,-0.5586717529923839,0.0
1668680938.3836353,75577,1668680938,383393086,,5.1724144053681,-7.705148181464063,4.736415644991117,5e-324,-0.5586717529923839,0.0
1668680938.391688,75578,1668680938,391491095,,5.107597791736765,-7.90025639471034,4.786263822588741,5e-324,-0.5896720127851076,0.0
1668680938.4019856,75579,1668680938,399557386,,5.010290748212343,-8.149218215628638,4.839340611431762,5e-324,-0.6183036831572117,0.0
1668680938.408119,75580,1668680938,407890189,,4.958502211410929,-8.281046509639044,4.867555164984987,5e-324,-0.6334636803838911,0.0
1668680938.4154508,75581,1668680938,415217784,,4.958502211410929,-8.281046509639044,4.867555164984987,5e-324,-0.6334636803838911,0.0
1668680938.4236233,75582,1668680938,423427198,,5.03795824057768,-8.253055381635336,4.903618359998233,5e-324,-0.6171610098200515,0.0
1668680938.4324696,75583,1668680938,432148592,,5.07978201408326,-8.238229229337229,4.922945694685714,5e-324,-0.6085502997166725,0.0
1668680938.4402256,75584,1668680938,439972926,,4.985589552726065,-8.147629379378241,4.871497557957385,5e-324,-0.5963870746986146,0.0
1668680938.447816,75585,1668680938,447590179,,5.184835324020877,-7.953047283633629,4.769385571336844,5e-324,-0.5786486396257238,0.0
1668680938.4555051,75586,1668680938,455288403,,5.184835324020877,-7.953047283633629,4.769385571336844,5e-324,-0.5786486396257238,0.0
1668680938.463821,75587,1668680938,463591386,,5.290599848920788,-7.849525942738536,4.7158497978643314,5e-324,-0.5692616201451146,0.0
1668680938.4720411,75588,1668680938,471795101,,5.423777352588996,-7.699351034870258,4.656691325915858,5e-324,-0.5557936129747008,0.0
1668680938.4800158,75589,1668680938,479798669,,5.688120330224706,-7.430877049155255,4.549549872377939,5e-324,-0.5244694537949275,0.0
1668680938.4877775,75590,1668680938,487591517,,5.827516753432496,-7.289191735841753,4.492920988514507,5e-324,-0.5079023259746688,0.0
1668680938.4956,75591,1668680938,495350114,,5.827516753432496,-7.289191735841753,4.492920988514507,5e-324,-0.5079023259746688,0.0
1668680938.504212,75592,1668680938,503920603,,5.836986724928805,-7.303107991605968,4.4694876252782105,5e-324,-0.5133329301897814,0.0
1668680938.511776,75593,1668680938,511541255,,5.841728851240357,-7.311368144546934,4.456055161652518,5e-324,-0.516205731417019,0.0
1668680938.519684,75594,1668680938,519540093,,5.896727305035688,-7.339051430539072,4.486254581363296,5e-324,-0.51854780986693,0.0
1668680938.527784,75595,1668680938,527567888,,5.939217401172987,-7.397853466713094,4.592446084375075,5e-324,-0.5293250281045045,0.0
1668680938.5354314,75596,1668680938,535251346,,5.939217401172987,-7.397853466713094,4.592446084375075,5e-324,-0.5293250281045045,0.0
1668680938.5454907,75597,1668680938,543532928,,5.9616279367508005,-7.428461363772852,4.6494604430589055,5e-324,-0.5350400909100088,0.0
1668680938.5518107,75598,1668680938,551575583,,6.075871777372507,-7.347233600874494,4.742792250292611,5e-324,-0.5310137989768238,0.0
1668680938.5596886,75599,1668680938,559475062,,6.353588346782004,-7.21687750905911,4.685596003526911,5e-324,-0.5245433667880508,0.0
1668680938.567726,75600,1668680938,567529249,,6.500591338580291,-7.147604721418445,4.655677008638014,5e-324,-0.5211404562433914,0.0
1668680938.5758283,75601,1668680938,575595553,,6.500591338580291,-7.147604721418445,4.655677008638014,5e-324,-0.5211404562433914,0.0
1668680938.5838764,75602,1668680938,583575235,,6.503031850487256,-7.0510334766416705,4.498350088065072,5e-324,-0.5143563953498886,0.0
1668680938.5916915,75603,1668680938,591488960,,6.504532461370184,-6.999647015046417,4.415253490248718,5e-324,-0.5107716803663201,0.0
1668680938.6000445,75604,1668680938,599831221,,6.4136235706594,-6.917834163107463,4.380080724731306,5e-324,-0.4998021614105539,0.0
1668680938.6077466,75605,1668680938,607478569,,6.374328196925195,-6.836616481930548,4.506499319261443,5e-324,-0.4909408283832588,0.0
1668680938.6155117,75606,1668680938,615268906,,6.374328196925195,-6.836616481930548,4.506499319261443,5e-324,-0.4909408283832588,0.0
1668680938.6240103,75607,1668680938,623744684,,6.353575175429073,-6.793821783958583,4.573095154607802,5e-324,-0.4862347408873411,0.0
1668680938.6319776,75608,1668680938,631733850,,6.352720534184918,-6.820566769464665,4.71699275020878,5e-324,-0.493897466489828,0.0
1668680938.6401155,75609,1668680938,639669426,,6.442640351239573,-7.002803661279387,4.87612171156286,5e-324,-0.5237872580933893,0.0
1668680938.6483545,75610,1668680938,648016639,,6.490034291110892,-7.099561962387832,4.960076363470536,5e-324,-0.5396097597746217,0.0
1668680938.6556456,75611,1668680938,655378569,,6.490034291110892,-7.099561962387832,4.960076363470536,5e-324,-0.5396097597746217,0.0
1668680938.6640632,75612,1668680938,663852113,,6.718770180181433,-6.910913214913117,4.979839580104518,5e-324,-0.5052742676775919,0.0
1668680938.6720002,75613,1668680938,671804760,,6.839902452194055,-6.810955692242756,4.990334845833878,5e-324,-0.48710634071407255,0.0
1668680938.6798038,75614,1668680938,679605494,,6.772602300308,-6.697109635813044,4.957935274914062,5e-324,-0.47177878393028244,0.0
1668680938.6876934,75615,1668680938,687490104,,6.78577641557937,-6.565092392490882,4.925358152329941,5e-324,-0.4452535194707381,0.0
1668680938.6961272,75616,1668680938,695863598,,6.78577641557937,-6.565092392490882,4.925358152329941,5e-324,-0.4452535194707381,0.0
1668680938.703862,75617,1668680938,703645802,,6.792681056768695,-6.49526507093594,4.908183790487795,5e-324,-0.4312327728754486,0.0
1668680938.711834,75618,1668680938,711569155,,6.7670464214820445,-6.501177748972848,4.942423774238145,5e-324,-0.42942154462771875,0.0
1668680938.7198224,75619,1668680938,719608128,,6.7040618803317304,-6.671977212037057,4.931488236388544,5e-324,-0.4523221152481704,0.0
1668680938.7281892,75620,1668680938,727928363,,6.670452103089697,-6.763210371586643,4.924919338043704,5e-324,-0.4644281335426633,0.0
1668680938.735496,75621,1668680938,735262976,,6.670452103089697,-6.763210371586643,4.924919338043704,5e-324,-0.4644281335426633,0.0
1668680938.7438006,75622,1668680938,743527172,,6.753305559718788,-6.680588111031421,4.9936259064531505,5e-324,-0.45535631248140823,0.0
1668680938.7516637,75623,1668680938,751486420,,6.797290603284307,-6.637002060632408,5.0296248399539305,5e-324,-0.4505652071218814,0.0
1668680938.7597544,75624,1668680938,759512991,,6.721548902763507,-6.5690077266971505,5.124023703190219,5e-324,-0.44480818436420166,0.0
1668680938.7677732,75625,1668680938,767562721,,6.624036554929116,-6.504816509464697,5.2067058580597205,5e-324,-0.4262174477734415,0.0
1668680938.7756834,75626,1668680938,775340952,,6.624036554929116,-6.504816509464697,5.2067058580597205,5e-324,-0.4262174477734415,0.0
1668680938.7850437,75627,1668680938,784277617,,6.572141769216831,-6.47168869081224,5.249828185944666,5e-324,-0.4163970809400038,0.0
1668680938.7923017,75628,1668680938,792045907,,6.380422308501146,-6.57645919053669,5.258076696556936,5e-324,-0.4331206269505865,0.0
1668680938.8004222,75629,1668680938,800072889,,6.529685542512877,-6.690032068639605,5.247636255453958,5e-324,-0.4445635133855622,0.0
1668680938.8079963,75630,1668680938,807768559,,6.608718906006331,-6.749841051242972,5.242387415548967,5e-324,-0.4505922825735411,0.0
1668680938.8156748,75631,1668680938,815461841,,6.64429876785432,-6.7019512694049705,5.200606512068054,5e-324,-0.4463895442009359,0.0
1668680938.8234882,75632,1668680938,823274241,,6.64429876785432,-6.7019512694049705,5.200606512068054,5e-324,-0.4463895442009359,0.0
1668680938.831775,75633,1668680938,831549183,,6.663150004716377,-6.676466311446706,5.178651155526572,5e-324,-0.44415511547770536,0.0
1668680938.839872,75634,1668680938,839666498,,6.723827477615215,-6.730303614167318,5.154198612523961,5e-324,-0.4580555980452457,0.0
1668680938.8477466,75635,1668680938,847481545,,6.794207627735075,-6.6011413716373655,5.222699620998981,5e-324,-0.44768976247971237,0.0
1668680938.8562093,75636,1668680938,856000201,,6.8315801639726175,-6.532465446542586,5.259173314928521,5e-324,-0.4421961889902961,0.0
1668680938.8635032,75637,1668680938,863283888,,6.8315801639726175,-6.532465446542586,5.259173314928521,5e-324,-0.4421961889902961,0.0
1668680938.8718648,75638,1668680938,871628752,,6.938491001816775,-6.42711772308726,5.285847830461943,5e-324,-0.4238924501851026,0.0
1668680938.8796358,75639,1668680938,879466532,,6.749090007118638,-6.566695987012106,5.314904486591333,5e-324,-0.43637555982353526,0.0
1668680938.8879027,75640,1668680938,887689563,,6.648981960315849,-6.6409691614883,5.3296414798015235,5e-324,-0.44296410394688535,0.0
1668680938.8955128,75641,1668680938,895281508,,6.648981960315849,-6.6409691614883,5.3296414798015235,5e-324,-0.44296410394688535,0.0
1668680938.9040098,75642,1668680938,903770953,,6.639920423092224,-6.7574213667548335,5.390272031779339,5e-324,-0.44382139938448856,0.0
1668680938.9119134,75643,1668680938,911651184,,6.635431170883903,-6.818625950518033,5.422487896723522,5e-324,-0.444218795072879,0.0
1668680938.920394,75644,1668680938,920113647,,6.544225991300843,-6.8396521804130455,5.43022173045814,5e-324,-0.44342458571081445,0.0
1668680938.9277844,75645,1668680938,927527569,,6.5587661194330105,-6.930217128019093,5.42136256607348,5e-324,-0.4615877705564501,0.0
1668680938.936085,75646,1668680938,935815018,,6.566664598324568,-6.978070614658975,5.416510620246085,5e-324,-0.471178201233978,0.0
1668680938.9434361,75647,1668680938,943225680,,6.566664598324568,-6.978070614658975,5.416510620246085,5e-324,-0.471178201233978,0.0
1668680938.9520156,75648,1668680938,951676603,,6.7463999007115545,-6.792576188610067,5.40431367150741,5e-324,-0.44948732602116975,0.0
1668680938.9597769,75649,1668680938,959540953,,6.962575503165193,-6.3748619824058,5.316055655420756,5e-324,-0.3916092923892963,0.0
1668680938.9676175,75650,1668680938,967420217,,7.0771791855615245,-6.153737344870246,5.2691915146129045,5e-324,-0.3609795422342499,0.0
1668680938.9753635,75651,1668680938,975156048,,7.0771791855615245,-6.153737344870246,5.2691915146129045,5e-324,-0.3609795422342499,0.0
1668680938.983909,75652,1668680938,983664511,,6.881395910421472,-6.1063090265404085,5.172158799694194,5e-324,-0.35590026621248105,0.0
1668680938.9919753,75653,1668680938,991647458,,6.7781091444137305,-6.081249990058863,5.120404746322419,5e-324,-0.3532002014754498,0.0
1668680938.9997814,75654,1668680938,999549848,,6.773433435187197,-6.053676650081095,5.078576454987836,5e-324,-0.34470520223869183,0.0
1668680939.0094624,75655,1668680939,7521460,,6.640862672030487,-6.16616039488455,4.988754249514611,5e-324,-0.3592737978344901,0.0
1668680939.0160549,75656,1668680939,15785673,,6.570700367842708,-6.225629331898118,4.941313522157209,5e-324,-0.3669606265551356,0.0
1668680939.0236318,75657,1668680939,23405945,,6.570700367842708,-6.225629331898118,4.941313522157209,5e-324,-0.3669606265551356,0.0
1668680939.031752,75658,1668680939,31551849,,6.463908127711723,-6.347608771947476,4.922789907153036,5e-324,-0.38232468297744726,0.0
