Time,header.seq,header.stamp.secs,header.stamp.nsecs,header.frame_id,twist.linear.x,twist.linear.y,twist.linear.z,twist.angular.x,twist.angular.y,twist.angular.z
1668680964.7607932,78874,1668680964,760361377,,-1.3182609942797555e-05,9.561793963145705e-10,-3.318910882618207e-11,-5.714398091695837e-07,2.562778512055456e-07,3.1211978226279612e-09
1668680964.767674,78875,1668680964,767525676,,-1.2207141761380484e-05,9.329854551931399e-10,-3.2418541992976676e-11,-5.711464768155951e-07,2.550475780633915e-07,3.109446660820147e-09
1668680964.7754538,78876,1668680964,775342305,,-1.1284668968225528e-05,9.098145170257063e-10,-3.16478800000125e-11,-5.707823662085485e-07,2.537944231476837e-07,3.097390748755185e-09
1668680964.7836924,78877,1668680964,783551438,,-1.041282388282945e-05,8.867071278647952e-10,-3.087840762973593e-11,-5.703480855660987e-07,2.525187283945855e-07,3.0850340472031825e-09
1668680964.7918427,78878,1668680964,791630589,,-9.589326035046148e-06,8.637007646791689e-10,-3.011140420187071e-11,-5.698442472658155e-07,2.5122083591539264e-07,3.0723805285267394e-09
1668680964.7996516,78879,1668680964,799550611,,-8.811979772825e-06,8.408299957159647e-10,-2.934795133142869e-11,-5.692714677388657e-07,2.499010879515272e-07,3.0594341658050456e-09
1668680964.8080406,78880,1668680964,807899869,,-8.078671891455187e-06,8.181267947038297e-10,-2.8589094910994706e-11,-5.686303673648922e-07,2.485598268337068e-07,3.0461989454716123e-09
1668680964.8152754,78881,1668680964,815171824,,-7.387369287848312e-06,7.95620531131819e-10,-2.7835775200091838e-11,-5.679215703413871e-07,2.471973949288777e-07,3.0326788418118044e-09
1668680964.8236876,78882,1668680964,823544736,,-6.73611664166472e-06,7.733379359963599e-10,-2.708892340100557e-11,-5.671457045924869e-07,2.458141345984392e-07,3.0188778550776287e-09
1668680964.831947,78883,1668680964,831803384,,-6.1230341266967075e-06,7.51303537682842e-10,-2.6349372622582403e-11,-5.663034016414203e-07,2.4441038815829863e-07,3.0047999819567773e-09
1668680964.839971,78884,1668680964,839846091,,-5.5463151538726955e-06,7.295397088852593e-10,-2.5617888948663078e-11,-5.653952965080697e-07,2.4298649783008824e-07,2.990449220336341e-09
1668680964.848261,78885,1668680964,848081574,,-5.004224148280293e-06,7.080664650981623e-10,-2.4895093994242187e-11,-5.64422027612425e-07,2.415428057037055e-07,2.9758295676290725e-09
1668680964.8561456,78886,1668680964,856014770,,-4.4950943616066795e-06,6.869019651525927e-10,-2.41816674529198e-11,-5.633842366412753e-07,2.400796536890195e-07,2.960945037140603e-09
1668680964.8638258,78887,1668680964,863514310,,-4.017325721813349e-06,6.660624804005149e-10,-2.34781297029114e-11,-5.622825684524045e-07,2.3859738347393364e-07,2.945799633020985e-09
1668680964.8718064,78888,1668680964,871542153,,-3.569382721107766e-06,6.455623676823215e-10,-2.278500799018391e-11,-5.611176709741442e-07,2.3709633648383752e-07,2.930397360064863e-09
1668680964.8799934,78889,1668680964,879814198,,-3.1497923433913442e-06,6.254143741849664e-10,-2.2102760084022254e-11,-5.598901950798592e-07,2.35576853841493e-07,2.91474222822023e-09
1668680964.8877792,78890,1668680964,887597127,,-2.7571420322688485e-06,6.056296726516407e-10,-2.1431748565276116e-11,-5.586007944941825e-07,2.3403927632032265e-07,2.8988382494611817e-09
1668680964.895479,78891,1668680964,895286221,,-2.3900777003984928e-06,5.862178126881043e-10,-2.0772415671780457e-11,-5.572501256797631e-07,2.3248394431170912e-07,2.882689436941731e-09
1668680964.9038608,78892,1668680964,903639033,,-2.0473017806669486e-06,5.671871422931661e-10,-2.0124999340018557e-11,-5.558388477420588e-07,2.3091119777920392e-07,2.866299795642446e-09
1668680964.9117615,78893,1668680964,911627237,,-1.7275713198811851e-06,5.485443478959094e-10,-1.9489737371303963e-11,-5.543676223123157e-07,2.2932137621617526e-07,2.8496733379198576e-09
1668680964.91981,78894,1668680964,919516815,,-1.429696115428845e-06,5.302952091399746e-10,-1.8866908152042983e-11,-5.528371134369142e-07,2.2771481860816428e-07,2.8328140682103157e-09
1668680964.9278615,78895,1668680964,927615907,,-1.1525368950866884e-06,5.124441989953382e-10,-1.825669704128606e-11,-5.512479874894214e-07,2.2609186339515772e-07,2.815725991492059e-09
1668680964.9358845,78896,1668680964,935739824,,-8.950035401011447e-07,4.949947187925452e-10,-1.76592651000079e-11,-5.49600913057435e-07,2.2445284843129508e-07,2.798413119618905e-09
1668680964.943892,78897,1668680964,943685202,,-6.560533518091258e-07,4.779491508145931e-10,-1.70746959969003e-11,-5.478965608488162e-07,2.2279811094577736e-07,2.78087944502644e-09
1668680964.9518173,78898,1668680964,951684476,,-4.346893616967421e-07,4.6130887986761766e-10,-1.6503077215786022e-11,-5.461356035717381e-07,2.2112798750680033e-07,2.763128967575977e-09
1668680964.959753,78899,1668680964,959640880,,-2.299586845759031e-07,4.450745052629448e-10,-1.594447212681024e-11,-5.443187158445932e-07,2.194428139800884e-07,2.7451656829464977e-09
1668680964.9679022,78900,1668680964,967692860,,-4.095091524140986e-08,4.2924576255458124e-10,-1.539896616925946e-11,-5.424465740903732e-07,2.1774292549234757e-07,2.7269935745635475e-09
1668680964.975415,78901,1668680964,975308364,,1.3320343225897107e-07,4.1382164358999435e-10,-1.4866486928976848e-11,-5.40519856441509e-07,2.1602865639456878e-07,2.7086166282722474e-09
1668680964.9838004,78902,1668680964,983625139,,2.9333444268065033e-07,3.9880050734226596e-10,-1.4347093743393992e-11,-5.385392426279189e-07,2.1430034022456958e-07,2.690038822429087e-09
1668680964.9918923,78903,1668680964,991696524,,4.4023427523372367e-07,3.8417996322600226e-10,-1.3840662422642775e-11,-5.365054138924997e-07,2.1255830967491696e-07,2.6712641292165067e-09
1668680964.9999423,78904,1668680964,999725535,,5.746585977207832e-07,3.699570378182415e-10,-1.334720430824722e-11,-5.344190528843984e-07,2.108028965558504e-07,2.6522965112342043e-09
1668680965.0080562,78905,1668680965,7832598,,6.973279792244471e-07,3.5612838328590613e-10,-1.2866629421221299e-11,-5.322808435472615e-07,2.0903443175480535e-07,2.633139927936898e-09
1668680965.0154169,78906,1668680965,15321464,,8.089292418991348e-07,3.4268994926425264e-10,-1.23988262768618e-11,-5.300914710435642e-07,2.0725324520426107e-07,2.6137983322783805e-09
1668680965.023924,78907,1668680965,23781030,,9.101167726441512e-07,3.2963742036240473e-10,-1.1943718214032604e-11,-5.278516216480334e-07,2.054596658495888e-07,2.5942756634894523e-09
1668680965.0318296,78908,1668680965,31666783,,1.0015137950821322e-06,3.1696596186967343e-10,-1.1501140710073837e-11,-5.255619826479026e-07,2.0365402160990314e-07,2.5745758604541596e-09
1668680965.039527,78909,1668680965,39406302,,1.0837136025888398e-06,3.0467047876081e-10,-1.1070971476168555e-11,-5.232232422467436e-07,2.0183663934627167e-07,2.5547028509275945e-09
1668680965.0479064,78910,1668680965,47772465,,1.1572807526979077e-06,2.9274544352035253e-10,-1.0653075634284048e-11,-5.208360894727966e-07,2.000078448311109e-07,2.5346605528337613e-09
1668680965.0553572,78911,1668680965,55222745,,1.2227522240747895e-06,2.8118509378046426e-10,-1.0247279241862494e-11,-5.184012140844728e-07,1.9816796271086615e-07,2.51445287162241e-09
1668680965.0639114,78912,1668680965,63751231,,1.2806385363818377e-06,2.6998342266323337e-10,-9.853427067849279e-12,-5.159193064755326e-07,1.9631731647654135e-07,2.49408371530853e-09
1668680965.0718849,78913,1668680965,71759592,,1.3314248338234565e-06,2.591341700199586e-10,-9.471322828355441e-12,-5.133910575813292e-07,1.944562284280972e-07,2.4735569673016502e-09
1668680965.0796716,78914,1668680965,79546661,,1.3755719330731974e-06,2.486307871109693e-10,-9.10080082219962e-12,-5.108171587803298e-07,1.9258501964317694e-07,2.452876507984428e-09
1668680965.087599,78915,1668680965,87483665,,1.4135173365912357e-06,2.3846673271994575e-10,-8.741617322721395e-12,-5.081983018181702e-07,1.9070400995120838e-07,2.4320461955432333e-09
1668680965.0955124,78916,1668680965,95348485,,1.4456762116577408e-06,2.2863528028558787e-10,-8.393590199144239e-12,-5.055351786977001e-07,1.8881351789707333e-07,2.4110698899864046e-09
1668680965.1038833,78917,1668680965,103633558,,1.472442336301042e-06,2.191295047992931e-10,-8.056549430859854e-12,-5.028284815908627e-07,1.8691386071078862e-07,2.3899514390436905e-09
1668680965.1118376,78918,1668680965,111654784,,1.4941890124557827e-06,2.099424350757377e-10,-7.73029158754655e-12,-5.000789027611886e-07,1.8500535427921792e-07,2.3686946741504668e-09
1668680965.119802,78919,1668680965,119675369,,1.5112699475114908e-06,2.01066974900812e-10,-7.414555063132642e-12,-4.972871344652569e-07,1.8308831311518558e-07,2.347303409568516e-09
1668680965.1277504,78920,1668680965,127568452,,1.5240201048640539e-06,1.9249607692956943e-10,-7.10911706434973e-12,-4.944538688700093e-07,1.8116305032845753e-07,2.3257814532831074e-09
1668680965.1352425,78921,1668680965,135132561,,1.5327565241157053e-06,1.842225742109035e-10,-6.813807558794466e-12,-4.915797979552883e-07,1.7922987759255175e-07,2.304132597166825e-09
1668680965.1444309,78922,1668680965,144214705,,1.5377791120034042e-06,1.7623921687074896e-10,-6.528364705668552e-12,-4.88665613437394e-07,1.7728910512596503e-07,2.2823606202652097e-09
1668680965.1520336,78923,1668680965,151762391,,1.5393714044091803e-06,1.685390070244663e-10,-6.2525961372847755e-12,-4.857120066724781e-07,1.7534104165602792e-07,2.2604692854691903e-09
1668680965.1599698,78924,1668680965,159751771,,1.5378013006811527e-06,1.611146035443496e-10,-5.986280965251234e-12,-4.827196685770352e-07,1.7338599439346787e-07,2.2384623459550745e-09
1668680965.1677089,78925,1668680965,167514368,,1.5333217706017074e-06,1.539588968692898e-10,-5.729137799940389e-12,-4.796892895532446e-07,1.7142426900747214e-07,2.2163435271643467e-09
1668680965.1755774,78926,1668680965,175403086,,1.5261715350960481e-06,1.4706479872117943e-10,-5.480990382258018e-12,-4.766215593744193e-07,1.6945616959212456e-07,2.1941165577076652e-09
1668680965.1833754,78927,1668680965,183200563,,1.5165757211256753e-06,1.4042532241916992e-10,-5.241574352446484e-12,-4.735171671327184e-07,1.674819986456698e-07,2.171785133955073e-09
1668680965.1921763,78928,1668680965,192047345,,1.504746491651435e-06,1.3403335566005105e-10,-5.010735890658256e-12,-4.7037680114250143e-07,1.6550205704419632e-07,2.149352941870814e-09
1668680965.1998515,78929,1668680965,199690021,,1.4908836516134448e-06,1.278819990058924e-10,-4.788193572620397e-12,-4.6720114885840345e-07,1.6351664401058463e-07,2.1268236579018684e-09
1668680965.2076545,78930,1668680965,207545707,,1.4751752300466266e-06,1.21964329793512e-10,-4.573757285233852e-12,-4.6399089679840164e-07,1.615260570984837e-07,2.1042009332892118e-09
1668680965.2159085,78931,1668680965,215635351,,1.4577980398166637e-06,1.1627362295799761e-10,-4.367194282106471e-12,-4.607467304583532e-07,1.595305921619737e-07,2.0814884070324984e-09
1668680965.224221,78932,1668680965,223968735,,1.4389182149668133e-06,1.108031983156522e-10,-4.168283896656907e-12,-4.5746933423628143e-07,1.5753054333176805e-07,2.0586896987682097e-09
1668680965.231545,78933,1668680965,231391593,,1.4186917268131253e-06,1.0554638957901627e-10,-3.976785753439371e-12,-4.5415939135087683e-07,1.555262029877744e-07,2.035808414786976e-09
1668680965.239659,78934,1668680965,239504981,,1.3972648791741541e-06,1.0049670748398857e-10,-3.792557667033197e-12,-4.5081758376633117e-07,1.5351786174396684e-07,2.0128481357037415e-09
1668680965.2476203,78935,1668680965,247467720,,1.3747747837576755e-06,9.564777087239427e-11,-3.6153629814873867e-12,-4.4744459211196703e-07,1.5150580841702825e-07,1.989812421913503e-09
1668680965.256051,78936,1668680965,255903181,,1.3513498159743893e-06,9.099327066939748e-11,-3.4449568111828826e-12,-4.440410956129048e-07,1.4949033000965173e-07,1.966704824233433e-09
1668680965.2633867,78937,1668680965,263261142,,1.327110051926612e-06,8.652701887116097e-11,-3.2811824955651832e-12,-4.406077720009886e-07,1.474717116811916e-07,1.9435288762927103e-09
1668680965.2717302,78938,1668680965,271603317,,1.3021676872840745e-06,8.22429936186325e-11,-3.1238379108570417e-12,-4.3714529744793893e-07,1.4545023673309027e-07,1.9202880767096785e-09
1668680965.279715,78939,1668680965,279543642,,1.2766274388080338e-06,7.813529854400716e-11,-2.9727133107282042e-12,-4.336543464940956e-07,1.434261865829684e-07,1.8969859270249444e-09
1668680965.287925,78940,1668680965,287747324,,1.250586928491754e-06,7.419798849116018e-11,-2.8276158733730986e-12,-4.3013559197084747e-07,1.4139984074549348e-07,1.873625892829766e-09
1668680965.2958117,78941,1668680965,295601237,,1.224137051673795e-06,7.042540193973297e-11,-2.688368334498595e-12,-4.2658970492771987e-07,1.3937147680983009e-07,1.8502114163618554e-09
1668680965.303672,78942,1668680965,303496810,,1.1973623292976042e-06,6.68120288314039e-11,-2.5547563989648903e-12,-4.2301735456445785e-07,1.373413704206152e-07,1.8267459289650233e-09
1668680965.3118336,78943,1668680965,311736849,,1.17034124475417e-06,6.335230684168931e-11,-2.4265830206745903e-12,-4.194192081545061e-07,1.3530979525969438e-07,1.8032328443084666e-09
1668680965.3205564,78944,1668680965,320388828,,1.1431465661612427e-06,6.00410362120131e-11,-2.3037388715934047e-12,-4.1579593097563347e-07,1.3327702302358308e-07,1.779675545761955e-09
1668680965.3283782,78945,1668680965,328153736,,1.1158456543647792e-06,5.6872967506191567e-11,-2.1860310608480964e-12,-4.1214818624841187e-07,1.3124332340865588e-07,1.756077401078512e-09
1668680965.3359077,78946,1668680965,335778846,,1.0885007573941896e-06,5.3843051984390445e-11,-2.073230872186316e-12,-4.084766350587386e-07,1.2920896408685312e-07,1.7324417564111854e-09
1668680965.3446248,78947,1668680965,344496034,,1.0611692915345822e-06,5.094634343714084e-11,-1.9651998112493284e-12,-4.047819362935223e-07,1.2717421068956528e-07,1.7087719311766398e-09
1668680965.3520112,78948,1668680965,351867959,,1.0339041099703043e-06,4.817807213048348e-11,-1.861824206341184e-12,-4.0106474656781084e-07,1.2513932678982356e-07,1.6850712274197413e-09
1668680965.3599312,78949,1668680965,359795558,,1.0067537589880224e-06,4.553343907541503e-11,-1.7628934462503539e-12,-3.9732572017603844e-07,1.231045738916255e-07,1.6613429324368182e-09
1668680965.3675048,78950,1668680965,367397214,,9.797627224847805e-07,4.300800164284169e-11,-1.6682377622483413e-12,-3.9356550901149727e-07,1.2107021140465271e-07,1.6375902931986543e-09
1668680965.3756473,78951,1668680965,375536598,,9.529716552923096e-07,4.059728918994709e-11,-1.5777694392650913e-12,-3.897847624971311e-07,1.1903649662636658e-07,1.6138165464758506e-09
1668680965.3840878,78952,1668680965,383946802,,9.264176054697472e-07,3.829691481819633e-11,-1.4912606625716566e-12,-3.8598412754596833e-07,1.170036847334509e-07,1.5900248994426186e-09
1668680965.391969,78953,1668680965,391805614,,9.001342263035436e-07,3.6102842445667623e-11,-1.4086079438457603e-12,-3.821642484695321e-07,1.1497202875775534e-07,1.5662185434677464e-09
1668680965.3994977,78954,1668680965,399389117,,8.74151978027011e-07,3.4010920746147514e-11,-1.3296510734337718e-12,-3.7832576693200456e-07,1.1294177957718172e-07,1.542400645186025e-09
1668680965.407813,78955,1668680965,407706078,,8.484983200477036e-07,3.2017166136938686e-11,-1.2542529346272182e-12,-3.74469321890214e-07,1.1091318590212417e-07,1.518574339600435e-09
1668680965.4163465,78956,1668680965,416203133,,8.231978939252977e-07,3.01178314987182e-11,-1.1823695136756646e-12,-3.705955495232782e-07,1.0888649425272895e-07,1.4947427426474573e-09
1668680965.423487,78957,1668680965,423269625,,7.982726974874736e-07,2.830916826645745e-11,-1.113772113859996e-12,-3.667050831885365e-07,1.0686194895222129e-07,1.4709089515822612e-09
1668680965.431828,78958,1668680965,431535479,,7.737422502041821e-07,2.6587618184077536e-11,-1.0483872106262474e-12,-3.6279855334272635e-07,1.0483979210789869e-07,1.4470760335947932e-09
1668680965.439666,78959,1668680965,439530544,,7.496237505230475e-07,2.4949715962356913e-11,-9.860752965976628e-13,-3.588765875090192e-07,1.0282026360328298e-07,1.4232470294494776e-09
1668680965.4483511,78960,1668680965,448163642,,7.259322253949678e-07,2.3391944974199653e-11,-9.26684063825543e-13,-3.549398101963582e-07,1.0080360107894096e-07,1.39942495880776e-09
1668680965.4558296,78961,1668680965,455646757,,7.026806722314276e-07,2.19111246273528e-11,-8.701383957076411e-13,-3.5098884285573047e-07,9.879003992253262e-08,1.3756128195570453e-09
1668680965.4633532,78962,1668680965,463167471,,6.798801934986299e-07,2.0504137108621022e-11,-8.163007340645841e-13,-3.470243038207948e-07,9.67798132562306e-08,1.3518135715726524e-09
1668680965.4724085,78963,1668680965,472175688,,6.575401246743778e-07,1.916789499426636e-11,-7.650924175665098e-13,-3.430468082601441e-07,9.477315192622949e-08,1.328030168592935e-09
1668680965.4806724,78964,1668680965,480485770,,6.356681553458536e-07,1.7899448326861917e-11,-7.163931540572795e-13,-3.390569681117119e-07,9.277028448949759e-08,1.304265518740134e-09
1668680965.4882832,78965,1668680965,488150303,,6.14270444113377e-07,1.6695918871796725e-11,-6.701196321099187e-13,-3.3505539204635324e-07,9.077143720768408e-08,1.2805225135557151e-09
1668680965.49545,78966,1668680965,495277556,,5.933517275663876e-07,1.5554549137691234e-11,-6.261575441703112e-13,-3.310426854026609e-07,8.877683403003858e-08,1.2568040306238406e-09
1668680965.5038278,78967,1668680965,503626738,,5.72915423039366e-07,1.4472720095096054e-11,-5.843982841643874e-13,-3.2701945013708317e-07,8.678669658296365e-08,1.2331129083921508e-09
1668680965.5116608,78968,1668680965,511495507,,5.529637262783524e-07,1.3447775851915783e-11,-5.447521778032539e-13,-3.2298628477801784e-07,8.480124416250113e-08,1.2094519611497416e-09
1668680965.51959,78969,1668680965,519397810,,5.334977036107949e-07,1.2477355111368228e-11,-5.071572339514616e-13,-3.18943784378269e-07,8.28206937284299e-08,1.185823973430924e-09
1668680965.5277452,78970,1668680965,527541940,,5.145173790995248e-07,1.1559011727190661e-11,-4.714742696375732e-13,-3.148925404615478e-07,8.084525989034475e-08,1.1622317178528904e-09
1668680965.535454,78971,1668680965,535285053,,4.960218166920297e-07,1.0690385745666724e-11,-4.3770182387495635e-13,-3.108331409725014e-07,7.887515489728343e-08,1.1386779196983031e-09
1668680965.5438542,78972,1668680965,543607364,,4.780091981931376e-07,9.869306016782933e-12,-4.0571533745060367e-13,-3.0676617023694393e-07,7.69105886329363e-08,1.1151653012551392e-09
1668680965.5519474,78973,1668680965,551714016,,4.604768963036469e-07,9.093692964065261e-12,-3.7542414418596664e-13,-3.0269220891416537e-07,7.495176860594007e-08,1.0916965392488383e-09
1668680965.559937,78974,1668680965,559825414,,4.4342154386902734e-07,8.361441758819582e-12,-3.4678929044636723e-13,-2.986118339464471e-07,7.299889994210559e-08,1.0682742893794706e-09
1668680965.5676908,78975,1668680965,567588832,,4.2683909896726635e-07,7.670561220065895e-12,-3.196962082316857e-13,-2.945256185207937e-07,7.105218537987056e-08,1.0449011800648103e-09
1668680965.575646,78976,1668680965,575419493,,4.1072490611397604e-07,7.019192098585588e-12,-2.9411475147176677e-13,-2.904341320192255e-07,6.911182525988267e-08,1.0215798104661137e-09
1668680965.583623,78977,1668680965,583504408,,3.9507375410069847e-07,6.405432270946697e-12,-2.699487209404995e-13,-2.863379399904153e-07,6.717801752018628e-08,9.98312758524344e-10
1668680965.591815,78978,1668680965,591677986,,3.79879929996615e-07,5.827531798582826e-12,-2.471643383248971e-13,-2.8223760408699887e-07,6.525095768798205e-08,9.751025704158822e-10
1668680965.6000633,78979,1668680965,599803826,,3.651372701783597e-07,5.2838260029676205e-12,-2.256791723866249e-13,-2.781336820354818e-07,6.333083887472245e-08,9.519517712909982e-10
1668680965.6082373,78980,1668680965,608022512,,3.508392080679172e-07,4.772673893961136e-12,-2.0546526797719256e-13,-2.740267275963784e-07,6.141785177135e-08,9.288628527691043e-10
1668680965.6154032,78981,1668680965,615264996,,3.369788188385341e-07,4.292511026096985e-12,-1.864079105867569e-13,-2.6991729052807204e-07,5.951218464467559e-08,9.058382727715714e-10
1668680965.6236641,78982,1668680965,623508166,,3.235488615228303e-07,3.841815999673848e-12,-1.6849392963480191e-13,-2.658059165388834e-07,5.761402332774177e-08,8.828804682201298e-10
1668680965.6316214,78983,1668680965,631437590,,3.1054181822791206e-07,3.419216519489523e-12,-1.516632767091971e-13,-2.6169314725646367e-07,5.572355122101184e-08,8.599918538653693e-10
1668680965.6399508,78984,1668680965,639824467,,2.97949930805271e-07,3.0232037112171766e-12,-1.3582988506581832e-13,-2.575795201946108e-07,5.384094928418445e-08,8.371748065051921e-10
1668680965.6478574,78985,1668680965,647748563,,2.857652351448653e-07,2.6525263043825415e-12,-1.2097614437122968e-13,-2.53465568699153e-07,5.196639603268157e-08,8.144316769928813e-10
1668680965.655408,78986,1668680965,655273006,,5.893753168225747e-07,-3.715645209877277e-07,-1.0711257215286749e-13,-2.4935182245764786e-07,5.0100065493955604e-08,7.917647920859619e-10
1668680965.663658,78987,1668680965,663498829,,1.8140141972752227e-06,-1.8277327009186815e-06,-1.1118735864002397e-13,-2.452388082024198e-07,4.8242127854113005e-08,7.691764482880068e-10
1668680965.6717267,78988,1668680965,671546187,,4.515258169672754e-06,-5.023034193682521e-06,-2.3980984859352137e-13,-2.4112705284286225e-07,4.6392753043844213e-08,7.46668911514323e-10
1668680965.6797252,78989,1668680965,679610080,,9.20184095632257e-06,-1.0556815328787981e-05,-8.182010421531851e-13,-2.37017090283327e-07,4.455211303416846e-08,7.242444218945234e-10
1668680965.6876922,78990,1668680965,687577543,,1.6338338949263976e-05,-1.897639917026695e-05,-2.551901737751079e-12,-2.3290947043701738e-07,4.2720384893600454e-08,7.019051820412255e-10
1668680965.6955633,78991,1668680965,695325308,,2.6347731459077675e-05,-3.078010090207493e-05,-6.702440192695929e-12,-2.2880476949389832e-07,4.089775427684341e-08,6.796533744601787e-10
1668680965.7045252,78992,1668680965,704376909,,3.961384076136375e-05,-4.6420101594733066e-05,-1.5261696963088e-11,-2.2470360081955338e-07,3.9084419136138833e-08,6.574911375029991e-10
1668680965.7115414,78993,1668680965,711441155,,5.6483656596708605e-05,-6.630518588308282e-05,-3.111369582644325e-11,-2.2060662589975276e-07,3.728059345008817e-08,6.354205911169707e-10
1668680965.719778,78994,1668680965,719578881,,7.726954964589326e-05,-9.080334891410626e-05,-5.8176043181669674e-11,-2.1651456487299012e-07,3.5486510810753575e-08,6.134438135143704e-10
1668680965.7277956,78995,1668680965,727649122,,0.0001022513783688111,-0.00012024427775730512,-1.0151585894478533e-10,-2.124282063496606e-07,3.3702427772330365e-08,5.915628411114811e-10
1668680965.7364285,78996,1668680965,735961696,,0.0001316784934640081,-0.00015492171230331578,-1.6743656614044618e-10,-2.0834841626626953e-07,3.192862686376856e-08,5.697796790046956e-10
1668680965.744573,78997,1668680965,744381971,,0.00016577164407467271,-0.00019509569051628394,-2.6353452560816264e-10,-2.0427614553512288e-07,3.016541920183373e-08,5.480963091155852e-10
1668680965.7516448,78998,1668680965,751523935,,0.00020472478973776549,-0.00024099468274807194,-3.98724959790274e-10,-2.0021243646344985e-07,2.8413146674097253e-08,5.265146616221725e-10
1668680965.7597861,78999,1668680965,759659890,,0.0002487068219462113,-0.00029281761966754895,-5.832382469033137e-10,-1.9615842783692572e-07,2.6672183668306128e-08,5.050366308967033e-10
1668680965.7679753,79000,1668680965,767740786,,0.0002978631990685629,-0.0003507358182060392,-8.285883880381406e-10,-1.9211535859492232e-07,2.4942938316961503e-08,4.8366407959851e-10
1668680965.775258,79001,1668680965,775148385,,0.000352317498246808,-0.00041489480977559105,-1.1475154860450573e-09,-1.880845702197971e-07,2.322585330616654e-08,4.623988400292642e-10
1668680965.783573,79002,1668680965,783373737,,0.0004121728877729303,-0.00048541607486966804,-1.5539057422155827e-09,-1.840675077463881e-07,2.1521406215707596e-08,4.4124269450891707e-10
1668680965.7918715,79003,1668680965,791673338,,0.00047751352332573306,-0.0005623986880161285,-2.0626909670686965e-09,-1.8006571956138806e-07,1.983010943760693e-08,4.2019738686824293e-10
1668680965.8000898,79004,1668680965,799922090,,0.0005484058713334509,-0.000645920876916358,-2.6897313480079547e-09,-1.7608085597414083e-07,1.8152509680186604e-08,3.9926463480874363e-10
1668680965.8078754,79005,1668680965,807652399,,0.0006248999626139322,-0.0007360414994686856,-3.4516840159224805e-09,-1.7211466672615463e-07,1.648918710565341e-08,3.7844611645854176e-10
1668680965.8155105,79006,1668680965,815319129,,0.0007070305793330082,-0.0008328014422448942,-4.36586127036034e-09,-1.681689974567223e-07,1.4840754117615264e-08,3.577434754681308e-10
1668680965.8235986,79007,1668680965,823438133,,0.0007948183782140089,-0.0009362249438611872,-5.45008036188234e-09,-1.6424578528497281e-07,1.3207853848066901e-08,3.371583277324286e-10
1668680965.8318827,79008,1668680965,831771164,,0.000888270952824232,-0.0010463208465609512,-6.722508515518688e-09,-1.6034705358168916e-07,1.1591158355574616e-08,3.1669224881403224e-10
1668680965.839723,79009,1668680965,839579855,,0.0009873838376627995,-0.0011630837792069263,-8.201505059849254e-09,-1.5647490603681664e-07,9.991366599481776e-09,2.9634678651996316e-10
1668680965.8477042,79010,1668680965,847521036,,0.0010921414566720277,-0.0012864952747618944,-9.905463879642788e-09,-1.5263152009494055e-07,8.40920219961509e-09,2.7612345005964545e-10
1668680965.8553488,79011,1668680965,855200749,,0.0012025180186985924,-0.0014165248252236817,-1.1852657413256306e-08,-1.488191399439541e-07,6.8454110267130515e-09,2.560237334636728e-10
1668680965.864065,79012,1668680965,863862995,,0.001318478362334044,-0.0015531308768699501,-1.4061084808220263e-08,-1.4504006903019913e-07,5.300758653608922e-09,2.36049103874425e-10
1668680965.8718965,79013,1668680965,871694589,,0.0014399787524730847,-0.0016962617685591702,-1.6548325763023893e-08,-1.4129666229014583e-07,3.776027703841431e-09,2.1620099851030194e-10
1668680965.8808677,79014,1668680965,880497564,,0.0015669676308375652,-0.001845856615731066,-1.93314011520731e-08,-1.3759131813554837e-07,2.2720151178322193e-09,1.9648083854351128e-10
1668680965.8882027,79015,1668680965,888013310,,0.0016993863226276462,-0.0020018461426471825,-2.242664210815672e-08,-1.3392647030357173e-07,7.895293655917892e-10,1.7689001955908945e-10
1668680965.896766,79016,1668680965,896569120,,0.001837169701376197,-0.0021641534653139656,-2.584956843749489e-08,-1.3030457958673806e-07,-6.706123578540182e-10,1.5742991806011464e-10
1668680965.9039834,79017,1668680965,903777347,,0.0019802468140017837,-0.0023326948274361315,-2.9614777030625693e-08,-1.267281255737897e-07,-2.107586939375356e-09,1.381018997076433e-10
1668680965.9125395,79018,1668680965,912383950,,0.0021285414679751936,-0.0025073802916539796,-3.373584077016578e-08,-1.2319959846770318e-07,-3.520568156296336e-09,1.1890731108077368e-10
1668680965.9203095,79019,1668680965,920163182,,0.0022819727824378703,-0.002688114388229596,-3.822521876916752e-08,-1.1972149093286504e-07,-4.9087294063483375e-09,9.984748791658227e-11
1668680965.9276903,79020,1668680965,927541319,,0.002440455705036428,-0.0028747967232600003,-4.309417781704818e-08,-1.1629629019543924e-07,-6.271246428082335e-09,8.092377202367773e-11
1668680965.9355507,79021,1668680965,935350834,,0.002603901496165067,-0.0030673225484102234,-4.835272536281039e-08,-1.1292647024811617e-07,-7.60729991452797e-09,6.213746964883748e-11
1668680965.9435494,79022,1668680965,943427546,,0.0027722181822384304,-0.003265583294079065,-5.400955363371209e-08,-1.0961448437128609e-07,-8.916078058574992e-09,4.3489913927052815e-11
1668680965.9517307,79023,1668680965,951540946,,0.0029453109795491775,-0.003469467067830405,-6.00719952840922e-08,-1.0636275788791907e-07,-1.0196779011374581e-08,2.4982405900930704e-11
1668680965.9599743,79024,1668680965,959822200,,0.0031230826902010583,-0.0036788591198477767,-6.654599001680881e-08,-1.0317368122371564e-07,-1.1448613215081635e-08,6.616272633930276e-12
1668680965.9676728,79025,1668680965,967521296,,0.0033054340715435834,-0.0038936422770951907,-7.343606168890684e-08,-1.000496032848677e-07,-1.2670805642775798e-08,-1.160716661674499e-11
1668680965.9755578,79026,1668680965,975426777,,0.003492264180474974,-0.004113697347797255,-8.074530572942117e-08,-9.699282521772961e-08,-1.3862597899184492e-08,-2.968658912444466e-11
1668680965.9870844,79027,1668680965,983729062,,0.0036834706939212303,-0.0043389034977818165,-8.84753863849901e-08,-9.400559447761566e-08,-1.502325022088684e-08,-4.7620660886815713e-11
1668680965.9920382,79028,1668680965,991824460,,0.0038789502067420006,-0.004569138600162517,-9.662654297874066e-08,-9.109009931937255e-08,-1.6152043336018548e-08,-6.540802795218514e-11
1668680966.0000396,79029,1668680965,999853488,,0.004078598508260323,-0.004804279559775199,-1.0519760506853558e-07,-8.824846360907894e-08,-1.72482801899423e-08,-8.304735198139124e-11
1668680966.0078335,79030,1668680966,7677178,,0.00428231083856024,-0.005044202613718989,-1.1418601530747016e-07,-8.548274206005436e-08,-1.8311287538537056e-08,-1.0053725386927059e-10
1668680966.0157266,79031,1668680966,15487537,,0.004489982125645613,-0.005288783609294519,-1.2358785997203738e-07,-8.279491587661616e-08,-1.9340417419189343e-08,-1.1787635798010676e-10
1668680966.0239112,79032,1668680966,23655976,,0.004701507204504994,-0.005537898260574532,-1.3339790588329783e-07,-8.018688871370527e-08,-2.033504849203267e-08,-1.3506326092260768e-10
1668680966.0320318,79033,1668680966,31817517,,0.004916781019080212,-0.005791422384784932,-1.4360964388871737e-07,-7.76604830741908e-08,-2.129458722498049e-08,-1.520965350193526e-10
1668680966.039943,79034,1668680966,39781739,,0.005135698808091195,-0.006049232119624078,-1.542153373071352e-07,-7.521743705577561e-08,-2.221846898169599e-08,-1.6897474912347388e-10
1668680966.047881,79035,1668680966,47711140,,0.00535815627562601,-0.006311204122593746,-1.6520607544374922e-07,-7.28594015017266e-08,-2.310615897232896e-08,-1.8569644606725166e-10
1668680966.0560222,79036,1668680966,55793833,,0.0055840497473632995,-0.006577215753367896,-1.7657183116550378e-07,-7.058793745562874e-08,-2.395715305734329e-08,-2.0226013051904967e-10
1668680966.0636263,79037,1668680966,63333420,,0.005813276313253998,-0.006847145240177561,-1.883015220666026e-07,-6.840451402340619e-08,-2.4770978483690254e-08,-2.1866429500416729e-10
1668680966.0724533,79038,1668680966,72247936,,0.006045733957450451,-0.007120871831143741,-2.0038307459550845e-07,-6.631050652157271e-08,-2.5547194461902206e-08,-2.3490741123122216e-10
1668680966.0804493,79039,1668680966,80290997,,0.00628132167623424,-0.00739827593144692,-2.1280349042278197e-07,-6.430719501347747e-08,-2.628539263961789e-08,-2.509879040712981e-10
1668680966.0884652,79040,1668680966,88289982,,0.0065199395846575955,-0.007679239227179595,-2.255489148463656e-07,-6.239576310944556e-08,-2.6985197477014545e-08,-2.6690419145658506e-10
1668680966.0958347,79041,1668680966,95653421,,0.0067614890125800966,-0.007963644796687477,-2.386047063771799e-07,-6.057729707798973e-08,-2.764626653409437e-08,-2.8265465835952686e-10
1668680966.104637,79042,1668680966,104469951,,0.007005872590747911,-0.008251377210166402,-2.5195550713523103e-07,-5.885278527241651e-08,-2.8268290634724316e-08,-2.9823766373171523e-10
1668680966.1124284,79043,1668680966,112299578,,0.007252994327533065,-0.008542322618244384,-2.655853137777335e-07,-5.722311778743228e-08,-2.8850993942042356e-08,-3.136515179524846e-10
1668680966.1197565,79044,1668680966,119635723,,0.007502759676918142,-0.00883636883024223,-2.794775482457691e-07,-5.5689086391854975e-08,-2.9394133986267255e-08,-3.2889452272755193e-10
1668680966.1278698,79045,1668680966,127725062,,0.0077550755982839946,-0.0091334053827723,-2.936151280939724e-07,-5.4251384710814264e-08,-2.989750155036946e-08,-3.4396496068067606e-10
1668680966.1352623,79046,1668680966,135093770,,0.008009850608529856,-0.00943332359930197,-3.079805358890406e-07,-5.29106086178397e-08,-3.0360920509500764e-08,-3.588610589244645e-10
1668680966.1437972,79047,1668680966,143591114,,0.00826699482702827,-0.009736016641275717,-3.2255588770794644e-07,-5.166725686484995e-08,-3.078424764152996e-08,-3.7358102375484314e-10
1668680966.1517286,79048,1668680966,151606986,,0.00852642001389185,-0.010041379551361236,-3.373230001246916e-07,-5.052173186561085e-08,-3.116737228161604e-08,-3.88123044120503e-10
1668680966.1597896,79049,1668680966,159617037,,0.008788039602004557,-0.0103493092893543,-3.522634553442071e-07,-4.9474340726811655e-08,-3.1510215993694937e-08,-4.024852742756657e-10
1668680966.167777,79050,1668680966,167673847,,0.009051768723246601,-0.010659704761250515,-3.6735866455224235e-07,-4.852529638161196e-08,-3.181273214552648e-08,-4.166658441884241e-10
1668680966.1764653,79051,1668680966,176210928,,0.009317524229319704,-0.010972466841964821,-3.8258992907068013e-07,-4.767471891919885e-08,-3.2074905464063094e-08,-4.3066283178516684e-10
1668680966.183653,79052,1668680966,183428246,,0.009585224707557499,-0.01128749839215428,-3.979384992802393e-07,-4.692263704761954e-08,-3.229675151454484e-08,-4.444743219311764e-10
1668680966.1919153,79053,1668680966,191693485,,0.009854790492086325,-0.011604704269576676,-4.1338563087469784e-07,-4.6268989650831253e-08,-3.2478316119421285e-08,-4.580983682667128e-10
1668680966.199657,79054,1668680966,199514252,,0.01012614367068121,-0.011923991335391269,-4.28912638556235e-07,-4.571362755074657e-08,-3.2619674822809835e-08,-4.715329723903317e-10
1668680966.2077217,79055,1668680966,207533216,,0.010399208087643257,-0.012245268455789025,-4.4450094720263896e-07,-4.52563152665412e-08,-3.272093221351989e-08,-4.847761532478234e-10
1668680966.2157042,79056,1668680966,215554787,,0.010673909343006934,-0.012568446499316592,-4.601321400164728e-07,-4.4896732942311226e-08,-3.278222130570236e-08,-4.978258742738273e-10
1668680966.2234476,79057,1668680966,223263714,,0.01095017478836879,-0.012893438330238703,-4.7578800389877216e-07,-4.463447829988385e-08,-3.2803702863174865e-08,-5.106800954335355e-10
1668680966.2316089,79058,1668680966,231424166,,0.011227933519611913,-0.013220158798263383,-4.914505720289099e-07,-4.446906874005542e-08,-3.278556466406162e-08,-5.233367628143526e-10
1668680966.239758,79059,1668680966,239642278,,0.011507116366786337,-0.01354852472493787,-5.071021633025213e-07,-4.43999434044458e-08,-3.272802079682096e-08,-5.357937704619786e-10
1668680966.2480435,79060,1668680966,247867031,,0.011787655881389268,-0.013878454887003618,-5.227254190408158e-07,-4.442646534775162e-08,-3.263131094076877e-08,-5.480490505860303e-10
1668680966.2557833,79061,1668680966,255634360,,0.01206948632127587,-0.014209869996982162,-5.383033366192295e-07,-4.454792380050336e-08,-3.2495699577484057e-08,-5.60100472946079e-10
1668680966.2634141,79062,1668680966,263237932,,0.012352543633417278,-0.014542692681249449,-5.538193003698219e-07,-4.47635363469835e-08,-3.2321475276916e-08,-5.719459073016964e-10
1668680966.2718706,79063,1668680966,271748906,,0.012636765434709818,-0.014876847455839162,-5.6925710963622e-07,-4.507245123105356e-08,-3.21089498920386e-08,-5.835832303513477e-10
1668680966.279803,79064,1668680966,279678240,,0.012922090991027427,-0.015212260700201,-5.846010038221175e-07,-4.547374958619528e-08,-3.1858457825930005e-08,-5.950102806295821e-10
1668680966.287893,79065,1668680966,287689855,,0.013208461194697027,-0.015548860629127614,-5.998356849624772e-07,-4.596644779923404e-08,-3.1570355179372754e-08,-6.062249070792891e-10
1668680966.29535,79066,1668680966,295216967,,0.01349581854056596,-0.015886577263049814,-6.149463372980339e-07,-4.654949981245239e-08,-3.124501910304299e-08,-6.172249447655709e-10
1668680966.3037276,79067,1668680966,303597488,,0.013784107100820144,-0.016225342396886413,-6.299186446275232e-07,-4.7221799333736205e-08,-3.088284688461222e-08,-6.280082252840824e-10
1668680966.311817,79068,1668680966,311659889,,0.014073272498700707,-0.016565089567625407,-6.447388047754823e-07,-4.7982182253207117e-08,-3.048425528749243e-08,-6.385725802304787e-10
1668680966.3205202,79069,1668680966,320002126,,0.014363261881258886,-0.016905754020799125,-6.593935419184704e-07,-4.882942884564369e-08,-3.004967975806742e-08,-6.489158689559904e-10
1668680966.3282719,79070,1668680966,328042851,,0.014654023891278182,-0.01724727267600729,-6.738701165668273e-07,-4.9762266066577694e-08,-2.9579573593676092e-08,-6.59035888361803e-10
1668680966.3356578,79071,1668680966,335445861,,0.014945508638485433,-0.017589584091632308,-6.881563330757191e-07,-5.077936981450902e-08,-2.907440730282474e-08,-6.689304873908064e-10
1668680966.3434558,79072,1668680966,343258346,,0.015237667670163725,-0.0179326284288779,-7.022405451863093e-07,-5.1879367111344697e-08,-2.8534667796046957e-08,-6.785975115164433e-10
1668680966.3517246,79073,1668680966,351590008,,0.015530453941272414,-0.0182763474152579,-7.161116595452304e-07,-5.306083836881508e-08,-2.7960857684207995e-08,-6.880348304982853e-10
1668680966.3599813,79074,1668680966,359802731,,0.015823821784172472,-0.018620684307649595,-7.297591374004078e-07,-5.432231950459258e-08,-2.7353494529971586e-08,-6.972402794014343e-10
1668680966.3679688,79075,1668680966,367770714,,0.0161177268780478,-0.018965583855019532,-7.431729942700728e-07,-5.5662304055889567e-08,-2.6713110182099813e-08,-7.062117626799314e-10
1668680966.3754141,79076,1668680966,375263353,,0.016412126218107448,-0.01931099226092165,-7.563437979960801e-07,-5.707924537708196e-08,-2.604025004296611e-08,-7.149471431544541e-10
1668680966.383657,79077,1668680966,383552646,,0.01670697808464645,-0.019656857145860292,-7.692626654204208e-07,-5.857155860637068e-08,-2.5335472392988903e-08,-7.234443738513008e-10
1668680966.3917885,79078,1668680966,391666637,,0.017002242012038263,-0.020003127509603095,-7.819212570812946e-07,-6.013762270736141e-08,-2.4599347757674368e-08,-7.31701324530043e-10
1668680966.399757,79079,1668680966,399598993,,0.01729787875772479,-0.020349753693523192,-7.943117710808429e-07,-6.177578249698347e-08,-2.383245819356089e-08,-7.397159620947669e-10
1668680966.4080215,79080,1668680966,407852841,,0.017593850271266313,-0.020696687343043127,-8.064269353458047e-07,-6.348435054639437e-08,-2.303539673516753e-08,-7.474862673273464e-10
1668680966.415382,79081,1668680966,415272333,,0.01789011966350717,-0.021043881370247833,-8.182599987433894e-07,-6.526160906610923e-08,-2.220876668733527e-08,-7.550102210096554e-10
1668680966.4236479,79082,1668680966,423531753,,0.018186651175909653,-0.02139128991672699,-8.298047212632872e-07,-6.710581182232814e-08,-2.135318107651229e-08,-7.622858733125071e-10
1668680966.4316175,79083,1668680966,431467045,,0.01848341015010305,-0.02173886831670389,-8.410553630276264e-07,-6.901518586070916e-08,-2.046926201888094e-08,-7.693112466511387e-10
1668680966.440187,79084,1668680966,440067336,,0.018780362997691428,-0.022086573060501675,-8.520066727064039e-07,-7.098793332826168e-08,-1.9557640190833413e-08,-7.760844258908328e-10
1668680966.447772,79085,1668680966,447618532,,0.01907747717035937,-0.022434361758393466,-8.626538747495461e-07,-7.302223320405834e-08,-1.8618954245128855e-08,-7.826035375302354e-10
1668680966.456067,79086,1668680966,455921024,,0.01937472113031132,-0.022782193104878532,-8.729926564105432e-07,-7.511624288715751e-08,-1.765385023279678e-08,-7.888667635791435e-10
1668680966.463832,79087,1668680966,463658965,,0.01967206432107696,-0.02313002684342304,-8.830191535680188e-07,-7.726809994135567e-08,-1.666298113953222e-08,-7.948722582917789e-10
1668680966.4723802,79088,1668680966,471731468,,0.019969477138711157,-0.023477823731699484,-8.927299366224435e-07,-7.947592358542328e-08,-1.564700635833978e-08,-8.006182661279837e-10
1668680966.480246,79089,1668680966,480109034,,0.02026693090341466,-0.02382554550735499,-9.021219956527206e-07,-8.173781624595334e-08,-1.4606591157949322e-08,-8.061030801198577e-10
1668680966.4878328,79090,1668680966,487672233,,0.020564397831598354,-0.0241731548543372,-9.111927250937063e-07,-8.405186511183625e-08,-1.3542406189287134e-08,-8.113249863606065e-10
1668680966.4957092,79091,1668680966,495591617,,0.020861851008411675,-0.024520615369800266,-9.199399082218603e-07,-8.641614352366492e-08,-1.2455127127147109e-08,-8.162823819657383e-10
1668680966.5034482,79092,1668680966,503268622,,0.02115926436075257,-0.024867891531613676,-9.283617016137988e-07,-8.88287123881849e-08,-1.1345434075505853e-08,-8.209736432340797e-10
1668680966.5120025,79093,1668680966,511852930,,0.021456612630774866,-0.02521494866649115,-9.364566190996419e-07,-9.128762152151243e-08,-1.0214011238358911e-08,-8.253972574867596e-10
1668680966.5196817,79094,1668680966,519553595,,0.021753871349905834,-0.02556175291875621,-9.442235156715029e-07,-9.379091104905635e-08,-9.061546438443417e-09,-8.295517606171643e-10
1668680966.5275943,79095,1668680966,527408227,,0.022051016813385876,-0.025908271219757514,-9.516615716466771e-07,-9.633661259000892e-08,-7.888730736899975e-09,-8.334357023964678e-10
1668680966.5358126,79096,1668680966,535547119,,0.022348026055338498,-0.026254471257945517,-9.587702765234545e-07,-9.892275055573213e-08,-6.696258026805263e-09,-8.370476881069955e-10
1668680966.5436502,79097,1668680966,543542085,,0.022644876824379215,-0.026600321449619355,-9.65549412875137e-07,-1.01547343326605e-07,-5.484824641124528e-09,-8.403864340533751e-10
1668680966.5516593,79098,1668680966,551537851,,0.02312913867006583,-0.027169693638817494,0.0001202756550571791,-1.0892791273180635e-07,-2.634484772261886e-09,-8.421308025918783e-10
1668680966.5598912,79099,1668680966,559670699,,0.023696438331799113,-0.027886017244690656,0.00045503908794930004,-1.1888855083334914e-07,1.1095486883872657e-09,-8.427804218391621e-10
1668680966.5680826,79100,1668680966,567916113,,0.024293264803273762,-0.02865892554303532,0.0008806616748035798,-1.2998993165810185e-07,5.254182540220462e-09,-8.426887868062671e-10
1668680966.5756912,79101,1668680966,575579526,,0.0249533257520702,-0.02954726228705648,0.0012257607105812791,-1.433164799453609e-07,1.0172323021027593e-08,-8.414847221804855e-10
1668680966.5836987,79102,1668680966,583480045,,0.02562904446588048,-0.030469284956858703,0.0015173512918705695,-1.57507578297134e-07,1.5397915870954057e-08,-8.395270728600579e-10
1668680966.5915604,79103,1668680966,591450359,,0.026271462961443802,-0.03134086531529387,0.001782916884707642,-1.710195531614265e-07,2.0401565930562582e-08,-8.372843945947395e-10
1668680966.5999362,79104,1668680966,599760775,,0.026925189722436734,-0.03224331667450771,0.0019590678141535537,-1.852756305848022e-07,2.5671726688663785e-08,-8.342886173573483e-10
1668680966.6078742,79105,1668680966,607679914,,0.02776735641694434,-0.03327510093199713,0.002058152794231455,-2.0482093524004782e-07,3.2769107465501976e-08,-8.289312361520196e-10
1668680966.615289,79106,1668680966,615186259,,0.028677564493526056,-0.03433966558366288,0.0021139341877721373,-2.2663959203784133e-07,4.066123092264298e-08,-8.221086172932601e-10
1668680966.6236632,79107,1668680966,623544024,,0.029532072135913117,-0.03533731846065575,0.00216115361936281,-2.4726691630339026e-07,4.816041218819525e-08,-8.150043279142594e-10
1668680966.6325357,79108,1668680966,632272054,,0.03051159579532059,-0.03644125900501441,0.0022455809666690188,-2.7216213872681546e-07,5.7140027543301636e-08,-8.055675987383992e-10
1668680966.6397526,79109,1668680966,639613974,,0.031601609917529326,-0.0375756114421073,0.002421758947536468,-3.0066181352889987e-07,6.737497696101928e-08,-7.938887325309452e-10
1668680966.6477056,79110,1668680966,647565412,,0.03270957093494363,-0.03868776700830702,0.0026336971101748024,-3.302343010104427e-07,7.799899126971835e-08,-7.808329122171997e-10
1668680966.6555955,79111,1668680966,655395665,,0.034356799207476044,-0.03967703683890488,0.0027190132264951076,-3.736871042441794e-07,9.340757673218479e-08,-7.610042457306676e-10
1668680966.6643934,79112,1668680966,663993997,,0.03588151699247575,-0.04059779147558648,0.0027922434916437216,-4.147980007702945e-07,1.080438655884277e-07,-7.407797014691297e-10
1668680966.6715195,79113,1668680966,671369005,,0.03761689384384215,-0.04143014383500022,0.0027987867595924702,-4.6238920191734104e-07,1.2493406418190474e-07,-7.162970633300958e-10
1668680966.6796846,79114,1668680966,679547083,,0.039727955324693885,-0.04275349951947761,0.002666559129489606,-5.273737546594411e-07,1.4782616166103893e-07,-6.822468423539618e-10
1668680966.687814,79115,1668680966,687617455,,0.041606822430151014,-0.04583300589479285,0.0015123823097746077,-6.053627409404599e-07,1.752271184031224e-07,-6.398498536563935e-10
1668680966.695443,79116,1668680966,695314247,,0.043298701268970015,-0.049650731401047275,-9.708410958370665e-05,-6.88386914255725e-07,2.044153322524906e-07,-5.922607959618631e-10
1668680966.7039173,79117,1668680966,703778709,,0.044849477396630824,-0.05315964522879208,-0.0015792387526160061,-7.6661299882653e-07,2.320267756862355e-07,-5.440333739059611e-10
1668680966.7117612,79118,1668680966,711636925,,0.04611324860618545,-0.05730255113424289,-0.0028093038808409618,-8.444400525251883e-07,2.5956960733337225e-07,-4.929778807394314e-10
1668680966.7196784,79119,1668680966,719562199,,0.046812354804064364,-0.061899478587787035,-0.003331681037095352,-9.089628112837018e-07,2.826240481043109e-07,-4.4591864922782776e-10
1668680966.7280426,79120,1668680966,727921053,,0.047202977738638095,-0.0665283388982185,-0.0034861425470065956,-9.633339998269116e-07,3.022627832610647e-07,-4.0171373172359637e-10
1668680966.735606,79121,1668680966,735440733,,0.047147912230203586,-0.07082066539065852,-0.0030331538129647184,-9.968619132213119e-07,3.1481580230327197e-07,-3.669879261591902e-10
1668680966.7434871,79122,1668680966,743265806,,0.046871945564452594,-0.07476332885527744,-0.002298336764791653,-1.0172424147971868e-06,3.2290265471971585e-07,-3.38308075997773e-10
1668680966.7519093,79123,1668680966,751714163,,0.04660605361191154,-0.07834112049463658,-0.0016167925614372777,-1.0330990822614945e-06,3.294663379511953e-07,-3.1112214193829146e-10
1668680966.7599566,79124,1668680966,759750337,,0.04638220019983038,-0.08162434540497428,-0.0007687172278902277,-1.0465342995080555e-06,3.352231579376204e-07,-2.843471014202237e-10
1668680966.7678382,79125,1668680966,767700659,,0.046390620223653735,-0.08444397077231945,0.0002150621860188418,-1.063101561438011e-06,3.4207366828497773e-07,-2.544923022318457e-10
1668680966.776126,79126,1668680966,775917486,,0.04650783030137756,-0.0868967638554585,0.0012275826711896593,-1.0791119450108454e-06,3.4875730572014527e-07,-2.2383279951743162e-10
1668680966.7842152,79127,1668680966,784019873,,0.046606811437731765,-0.0890807637757752,0.0021579959750131035,-1.0906244462555864e-06,3.539236247776002e-07,-1.9510991433602243e-10
1668680966.791754,79128,1668680966,791651003,,0.04702688728657863,-0.0909446960577228,0.0031063614185150496,-1.111023400610805e-06,3.6215359962591884e-07,-1.590593767808457e-10
1668680966.7997844,79129,1668680966,799607612,,0.04764113780917421,-0.09246285070199697,0.0040377382651800384,-1.1348846586929466e-06,3.715981726445418e-07,-1.190898074598934e-10
1668680966.8076904,79130,1668680966,807500416,,0.048322258518473264,-0.09371503815477299,0.004921454142711526,-1.1579723348170484e-06,3.8081017021338037e-07,-7.815074976047498e-11
1668680966.8152442,79131,1668680966,815138903,,0.04902311885433618,-0.09470414108552405,0.005724163274715468,-1.178319238299974e-06,3.8911538792442066e-07,-3.778710677693198e-11
1668680966.82375,79132,1668680966,823568537,,0.049657233184520234,-0.09552740040670825,0.0064523596144283515,-1.1934394253074751e-06,3.956598703972955e-07,-1.2453926778732693e-13
1668680966.831564,79133,1668680966,831460182,,0.05027382629655591,-0.09615557735634735,0.007109333760331805,-1.2050324074160514e-06,4.010205689212662e-07,3.590749919624159e-11
1668680966.839589,79134,1668680966,839441298,,0.05100758240763847,-0.09673106232257593,0.007708818909866565,-1.220886893226955e-06,4.0786174185973925e-07,7.661701828531875e-11
1668680966.8476717,79135,1668680966,847546265,,0.051961446376657755,-0.09753773524936582,0.008333985511422141,-1.249431707892241e-06,4.1907511331117087e-07,1.2953639549895257e-10
1668680966.8556511,79136,1668680966,855326139,,0.05297908482368331,-0.0983835136759716,0.008940233136846686,-1.2813088121904495e-06,4.314695328062543e-07,1.8728427142455928e-10
1668680966.8636937,79137,1668680966,863577413,,0.05389955230237469,-0.09907009396133816,0.009481136204552796,-1.306572051114883e-06,4.416428721265228e-07,2.411360278120611e-10
1668680966.8716793,79138,1668680966,871567171,,0.054466325931006254,-0.09973362496780903,0.010064010558714469,-1.315178028825836e-06,4.461489517839333e-07,2.813818622549036e-10
1668680966.8796291,79139,1668680966,879479826,,0.05475832327547076,-0.10036116687428523,0.010618471345630827,-1.3104062032540022e-06,4.460924364255679e-07,3.100158463276159e-10
1668680966.8879027,79140,1668680966,887775676,,0.05489659168246975,-0.10090277191265189,0.011128218078552821,-1.2971620453310767e-06,4.4313794707621576e-07,3.308921747713356e-10
1668680966.8958154,79141,1668680966,895679911,,0.055107664287112536,-0.10132352316933252,0.011501768491020685,-1.2854838840887887e-06,4.4071344283474687e-07,3.5340408377493304e-10
1668680966.9034526,79142,1668680966,903247701,,0.05533790394512568,-0.10162431717555748,0.011784233533070317,-1.2729252591470478e-06,4.3798281692186344e-07,3.7517236539663656e-10
1668680966.9119089,79143,1668680966,911770012,,0.05553158304107282,-0.1018054386629426,0.012021297178604921,-1.2569519236929096e-06,4.34077015072816e-07,3.93503368778525e-10
1668680966.9208136,79144,1668680966,920509358,,0.055629177169272924,-0.1018256661329108,0.012205935625118553,-1.23432961249986e-06,4.278842037808324e-07,4.0472739049057793e-10
1668680966.9282184,79145,1668680966,928067907,,0.05570251492189229,-0.10155562976472012,0.012483364811150406,-1.2067695284256972e-06,4.1998249922540684e-07,4.1024092456432015e-10
1668680966.9355552,79146,1668680966,935440551,,0.05575308789376961,-0.10111028599257747,0.012783922214492234,-1.1760082331763785e-06,4.109607380851747e-07,4.1162490083124226e-10
1668680966.9433985,79147,1668680966,943230757,,0.05599706573379497,-0.10070218789926226,0.013156399720133521,-1.154790852324122e-06,4.051807112079135e-07,4.230548966699388e-10
1668680966.95165,79148,1668680966,951502908,,0.056204607684867056,-0.10023450843453616,0.013473522946784746,-1.1312290573429985e-06,3.9858135553400356e-07,4.3147943551424817e-10
1668680966.9598563,79149,1668680966,959683556,,0.0565278118168326,-0.09963029875876572,0.01381171332957107,-1.111291774670651e-06,3.9320451061027745e-07,4.437474554475074e-10
1668680966.9681234,79150,1668680966,967898854,,0.0568875243236034,-0.09894081458546489,0.014134580492425372,-1.092024835597726e-06,3.88042364859488e-07,4.565644529108681e-10
1668680966.97565,79151,1668680966,975461989,,0.05705238115120674,-0.09796951799541898,0.014323140114896667,-1.060433247465349e-06,3.7864384783582034e-07,4.541200193663997e-10
1668680966.983795,79152,1668680966,983649030,,0.05710845591206724,-0.09685810724071488,0.014425993050603103,-1.0225042174364036e-06,3.67045404266967e-07,4.4301165513793705e-10
1668680966.9915988,79153,1668680966,991472953,,0.057143274163026815,-0.09575235425284763,0.01449218049369927,-9.841843403877787e-07,3.55276815135544e-07,4.3032810648213626e-10
1668680966.99963,79154,1668680966,999504960,,0.05716205347328495,-0.09464249328665017,0.014445799214728222,-9.456026896622e-07,3.4338185354127956e-07,4.162060973644799e-10
1668680967.0096016,79155,1668680967,7638208,,0.05712212307855715,-0.09349067696465603,0.014377519387155507,-9.044259453079182e-07,3.305607115108508e-07,3.9757139247420525e-10
1668680967.0163195,79156,1668680967,16109587,,0.05704804881435588,-0.09232765341081364,0.014288002322878504,-8.622015028094667e-07,3.173406036846918e-07,3.76308637028977e-10
1668680967.023306,79157,1668680967,23172474,,0.057129540026555174,-0.09129837208769205,0.014337685511216483,-8.289794959959488e-07,3.0716448958575254e-07,3.6593958419040007e-10
1668680967.0316484,79158,1668680967,31538335,,0.057190004809830344,-0.0902812976445722,0.01435508110170746,-7.954030551017132e-07,2.96836184638348e-07,3.541928833561414e-10
1668680967.039714,79159,1668680967,39568252,,0.05721756776630906,-0.08950993749424535,0.01445003006176419,-7.637338511558203e-07,2.871303969912385e-07,3.4419739280977524e-10
1668680967.048181,79160,1668680967,48021330,,0.05722170948337901,-0.08885749768001817,0.014565821682773998,-7.328097147579499e-07,2.776509704311217e-07,3.3442512648029776e-10
1668680967.05577,79161,1668680967,55568489,,0.05741154354861138,-0.08823418793386532,0.014717332852231283,-7.104932727722496e-07,2.710937060776582e-07,3.362299189069162e-10
1668680967.0642061,79162,1668680967,63956589,,0.05757293146271009,-0.08759868554521115,0.014827803831529195,-6.870139106135214e-07,2.641192082758828e-07,3.358968936328921e-10
1668680967.0716593,79163,1668680967,71492040,,0.05781360338067857,-0.08697521204791327,0.014939170987347905,-6.672603083193729e-07,2.5840183232603633e-07,3.4058605935527453e-10
1668680967.0800002,79164,1668680967,79864486,,0.05780599858716486,-0.08622324232436536,0.014971668717141543,-6.356625003187339e-07,2.486084217123187e-07,3.271375392799314e-10
1668680967.0876803,79165,1668680967,87543514,,0.05787147376543099,-0.08549807965819449,0.014841040112325605,-6.078239045592855e-07,2.4007451719740974e-07,3.1856001170282866e-10
1668680967.0958536,79166,1668680967,95703929,,0.057964585209060324,-0.08478802840278772,0.014622325468198302,-5.816214310921724e-07,2.3207647251036537e-07,3.1180782955608777e-10
1668680967.1034238,79167,1668680967,103272903,,0.05806032404764195,-0.083914956170568,0.014393460777369615,-5.53992102302254e-07,2.2356596056241976e-07,3.0218288982197805e-10
1668680967.1118233,79168,1668680967,111657735,,0.058136472447521306,-0.08306009203381327,0.014154238419718659,-5.260744817199873e-07,2.1493168794782871e-07,2.9139489432505883e-10
1668680967.1197898,79169,1668680967,119688296,,0.05801531932119202,-0.08221199318043235,0.014030587019285293,-4.903791979669891e-07,2.0360540487754028e-07,2.6738034009099465e-10
1668680967.1277027,79170,1668680967,127573601,,0.0577979140221687,-0.08137765091824609,0.013955067674595062,-4.513652505283355e-07,1.9110730977876453e-07,2.3690566175460503e-10
1668680967.1357548,79171,1668680967,135622731,,0.05773321738324127,-0.08083133729547343,0.014028749607331123,-4.222522899224911e-07,1.819669146101502e-07,2.215560374052572e-10
1668680967.1434255,79172,1668680967,143276972,,0.05774076888544516,-0.08042620428384212,0.014159302484411359,-3.9791605610755947e-07,1.7443793999018242e-07,2.1338651678970422e-10
1668680967.151997,79173,1668680967,151801424,,0.05773837700110795,-0.08001096412514898,0.014251583530703493,-3.733090431138177e-07,1.6679456283762856e-07,2.0415699686360256e-10
1668680967.1597097,79174,1668680967,159588154,,0.05794389525236316,-0.07975950241224103,0.014330672513279302,-3.590819222866774e-07,1.6268909663321937e-07,2.1205620592823493e-10
1668680967.1679275,79175,1668680967,167733678,,0.05790159831686726,-0.07940682522177779,0.014317957478579802,-3.3387056743014107e-07,1.5480556838981183e-07,2.0074862605579114e-10
1668680967.1760764,79176,1668680967,175893027,,0.05773632437005984,-0.07899986300817304,0.01424827698499178,-3.034113224870301e-07,1.4509945451754436e-07,1.7959508880061037e-10
1668680967.1834784,79177,1668680967,183242957,,0.05784312587393556,-0.07854040229156989,0.014115228628253705,-2.836659128387705e-07,1.3903978081201973e-07,1.765320528646086e-10
1668680967.1916704,79178,1668680967,191535765,,0.057934016789476725,-0.07808040530398128,0.013964830943436982,-2.6347474408694536e-07,1.3281021917378039e-07,1.7221971071457176e-10
1668680967.2012887,79179,1668680967,200468644,,0.05813361241859261,-0.07772271315959396,0.01376816083108988,-2.488571698421602e-07,1.2847493665191917e-07,1.7752385672586968e-10
1668680967.2084844,79180,1668680967,208222164,,0.05837510182017535,-0.07741252856186802,0.013543672560507506,-2.3651444567304811e-07,1.2490820794006097e-07,1.8673547430569926e-10
1668680967.2157185,79181,1668680967,215606597,,0.05843612564580142,-0.0770184713147134,0.013350398254273312,-2.1624183641085447e-07,1.1861184981984754e-07,1.8109637400787193e-10
1668680967.223257,79182,1668680967,223156036,,0.0584039289611749,-0.0765834416623388,0.013166967553515402,-1.9206879131583848e-07,1.1095962365679363e-07,1.6765773491744795e-10
1668680967.2318046,79183,1668680967,231692474,,0.05836772695067313,-0.07615123390491438,0.01297204290195955,-1.6804035594248073e-07,1.0333497228601565e-07,1.5382552176479436e-10
1668680967.239819,79184,1668680967,239711442,,0.058326284615748916,-0.07569351554234625,0.012796802871692842,-1.4383228770671868e-07,9.562676142388024e-08,1.389814374697096e-10
1668680967.2476537,79185,1668680967,247511827,,0.05851406646951909,-0.07545328040235855,0.012704458663938215,-1.310140433674915e-07,9.180402376273919e-08,1.4544336568445004e-10
1668680967.2558324,79186,1668680967,255635566,,0.05880368509875681,-0.07531511033050149,0.01264410180506882,-1.2329350729180667e-07,8.971983864181077e-08,1.6161340321563245e-10
1668680967.2633953,79187,1668680967,263218776,,0.058909610590129634,-0.07491167115282997,0.012607949237587205,-1.0584895624777581e-07,8.42942197588209e-08,1.585884062960119e-10
1668680967.2718875,79188,1668680967,271753561,,0.05900155609479971,-0.0745131813847536,0.01254975360839733,-8.80894927090094e-08,7.874520668426505e-08,1.5450250800963516e-10
1668680967.2798846,79189,1668680967,279682565,,0.05900397828750499,-0.07391999976949103,0.012455471685366946,-6.516878333642177e-08,7.1409555710885e-08,1.395893539646309e-10
1668680967.2878165,79190,1668680967,287663958,,0.05896045029975607,-0.07324331106352401,0.012335484029668595,-3.996721740704128e-08,6.327009763936603e-08,1.1937907606895948e-10
1668680967.2956553,79191,1668680967,295519809,,0.05909803613826738,-0.07272641078923156,0.0121144829973543,-2.3618923331242617e-08,5.814497596942636e-08,1.1654197051846893e-10
1668680967.3035347,79192,1668680967,303369642,,0.05931643577726374,-0.07229708008139799,0.01184176300207382,-1.1408538652842026e-08,5.442527747359302e-08,1.2184044051455345e-10
1668680967.3117847,79193,1668680967,311625812,,0.05951306990273066,-0.07188104255422144,0.01156721104090098,1.378845796763152e-09,5.049724208575079e-08,1.2566687968007528e-10
1668680967.3197489,79194,1668680967,319584390,,0.05967680745804238,-0.07148483364888603,0.011252352482687258,1.5106065676226584e-08,4.623568822031618e-08,1.2721484976552233e-10
1668680967.3276374,79195,1668680967,327495585,,0.05979976176558581,-0.07103300986189882,0.011045754713452793,3.076096183286456e-08,4.130057328858433e-08,1.243198599620854e-10
1668680967.3357024,79196,1668680967,335549991,,0.05989628789823015,-0.07056334797444822,0.01088925485242889,4.7407899709433e-08,3.601092246011822e-08,1.1886880368905395e-10
1668680967.3435352,79197,1668680967,343391615,,0.06020577822185166,-0.07036104650077495,0.010797860608996037,5.323264472571667e-08,3.442014977206309e-08,1.3638422335926492e-10
1668680967.351672,79198,1668680967,351534006,,0.06048634823959345,-0.07015897195634554,0.010692373135109649,6.00967067508661e-08,3.2468456640736415e-08,1.5157405885979358e-10
1668680967.3603024,79199,1668680967,360011274,,0.06098793853615638,-0.06983801768648178,0.010996021885551424,5.9430823345159485e-08,3.30956118539151e-08,1.8326515305311375e-10
1668680967.367681,79200,1668680967,367543813,,0.06157606006206836,-0.06946446725648767,0.011477325410135585,5.5827304232388894e-08,3.4733122932038146e-08,2.2168243629661077e-10
1668680967.3755248,79201,1668680967,375261917,,0.06201634974030491,-0.06896648260811804,0.011834347715073626,5.904329865010025e-08,3.403546268865992e-08,2.4510081464423905e-10
