Time,header.seq,header.stamp.secs,header.stamp.nsecs,header.frame_id,pose.position.x,pose.position.y,pose.position.z,pose.orientation.x,pose.orientation.y,pose.orientation.z,pose.orientation.w
1668680964.7607863,78874,1668680964,760361377,,-0.0987978594752513,-0.6160097985090833,0.07819229672251261,0.9955612171218718,0.09352316518582175,-0.004347557376751802,0.009611414115443638
1668680964.7676628,78875,1668680964,767525676,,-0.09879796103425817,-0.6160097985015263,0.07819229672225025,0.9955612170942967,0.09352316519812197,-0.004347558608460134,0.009611416294885468
1668680964.7754433,78876,1668680964,775342305,,-0.09879805500150111,-0.6160097984941549,0.07819229672199396,0.9955612170667602,0.09352316521033276,-0.0043475598351011635,0.009611418473482514
1668680964.7836845,78877,1668680964,783551438,,-0.09879814179147262,-0.6160097984869687,0.07819229672174406,0.9955612170392656,0.09352316522245317,-0.004347561056558119,0.009611420650962755
1668680964.791838,78878,1668680964,791630589,,-0.09879822180007226,-0.6160097984799666,0.07819229672150012,0.995561217011816,0.09352316523448252,-0.004347562272715792,0.009611422827056303
1668680964.7996426,78879,1668680964,799550611,,-0.0987982954052957,-0.6160097984731483,0.07819229672126228,0.9955612169844148,0.09352316524641982,-0.004347563483460404,0.009611425001495371
1668680964.8080168,78880,1668680964,807899869,,-0.09879836296790222,-0.6160097984665125,0.07819229672103041,0.9955612169570648,0.09352316525826472,-0.004347564688680095,0.009611427174015088
1668680964.8152647,78881,1668680964,815171824,,-0.09879842483206701,-0.6160097984600571,0.07819229672080473,0.9955612169297693,0.09352316527001585,-0.004347565888264462,0.009611429344352334
1668680964.8236792,78882,1668680964,823544736,,-0.09879848132601074,-0.616009798453781,0.0781922967205851,0.9955612169025313,0.09352316528167268,-0.004347567082104617,0.00961143151224688
1668680964.8319347,78883,1668680964,831803384,,-0.09879853276261387,-0.6160097984476827,0.07819229672037148,0.9955612168753538,0.09352316529323454,-0.004347568270093411,0.009611433677440646
1668680964.8399591,78884,1668680964,839846091,,-0.09879857944001094,-0.6160097984417591,0.07819229672016349,0.99556121684824,0.09352316530470083,-0.004347569452125078,0.009611435839677537
1668680964.8482466,78885,1668680964,848081574,,-0.09879862164216818,-0.6160097984360086,0.07819229671996154,0.9955612168211927,0.09352316531607041,-0.004347570628095699,0.00961143799870462
1668680964.8561354,78886,1668680964,856014770,,-0.09879865963944223,-0.6160097984304288,0.07819229671976517,0.9955612167942148,0.09352316532734294,-0.004347571797902881,0.00961144015427098
1668680964.863819,78887,1668680964,863514310,,-0.09879869368912249,-0.6160097984250168,0.07819229671957455,0.9955612167673091,0.09352316533851779,-0.004347572961445775,0.0096114423061279
1668680964.8717196,78888,1668680964,871542153,,-0.09879872403595624,-0.6160097984197702,0.07819229671938953,0.9955612167404788,0.09352316534959414,-0.004347574118625134,0.009611444454029679
1668680964.8799887,78889,1668680964,879814198,,-0.09879875091265661,-0.6160097984146864,0.07819229671920985,0.9955612167137265,0.09352316536057141,-0.00434757526934345,0.009611446597732642
1668680964.8877673,78890,1668680964,887597127,,-0.09879877454039412,-0.616009798409762,0.07819229671903594,0.9955612166870551,0.09352316537144884,-0.004347576413504554,0.009611448736995811
1668680964.8954687,78891,1668680964,895286221,,-0.09879879512927299,-0.6160097984049949,0.07819229671886707,0.9955612166604674,0.09352316538222612,-0.004347577551014031,0.009611450871580345
1668680964.9038541,78892,1668680964,903639033,,-0.09879881287879091,-0.6160097984003808,0.07819229671870331,0.9955612166339658,0.0935231653929024,-0.0043475786817791535,0.00961145300125024
1668680964.9117386,78893,1668680964,911627237,,-0.09879882797828335,-0.616009798395918,0.07819229671854488,0.9955612166075535,0.0935231654034773,-0.004347579805708745,0.009611455125772187
1668680964.9197903,78894,1668680964,919516815,,-0.09879884060735304,-0.6160097983916026,0.07819229671839148,0.9955612165812329,0.0935231654139502,-0.0043475809227131335,0.009611457244914865
1668680964.9278526,78895,1668680964,927615907,,-0.0987988509362851,-0.6160097983874318,0.07819229671824304,0.9955612165550067,0.09352316542432026,-0.004347582032704299,0.00961145935844978
1668680964.9358706,78896,1668680964,935739824,,-0.09879885912644691,-0.6160097983834021,0.0781922967180993,0.9955612165288775,0.09352316543458751,-0.004347583135595808,0.009611461466150663
1668680964.943873,78897,1668680964,943685202,,-0.09879886533067438,-0.6160097983795102,0.07819229671796027,0.9955612165028479,0.09352316544475113,-0.004347584231302805,0.009611463567794328
1668680964.9518049,78898,1668680964,951684476,,-0.09879886969364532,-0.6160097983757532,0.07819229671782588,0.9955612164769204,0.0935231654548106,-0.004347585319742101,0.009611465663159739
1668680964.9597425,78899,1668680964,959640880,,-0.09879887235223746,-0.6160097983721277,0.07819229671769622,0.9955612164510975,0.09352316546476566,-0.004347586400832079,0.009611467752028563
1668680964.9678938,78900,1668680964,967692860,,-0.09879887343587578,-0.6160097983686303,0.07819229671757066,0.9955612164253819,0.09352316547461574,-0.004347587474492687,0.00961146983418484
1668680964.9754086,78901,1668680964,975308364,,-0.09879887306686583,-0.6160097983652583,0.07819229671744972,0.9955612163997756,0.09352316548436043,-0.00434758854064551,0.009611471909415546
1668680964.9837658,78902,1668680964,983625139,,-0.09879887136071429,-0.6160097983620078,0.07819229671733265,0.9955612163742813,0.09352316549399932,-0.004347589599213549,0.009611473977509763
1668680964.9918773,78903,1668680964,991696524,,-0.09879886842643935,-0.6160097983588756,0.07819229671721994,0.9955612163489014,0.09352316550353214,-0.004347590650121438,0.009611476038259391
1668680964.999925,78904,1668680964,999725535,,-0.09879886436686794,-0.6160097983558592,0.0781922967171112,0.995561216323638,0.09352316551295839,-0.004347591693295579,0.009611478091459324
1668680965.008038,78905,1668680965,7832598,,-0.09879885927892167,-0.6160097983529547,0.07819229671700628,0.9955612162984937,0.09352316552227768,-0.004347592728663804,0.009611480136906358
1668680965.0154083,78906,1668680965,15321464,,-0.09879885325389275,-0.6160097983501595,0.0781922967169053,0.9955612162734706,0.09352316553148984,-0.004347593756155457,0.009611482174400192
1668680965.0239146,78907,1668680965,23781030,,-0.09879884637770855,-0.61600979834747,0.07819229671680784,0.9955612162485711,0.09352316554059431,-0.004347594775701612,0.009611484203743201
1668680965.0318182,78908,1668680965,31666783,,-0.09879883873118636,-0.6160097983448838,0.07819229671671404,0.9955612162237972,0.09352316554959089,-0.004347595787234842,0.009611486224740406
1668680965.0395186,78909,1668680965,39406302,,-0.09879883039027673,-0.6160097983423972,0.0781922967166238,0.9955612161991512,0.09352316555847927,-0.004347596790689186,0.009611488237199312
1668680965.047897,78910,1668680965,47772465,,-0.09879882142629924,-0.6160097983400076,0.0781922967165369,0.9955612161746352,0.0935231655672593,-0.004347597786000367,0.009611490240930038
1668680965.05535,78911,1668680965,55222745,,-0.09879881190616735,-0.616009798337712,0.07819229671645335,0.9955612161502513,0.09352316557593034,-0.004347598773105565,0.009611492235745351
1668680965.0638843,78912,1668680965,63751231,,-0.09879880189260444,-0.6160097983355074,0.07819229671637294,0.9955612161260017,0.0935231655844925,-0.004347599751943613,0.009611494221460648
1668680965.0718687,78913,1668680965,71759592,,-0.09879879144435091,-0.6160097983333906,0.07819229671629573,0.9955612161018882,0.0935231655929454,-0.004347600722454887,0.009611496197894134
1668680965.079649,78914,1668680965,79546661,,-0.09879878061636382,-0.6160097983313596,0.07819229671622133,0.9955612160779129,0.09352316560128913,-0.00434760168458108,0.009611498164866167
1668680965.0875883,78915,1668680965,87483665,,-0.0987987694600066,-0.6160097983294114,0.07819229671614991,0.9955612160540779,0.09352316560952308,-0.004347602638265651,0.009611500122200294
1668680965.095504,78916,1668680965,95348485,,-0.09879875802323242,-0.616009798327543,0.07819229671608147,0.995561216030385,0.09352316561764713,-0.004347603583453566,0.009611502069722618
1668680965.1038644,78917,1668680965,103633558,,-0.09879874635075822,-0.616009798325752,0.0781922967160158,0.9955612160068362,0.09352316562566117,-0.004347604520091212,0.009611504007261502
1668680965.1118262,78918,1668680965,111654784,,-0.09879873448423278,-0.6160097983240356,0.0781922967159526,0.9955612159834334,0.09352316563356519,-0.004347605448126568,0.009611505934648235
1668680965.1197922,78919,1668680965,119675369,,-0.09879872246239699,-0.6160097983223917,0.07819229671589194,0.9955612159601783,0.09352316564135886,-0.004347606367509091,0.009611507851716551
1668680965.127742,78920,1668680965,127568452,,-0.09879871032123674,-0.6160097983208175,0.07819229671583396,0.9955612159370726,0.09352316564904214,-0.004347607278189916,0.009611509758303117
1668680965.1352298,78921,1668680965,135132561,,-0.09879869809413033,-0.6160097983193104,0.07819229671577822,0.9955612159141184,0.09352316565661492,-0.004347608180121336,0.009611511654246936
1668680965.1444213,78922,1668680965,144214705,,-0.09879868581198777,-0.616009798317869,0.07819229671572493,0.9955612158913172,0.09352316566407712,-0.004347609073257425,0.009611513539389941
1668680965.1520264,78923,1668680965,151762391,,-0.09879867350338571,-0.6160097983164896,0.0781922967156739,0.9955612158686709,0.09352316567142849,-0.004347609957553655,0.009611515413576513
1668680965.1599498,78924,1668680965,159751771,,-0.09879866119469481,-0.6160097983151709,0.07819229671562482,0.9955612158461808,0.09352316567866943,-0.00434761083296688,0.009611517276653374
1668680965.1677053,78925,1668680965,167514368,,-0.09879864891020256,-0.6160097983139106,0.07819229671557801,0.9955612158238489,0.09352316568579931,-0.004347611699455745,0.009611519128470782
1668680965.175573,78926,1668680965,175403086,,-0.09879863667222943,-0.6160097983127067,0.07819229671553306,0.9955612158016768,0.09352316569281854,-0.004347612556980066,0.0096115209688807
1668680965.1833642,78927,1668680965,183200563,,-0.09879862450124031,-0.6160097983115567,0.07819229671549033,0.9955612157796657,0.093523165699727,-0.004347613405501204,0.00961152279773814
1668680965.1921644,78928,1668680965,192047345,,-0.09879861241595156,-0.6160097983104589,0.07819229671544925,0.9955612157578176,0.09352316570652447,-0.004347614244982132,0.009611524614900738
1668680965.1998427,78929,1668680965,199690021,,-0.09879860043343085,-0.616009798309411,0.0781922967154101,0.9955612157361339,0.09352316571321116,-0.0043476150753869805,0.00961152642022864
1668680965.2076437,78930,1668680965,207545707,,-0.09879858856919528,-0.6160097983084117,0.07819229671537264,0.9955612157146158,0.09352316571978703,-0.0043476158966815085,0.009611528213584767
1668680965.2159073,78931,1668680965,215635351,,-0.09879857683730218,-0.616009798307459,0.07819229671533685,0.9955612156932648,0.09352316572625212,-0.004347616708832889,0.009611529994834543
1668680965.2242029,78932,1668680965,223968735,,-0.09879856525043726,-0.6160097983065506,0.07819229671530258,0.9955612156720827,0.09352316573260637,-0.004347617511809835,0.009611531763846064
1668680965.2315097,78933,1668680965,231391593,,-0.0987985538199974,-0.6160097983056851,0.07819229671527013,0.9955612156510704,0.09352316573885007,-0.004347618305582218,0.00961153352048999
1668680965.239644,78934,1668680965,239504981,,-0.0987985425561709,-0.616009798304861,0.07819229671523908,0.9955612156302294,0.09352316574498336,-0.004347619090121578,0.009611535264639653
1668680965.2476094,78935,1668680965,247467720,,-0.09879853146801232,-0.6160097983040764,0.07819229671520933,0.9955612156095612,0.09352316575100603,-0.004347619865400669,0.009611536996170789
1668680965.2560396,78936,1668680965,255903181,,-0.09879852056351399,-0.6160097983033298,0.07819229671518114,0.9955612155890667,0.09352316575691821,-0.0043476206313938955,0.009611538714962117
1668680965.2633746,78937,1668680965,263261142,,-0.09879850984967437,-0.6160097983026198,0.07819229671515429,0.9955612155687475,0.09352316576272045,-0.004347621388076808,0.009611540420894736
1668680965.2717166,78938,1668680965,271603317,,-0.09879849933256356,-0.616009798301945,0.07819229671512867,0.9955612155486047,0.09352316576841217,-0.004347622135426464,0.009611542113852213
1668680965.2797098,78939,1668680965,279543642,,-0.09879848901738308,-0.6160097983013033,0.07819229671510429,0.9955612155286393,0.09352316577399399,-0.004347622873421255,0.009611543793720848
1668680965.2879198,78940,1668680965,287747324,,-0.09879847890852551,-0.6160097983006939,0.07819229671508114,0.9955612155088527,0.09352316577946627,-0.004347623602040993,0.009611545460389526
1668680965.2958002,78941,1668680965,295601237,,-0.0987984690096296,-0.6160097983001156,0.07819229671505902,0.995561215489246,0.09352316578482883,-0.004347624321266807,0.009611547113749579
1668680965.3036633,78942,1668680965,303496810,,-0.09879845932363206,-0.6160097982995664,0.07819229671503793,0.99556121546982,0.09352316579008174,-0.00434762503108115,0.009611548753695081
1668680965.3118246,78943,1668680965,311736849,,-0.09879844985281776,-0.6160097982990459,0.07819229671501815,0.9955612154505761,0.09352316579522553,-0.004347625731467904,0.00961155038012265
1668680965.320516,78944,1668680965,320388828,,-0.09879844059886642,-0.6160097982985523,0.07819229671499932,0.995561215431515,0.09352316580026018,-0.0043476264224121325,0.009611551992931195
1668680965.3283546,78945,1668680965,328153736,,-0.09879843156289757,-0.6160097982980847,0.07819229671498122,0.9955612154126379,0.09352316580518596,-0.004347627103900431,0.00961155359202246
1668680965.3358965,78946,1668680965,335778846,,-0.09879842274551183,-0.6160097982976418,0.07819229671496415,0.9955612153939457,0.09352316581000329,-0.004347627775920632,0.00961155517730061
1668680965.3446057,78947,1668680965,344496034,,-0.09879841414683169,-0.6160097982972228,0.07819229671494816,0.9955612153754394,0.09352316581471214,-0.004347628438461901,0.00961155674867252
1668680965.3520024,78948,1668680965,351867959,,-0.0987984057665382,-0.616009798296826,0.07819229671493283,0.9955612153571198,0.09352316581931269,-0.0043476290915144475,0.009611558306047088
1668680965.359922,78949,1668680965,359795558,,-0.0987983976039067,-0.6160097982964513,0.07819229671491824,0.9955612153389878,0.09352316582380565,-0.004347629735070047,0.009611559849336156
1668680965.3674943,78950,1668680965,367397214,,-0.09879838965784075,-0.6160097982960971,0.07819229671490469,0.995561215321044,0.093523165828191,-0.004347630369121844,0.009611561378454219
1668680965.37564,78951,1668680965,375536598,,-0.09879838192690314,-0.6160097982957624,0.07819229671489156,0.9955612153032897,0.09352316583246914,-0.004347630993663932,0.009611562893317544
1668680965.3840795,78952,1668680965,383946802,,-0.09879837440934622,-0.6160097982954471,0.07819229671487929,0.9955612152857253,0.09352316583664023,-0.004347631608691995,0.009611564393845763
1668680965.39196,78953,1668680965,391805614,,-0.09879836710313901,-0.6160097982951495,0.07819229671486762,0.9955612152683517,0.0935231658407046,-0.004347632214202761,0.009611565879960484
1668680965.3994896,78954,1668680965,399389117,,-0.09879836000599417,-0.6160097982948688,0.07819229671485659,0.9955612152511695,0.09352316584466278,-0.004347632810194121,0.009611567351585767
1668680965.4078035,78955,1668680965,407706078,,-0.09879835311539281,-0.6160097982946048,0.07819229671484652,0.9955612152341794,0.09352316584851504,-0.004347633396665498,0.009611568808648411
1668680965.416337,78956,1668680965,416203133,,-0.09879834642860798,-0.6160097982943562,0.07819229671483667,0.9955612152173821,0.09352316585226146,-0.004347633973617259,0.009611570251077214
1668680965.4234805,78957,1668680965,423269625,,-0.09879833994272563,-0.6160097982941226,0.07819229671482758,0.9955612152007781,0.09352316585590269,-0.004347634541051204,0.009611571678804016
1668680965.4318075,78958,1668680965,431535479,,-0.09879833365466574,-0.6160097982939032,0.07819229671481896,0.9955612151843681,0.09352316585943908,-0.004347635098970093,0.009611573091762327
1668680965.4397018,78959,1668680965,439530544,,-0.09879832756120163,-0.6160097982936967,0.07819229671481072,0.9955612151681528,0.09352316586287096,-0.004347635647378143,0.009611574489888794
1668680965.4483259,78960,1668680965,448163642,,-0.09879832165897783,-0.6160097982935033,0.07819229671480311,0.9955612151521324,0.09352316586619855,-0.0043476361862806335,0.009611575873122087
1668680965.4558315,78961,1668680965,455646757,,-0.09879831594452622,-0.6160097982933223,0.07819229671479587,0.9955612151363077,0.09352316586942272,-0.004347636715684036,0.009611577241403407
1668680965.4633355,78962,1668680965,463167471,,-0.09879831041428284,-0.6160097982931526,0.07819229671478918,0.9955612151206791,0.09352316587254324,-0.004347637235595939,0.00961157859467612
1668680965.4723766,78963,1668680965,472175688,,-0.09879830506460156,-0.616009798292994,0.07819229671478285,0.9955612151052469,0.0935231658755612,-0.004347637746025156,0.009611579932886338
1668680965.4806614,78964,1668680965,480485770,,-0.09879829989176823,-0.6160097982928456,0.078192296714777,0.9955612150900114,0.09352316587847671,-0.004347638246981465,0.009611581255982025
1668680965.4882708,78965,1668680965,488150303,,-0.09879829489201396,-0.6160097982927072,0.07819229671477146,0.9955612150749734,0.09352316588128992,-0.004347638738475992,0.009611582563913902
1668680965.4954386,78966,1668680965,495277556,,-0.0987982900615252,-0.6160097982925783,0.07819229671476623,0.9955612150601332,0.09352316588400159,-0.004347639220521003,0.00961158385663497
1668680965.503821,78967,1668680965,503626738,,-0.09879828539645649,-0.6160097982924579,0.07819229671476134,0.9955612150454908,0.0935231658866122,-0.0043476396931297736,0.009611585134100433
1668680965.511642,78968,1668680965,511495507,,-0.09879828089293984,-0.6160097982923465,0.07819229671475689,0.9955612150310467,0.09352316588912227,-0.004347640156316572,0.009611586396267753
1668680965.519539,78969,1668680965,519397810,,-0.09879827654709425,-0.6160097982922428,0.07819229671475253,0.9955612150168012,0.09352316589153188,-0.00434764061009692,0.009611587643096827
1668680965.5277307,78970,1668680965,527541940,,-0.09879827235503376,-0.6160097982921464,0.07819229671474878,0.9955612150027545,0.09352316589384213,-0.004347641054487471,0.009611588874549899
1668680965.5354493,78971,1668680965,535285053,,-0.09879826831287711,-0.6160097982920574,0.07819229671474515,0.9955612149889069,0.09352316589605279,-0.004347641489505811,0.009611590090591267
1668680965.5438228,78972,1668680965,543607364,,-0.09879826441675305,-0.6160097982919753,0.07819229671474172,0.9955612149752585,0.09352316589816496,-0.004347641915170655,0.009611591291187544
1668680965.5519426,78973,1668680965,551714016,,-0.09879826066280865,-0.6160097982918995,0.07819229671473868,0.9955612149618095,0.09352316590017895,-0.004347642331501768,0.00961159247630773
1668680965.5599267,78974,1668680965,559825414,,-0.09879825704721494,-0.6160097982918297,0.07819229671473571,0.9955612149485601,0.09352316590209526,-0.0043476427385198526,0.009611593645922881
1668680965.5676816,78975,1668680965,567588832,,-0.09879825356617221,-0.6160097982917657,0.07819229671473311,0.9955612149355102,0.09352316590391463,-0.004347643136246772,0.009611594800006456
1668680965.5756457,78976,1668680965,575419493,,-0.09879825021591626,-0.6160097982917069,0.07819229671473062,0.9955612149226601,0.09352316590563722,-0.004347643524705292,0.009611595938533661
1668680965.583613,78977,1668680965,583504408,,-0.0987982469927216,-0.6160097982916531,0.07819229671472844,0.9955612149100098,0.09352316590726384,-0.004347643903919319,0.009611597061482525
1668680965.5918045,78978,1668680965,591677986,,-0.09879824389290692,-0.6160097982916043,0.07819229671472637,0.9955612148975594,0.09352316590879478,-0.004347644273913686,0.009611598168832924
1668680965.6000466,78979,1668680965,599803826,,-0.09879824091283827,-0.6160097982915599,0.07819229671472461,0.9955612148853088,0.09352316591023078,-0.004347644634714183,0.009611599260566867
1668680965.6082263,78980,1668680965,608022512,,-0.09879823804893229,-0.6160097982915197,0.07819229671472279,0.9955612148732579,0.09352316591157263,-0.004347644986347512,0.009611600336668424
1668680965.6153774,78981,1668680965,615264996,,-0.09879823529766013,-0.6160097982914834,0.07819229671472129,0.9955612148614069,0.0935231659128207,-0.00434764532884151,0.009611601397124053
1668680965.6236544,78982,1668680965,623508166,,-0.09879823265554945,-0.6160097982914511,0.07819229671471992,0.9955612148497556,0.09352316591397539,-0.004347645662224781,0.00961160244192212
1668680965.6316001,78983,1668680965,631437590,,-0.09879823011918674,-0.6160097982914218,0.07819229671471854,0.9955612148383038,0.09352316591503758,-0.00434764598652696,0.00961160347105297
1668680965.639943,78984,1668680965,639824467,,-0.09879822768521966,-0.616009798291396,0.07819229671471742,0.9955612148270516,0.0935231659160078,-0.004347646301778665,0.009611604484509576
1668680965.6478474,78985,1668680965,647748563,,-0.098798225350359,-0.6160097982913733,0.0781922967147164,0.9955612148159988,0.09352316591688661,-0.004347646608011396,0.009611605482286416
1668680965.6553833,78986,1668680965,655273006,,-0.09879822184979688,-0.6160097997776207,0.07819229671471546,0.995561214805145,0.09352316591767461,-0.0043476469052574915,0.009611606464380237
1668680965.6636372,78987,1668680965,663498829,,-0.09879821223623883,-0.6160098085748097,0.0781922967147144,0.9955612147944903,0.09352316591837247,-0.0043476471935501165,0.009611607430789636
1668680965.671718,78988,1668680965,671546187,,-0.09879818691915011,-0.6160098359778778,0.0781922967147133,0.9955612147840345,0.09352316591898073,-0.004347647472923591,0.009611608381515722
1668680965.6797128,78989,1668680965,679610080,,-0.09879813205075605,-0.6160098982972768,0.07819229671470998,0.995561214773777,0.09352316591950023,-0.004347647743412735,0.009611609316560955
1668680965.6876838,78990,1668680965,687577543,,-0.09879802989004358,-0.6160100164301382,0.07819229671469903,0.995561214763718,0.09352316591993134,-0.004347648005053583,0.009611610235930493
1668680965.6955457,78991,1668680965,695325308,,-0.09879785914577895,-0.616010215456147,0.07819229671466836,0.995561214753857,0.09352316592027501,-0.004347648257882948,0.009611611139631469
1668680965.704515,78992,1668680965,704376909,,-0.09879759529952507,-0.6160105242569736,0.07819229671459374,0.9955612147441933,0.09352316592053146,-0.004347648501938499,0.009611612027673022
1668680965.711533,78993,1668680965,711441155,,-0.09879721090960078,-0.616010975158155,0.0781922967144326,0.9955612147347273,0.09352316592070159,-0.004347648737259183,0.009611612900067094
1668680965.719762,78994,1668680965,719578881,,-0.0987966758968874,-0.6160116035923479,0.07819229671411737,0.995561214725458,0.09352316592078627,-0.004347648963884945,0.009611613756828105
1668680965.7277858,78995,1668680965,727649122,,-0.09879595781335533,-0.616012447782941,0.07819229671354604,0.9955612147163853,0.09352316592078602,-0.004347649181856896,0.009611614597972808
1668680965.7362776,78996,1668680965,735961696,,-0.0987950220941446,-0.6160135484470343,0.07819229671257384,0.9955612147075088,0.09352316592070116,-0.004347649391217697,0.009611615423521994
1668680965.7445612,78997,1668680965,744381971,,-0.09879383229400206,-0.6160149485168419,0.07819229671100275,0.9955612146988279,0.09352316592053277,-0.00434764959201142,0.009611616233499553
1668680965.7516325,78998,1668680965,751523935,,-0.09879235030884678,-0.6160166928786137,0.07819229670857124,0.9955612146903419,0.09352316592028151,-0.004347649784283555,0.009611617027932758
1668680965.759777,78999,1668680965,759659890,,-0.09879053658320185,-0.6160188281282091,0.07819229670494436,0.9955612146820505,0.0935231659199479,-0.004347649968081962,0.00961161780685391
1668680965.767963,79000,1668680965,767740786,,-0.09878835030419818,-0.6160214023424803,0.07819229669970222,0.9955612146739531,0.09352316591953241,-0.004347650143455889,0.00961161857029879
1668680965.7752483,79001,1668680965,775148385,,-0.09878574958283264,-0.6160244648656767,0.07819229669233196,0.9955612146660487,0.09352316591903612,-0.004347650310457017,0.009611619318308893
1668680965.7835565,79002,1668680965,783373737,,-0.0987826916231285,-0.6160280661101004,0.0781922966822167,0.9955612146583368,0.09352316591845976,-0.0043476504691391206,0.009611620050930391
1668680965.791867,79003,1668680965,791673338,,-0.09877913287982161,-0.6160322573702764,0.07819229666862769,0.9955612146508165,0.09352316591780371,-0.004347650619558774,0.009611620768215708
1668680965.800077,79004,1668680965,799922090,,-0.09877502920516772,-0.6160370906499429,0.07819229665071531,0.995561214643487,0.09352316591706876,-0.004347650761775001,0.00961162147022284
1668680965.807846,79005,1668680965,807652399,,-0.09877033598544104,-0.6160426185011846,0.07819229662750407,0.9955612146363473,0.09352316591625566,-0.0043476508958498255,0.009611622157016789
1668680965.8154888,79006,1668680965,815319129,,-0.0987650082676725,-0.6160488938750672,0.07819229659788472,0.9955612146293963,0.09352316591536483,-0.004347651021848175,0.009611622828669245
1668680965.8235536,79007,1668680965,823438133,,-0.09875900087714416,-0.6160559699831623,0.07819229656061095,0.9955612146226328,0.09352316591439723,-0.004347651139838277,0.009611623485258935
1668680965.8318734,79008,1668680965,831771164,,-0.09875226852614528,-0.616063900169367,0.07819229651429448,0.995561214616056,0.09352316591335345,-0.00434765124989147,0.009611624126872099
1668680965.8397136,79009,1668680965,839579855,,-0.0987447659144589,-0.6160727377914664,0.07819229645740454,0.995561214609664,0.09352316591223439,-0.004347651352082806,0.00961162475360352
1668680965.847695,79010,1668680965,847521036,,-0.09873644782204169,-0.6160825361118972,0.07819229638826514,0.9955612146034557,0.09352316591104035,-0.0043476514464907525,0.009611625365555251
1668680965.8553383,79011,1668680965,855200749,,-0.09872726919432495,-0.6160933481971977,0.07819229630505606,0.9955612145974297,0.09352316590977207,-0.004347651533197641,0.009611625962838535
1668680965.864056,79012,1668680965,863862995,,-0.09871718522055607,-0.6161052268256629,0.07819229620581462,0.9955612145915844,0.0935231659084303,-0.004347651612289571,0.00961162654557311
1668680965.8718812,79013,1668680965,871694589,,-0.09870615140557344,-0.6161182244027306,0.07819229608843722,0.9955612145859181,0.09352316590701551,-0.004347651683856611,0.009611627113887671
1668680965.8808568,79014,1668680965,880497564,,-0.0986941236353943,-0.6161323928836574,0.07819229595068375,0.9955612145804288,0.09352316590552863,-0.004347651747992803,0.00961162766791968
1668680965.8881652,79015,1668680965,888013310,,-0.09868105823697165,-0.6161477837030623,0.07819229579018261,0.9955612145751146,0.09352316590397011,-0.004347651804796247,0.009611628207816409
1668680965.896756,79016,1668680965,896569120,,-0.09866691203246766,-0.6161644477109259,0.07819229560443633,0.9955612145699738,0.09352316590234075,-0.004347651854369282,0.009611628733734544
1668680965.903979,79017,1668680965,903777347,,-0.09865164238836605,-0.6161824351146699,0.07819229539082762,0.9955612145650039,0.09352316590064101,-0.004347651896818258,0.009611629245839453
1668680965.9125242,79018,1668680965,912383950,,-0.09863520725973528,-0.6162017954269424,0.07819229514662793,0.995561214560203,0.09352316589887164,-0.004347651932254002,0.00961162974430741
1668680965.9202976,79019,1668680965,920163182,,-0.09861756522993953,-0.6162225774187643,0.07819229486900536,0.9955612145555686,0.09352316589703308,-0.004347651960791195,0.009611630229322855
1668680965.9276757,79020,1668680965,927541319,,-0.09859867554607726,-0.6162448290777028,0.07819229455503408,0.995561214551098,0.09352316589512633,-0.004347651982549116,0.009611630701081142
1668680965.9355135,79021,1668680965,935350834,,-0.09857849815041643,-0.6162685975707567,0.07819229420170294,0.995561214546789,0.09352316589315139,-0.004347651997650884,0.009611631159786223
1668680965.9435391,79022,1668680965,943427546,,-0.09855699370807743,-0.6162939292116534,0.07819229380592661,0.9955612145426388,0.09352316589110964,-0.004347652006224103,0.009611631605651882
1668680965.9517229,79023,1668680965,951540946,,-0.09853412363121075,-0.6163208694322724,0.07819229336455608,0.9955612145386445,0.093523165889001,-0.0043476520084002115,0.0096116320389014
1668680965.9599626,79024,1668680965,959822200,,-0.0985098500998926,-0.6163494627579242,0.07819229287438884,0.9955612145348035,0.09352316588682631,-0.004347652004315098,0.009611632459767396
1668680965.9676623,79025,1668680965,967521296,,-0.09848413607996029,-0.6163797527862276,0.07819229233218022,0.9955612145311125,0.09352316588458626,-0.004347651994108093,0.00961163286849143
1668680965.9755485,79026,1668680965,975426777,,-0.09845694533799347,-0.6164117821693412,0.07819229173465507,0.9955612145275684,0.09352316588228111,-0.004347651977922949,0.009611633265324087
1668680965.9870632,79027,1668680965,983729062,,-0.09842824245363438,-0.61644559259932,0.07819229107851818,0.9955612145241682,0.09352316587991173,-0.0043476519559070914,0.009611633650524705
1668680965.9920223,79028,1668680965,991824460,,-0.0983979928294362,-0.616481224796373,0.07819229036046672,0.9955612145209085,0.09352316587747843,-0.004347651928211681,0.009611634024361434
1668680966.0000353,79029,1668680965,999853488,,-0.09836616269841325,-0.6165187184998207,0.07819228957720022,0.995561214517786,0.09352316587498209,-0.004347651894991625,0.009611634387110882
1668680966.007822,79030,1668680966,7677178,,-0.09833271912945933,-0.6165581124615502,0.07819228872543274,0.9955612145147971,0.09352316587242315,-0.004347651856405084,0.009611634739057056
1668680966.0157144,79031,1668680966,15487537,,-0.09829763003079285,-0.6165994444417843,0.0781922878019024,0.995561214511938,0.09352316586980196,-0.0043476518126138956,0.009611635080492427
1668680966.023844,79032,1668680966,23655976,,-0.09826086415157705,-0.6166427512069911,0.07819228680338386,0.9955612145092055,0.09352316586711916,-0.004347651763783005,0.009611635411716868
1668680966.0320103,79033,1668680966,31817517,,-0.09822239108185583,-0.6166880685297608,0.0781922857266967,0.9955612145065956,0.09352316586437542,-0.004347651710080651,0.00961163573303743
1668680966.0399282,79034,1668680966,39781739,,-0.09818218125093857,-0.6167354311905024,0.07819228456871657,0.9955612145041045,0.0935231658615713,-0.004347651651677815,0.009611636044767832
1668680966.0479004,79035,1668680966,47711140,,-0.09814020592435951,-0.6167848729808045,0.07819228332638414,0.9955612145017283,0.09352316585870718,-0.0043476515887485145,0.009611636347228938
1668680966.0559964,79036,1668680966,55793833,,-0.09809643719952969,-0.616836426708322,0.0781922819967145,0.995561214499463,0.09352316585578371,-0.004347651521469321,0.009611636640747153
1668680966.0636146,79037,1668680966,63333420,,-0.09805084800019288,-0.6168901242030592,0.07819228057680593,0.9955612144973045,0.09352316585280136,-0.004347651450019554,0.00961163692565544
1668680966.0724308,79038,1668680966,72247936,,-0.09800341206979242,-0.6169459963249245,0.07819227906384715,0.9955612144952488,0.09352316584976055,-0.004347651374580755,0.009611637202291945
1668680966.0804386,79039,1668680966,80290997,,-0.09795410396384453,-0.6170040729724371,0.07819227745512614,0.9955612144932917,0.09352316584666209,-0.004347651295336522,0.009611637471000006
1668680966.088456,79040,1668680966,88289982,,-0.0979028990414162,-0.6170643830924794,0.07819227574803637,0.995561214491429,0.09352316584350624,-0.0043476512124727765,0.009611637732127727
1668680966.0958228,79041,1668680966,95653421,,-0.09784977345578894,-0.6171269546909893,0.07819227394008353,0.9955612144896563,0.09352316584029388,-0.00434765112617714,0.009611637986027795
1668680966.104617,79042,1668680966,104469951,,-0.09779470414439777,-0.6171918148444967,0.0781922720288919,0.9955612144879695,0.09352316583702508,-0.004347651036638976,0.009611638233056895
1668680966.1124194,79043,1668680966,112299578,,-0.09773766881811573,-0.6172589897124128,0.07819227001220941,0.995561214486364,0.09352316583370064,-0.004347650944049309,0.009611638473575327
1668680966.119747,79044,1668680966,119635723,,-0.09767864594996122,-0.6173285045499866,0.07819226788791267,0.9955612144848356,0.09352316583032126,-0.004347650848600411,0.009611638707946919
1668680966.1278594,79045,1668680966,127725062,,-0.0976176147632944,-0.6174003837218479,0.07819226565401063,0.9955612144833796,0.09352316582688729,-0.004347650750485764,0.009611638936538304
1668680966.1351745,79046,1668680966,135093770,,-0.09755455521956531,-0.6174746507160658,0.0781922633086494,0.995561214481992,0.09352316582339913,-0.004347650649899727,0.009611639159718324
1668680966.1437922,79047,1668680966,143591114,,-0.09748944800567351,-0.6175513281586454,0.07819226085011505,0.9955612144806678,0.09352316581985759,-0.004347650547037983,0.00961163937785864
1668680966.1517184,79048,1668680966,151606986,,-0.09742227452099551,-0.6176304378284073,0.07819225827683575,0.9955612144794028,0.09352316581626317,-0.00434765044209635,0.009611639591332046
1668680966.159785,79049,1668680966,159617037,,-0.09735301686413078,-0.6177120006721791,0.07819225558738456,0.9955612144781922,0.09352316581261648,-0.004347650335271614,0.00961163980051333
1668680966.1677685,79050,1668680966,167673847,,-0.09728165781941513,-0.6177960368202492,0.07819225278048071,0.9955612144770319,0.09352316580891767,-0.004347650226760537,0.009611640005777728
1668680966.1764433,79051,1668680966,176210928,,-0.09720818084324453,-0.6178825656020291,0.07819224985499129,0.995561214475917,0.0935231658051678,-0.00434765011676054,0.00961164020750183
1668680966.1836433,79052,1668680966,183428246,,-0.09713257005025384,-0.6179716055618684,0.07819224680993114,0.995561214474843,0.09352316580136717,-0.0043476500054689055,0.009611640406062476
1668680966.1918979,79053,1668680966,191693485,,-0.09705481019938754,-0.6180631744749893,0.07819224364446314,0.9955612144738055,0.09352316579751647,-0.0043476498930825405,0.009611640601835864
1668680966.199648,79054,1668680966,199514252,,-0.0969748866798974,-0.6181572893634878,0.07819224035789885,0.9955612144727998,0.09352316579361615,-0.004347649779798394,0.009611640795198608
1668680966.2077155,79055,1668680966,207533216,,-0.09689278549730213,-0.6182539665123673,0.07819223694969683,0.9955612144718214,0.09352316578966699,-0.004347649665812805,0.009611640986526138
1668680966.2156944,79056,1668680966,215554787,,-0.09680849325933878,-0.6183532214855672,0.07819223341946213,0.9955612144708658,0.09352316578566948,-0.004347649551321957,0.009611641176193085
1668680966.2234302,79057,1668680966,223263714,,-0.09672199716193275,-0.6184550691419577,0.07819222976694501,0.9955612144699284,0.09352316578162445,-0.004347649436520875,0.009611641364572914
1668680966.2316036,79058,1668680966,231424166,,-0.0966332849752155,-0.6185595236512623,0.07819222599203858,0.9955612144690048,0.09352316577753218,-0.004347649321604003,0.009611641552037139
1668680966.239748,79059,1668680966,239642278,,-0.09654234502960994,-0.618666598509887,0.0781922220947772,0.9955612144680904,0.09352316577339354,-0.004347649206764828,0.009611641738955309
1668680966.2480326,79060,1668680966,247867031,,-0.0964491662020087,-0.6187763065566305,0.07819221807533365,0.9955612144671809,0.09352316576920898,-0.004347649092195334,0.009611641925694888
1668680966.2557585,79061,1668680966,255634360,,-0.09635373790206295,-0.6188886599882466,0.07819221393401689,0.9955612144662721,0.09352316576497917,-0.00434764897808673,0.009611642112620538
1668680966.2634141,79062,1668680966,263237932,,-0.09625605005859994,-0.6190036703748417,0.07819220967126937,0.9955612144653591,0.0935231657607049,-0.00434764886462874,0.00961164230009451
1668680966.2718604,79063,1668680966,271748906,,-0.0961560931061877,-0.6191213486750914,0.07819220528766278,0.9955612144644378,0.09352316575638693,-0.004347648752009537,0.009611642488475673
1668680966.279793,79064,1668680966,279678240,,-0.09605385797185943,-0.6192417052512519,0.07819220078389597,0.9955612144635039,0.0935231657520256,-0.004347648640415564,0.009611642678119764
1668680966.2878642,79065,1668680966,287689855,,-0.0959493360620114,-0.6193647498839536,0.07819219616079012,0.9955612144625531,0.0935231657476218,-0.0043476485300318396,0.009611642869378297
1668680966.2953253,79066,1668680966,295216967,,-0.09584251924948804,-0.619490491786768,0.07819219141928604,0.9955612144615813,0.09352316574317607,-0.004347648421041545,0.00961164306259983
1668680966.303706,79067,1668680966,303597488,,-0.09573339986086112,-0.6196189396205245,0.07819218656043951,0.9955612144605841,0.09352316573868956,-0.0043476483136256055,0.009611643258127904
1668680966.3118072,79068,1668680966,311659889,,-0.09562197066391784,-0.6197501015073802,0.0781921815854177,0.9955612144595575,0.09352316573416268,-0.004347648207963102,0.00961164345630223
1668680966.32051,79069,1668680966,320002126,,-0.09550822485536085,-0.6198839850446216,0.07819217649549554,0.9955612144584974,0.09352316572959621,-0.00434764810423122,0.009611643657458414
1668680966.3282537,79070,1668680966,328042851,,-0.09539215604872986,-0.620020597318192,0.07819217129205008,0.9955612144573999,0.09352316572499086,-0.004347648002604549,0.009611643861926181
1668680966.3356574,79071,1668680966,335445861,,-0.09527375826255162,-0.6201599449159478,0.07819216597655727,0.9955612144562607,0.09352316572034758,-0.004347647903255614,0.009611644070031056
1668680966.3434284,79072,1668680966,343258346,,-0.09515302590872142,-0.6203020339406213,0.07819216055058742,0.9955612144550763,0.09352316571566696,-0.004347647806354226,0.009611644282093162
1668680966.3516953,79073,1668680966,351590008,,-0.09502995378112304,-0.6204468700224987,0.07819215501580096,0.9955612144538426,0.09352316571094994,-0.0043476477120683015,0.009611644498427512
1668680966.3599777,79074,1668680966,359802731,,-0.09490453704448767,-0.6205944583318029,0.0781921493739436,0.9955612144525557,0.09352316570619738,-0.004347647620562602,0.00961164471934326
1668680966.367958,79075,1668680966,367770714,,-0.09477677122349783,-0.6207448035907792,0.0781921436268422,0.9955612144512123,0.0935231657014099,-0.004347647531999542,0.009611644945144208
1668680966.3754036,79076,1668680966,375263353,,-0.09464665219213529,-0.6208979100854818,0.0781921377764009,0.9955612144498083,0.09352316569658847,-0.004347647446538764,0.009611645176128085
1668680966.3836474,79077,1668680966,383552646,,-0.09451417616327783,-0.6210537816772599,0.07819213182459514,0.9955612144483404,0.09352316569173391,-0.00434764736433726,0.009611645412586625
1668680966.3917782,79078,1668680966,391666637,,-0.09437933967854142,-0.6212124218139434,0.07819212577346933,0.9955612144468051,0.09352316568684714,-0.004347647285548927,0.009611645654805507
1668680966.399747,79079,1668680966,399598993,,-0.09424213959837284,-0.621373833540726,0.0781921196251313,0.9955612144451988,0.09352316568192871,-0.00434764721032512,0.009611645903064011
1668680966.408011,79080,1668680966,407852841,,-0.09410257309238791,-0.6215380195107465,0.07819211338174821,0.9955612144435182,0.09352316567698007,-0.0043476471388139174,0.009611646157635177
1668680966.4153728,79081,1668680966,415272333,,-0.09396063762995914,-0.6217049819953743,0.07819210704554275,0.9955612144417602,0.09352316567200182,-0.004347647071160534,0.00961164641878534
1668680966.423636,79082,1668680966,423531753,,-0.09381633097104729,-0.6218747228941921,0.07819210061878856,0.9955612144399211,0.09352316566699492,-0.004347647007507067,0.009611646686774307
1668680966.4316123,79083,1668680966,431467045,,-0.09366965115727871,-0.6220472437446855,0.07819209410380681,0.9955612144379982,0.0935231656619603,-0.004347646947992673,0.009611646961855012
1668680966.4401762,79084,1668680966,440067336,,-0.0935205965032648,-0.6222225457316369,0.07819208750296142,0.9955612144359883,0.0935231656568989,-0.004347646892753004,0.00961164724427358
1668680966.447762,79085,1668680966,447618532,,-0.09336916558816144,-0.6224006296962314,0.07819208081865647,0.9955612144338883,0.09352316565181185,-0.0043476468419209125,0.009611647534269506
1668680966.4560528,79086,1668680966,455921024,,-0.09321535724746778,-0.6225814961448717,0.07819207405333052,0.9955612144316957,0.09352316564670002,-0.004347646795625758,0.009611647832074495
1668680966.463803,79087,1668680966,463658965,,-0.09305917056505762,-0.6227651452577116,0.07819206720945525,0.9955612144294071,0.09352316564156427,-0.004347646753993703,0.009611648137913697
1668680966.4719565,79088,1668680966,471731468,,-0.09290060486544487,-0.6229515768969102,0.0781920602895308,0.9955612144270202,0.09352316563640584,-0.004347646717147833,0.009611648452005213
1668680966.4802368,79089,1668680966,480109034,,-0.09273965970627639,-0.6231407906146058,0.07819205329608196,0.9955612144245323,0.09352316563122567,-0.004347646685207229,0.009611648774559533
1668680966.4877918,79090,1668680966,487672233,,-0.0925763348710514,-0.6233327856606237,0.07819204623165527,0.9955612144219406,0.09352316562602471,-0.004347646658288345,0.009611649105779675
1668680966.4957006,79091,1668680966,495591617,,-0.09241063036206089,-0.6235275609899121,0.07819203909881675,0.9955612144192428,0.09352316562080416,-0.004347646636503923,0.009611649445861903
1668680966.5034156,79092,1668680966,503268622,,-0.09224254639354641,-0.6237251152697195,0.07819203190014756,0.9955612144164365,0.09352316561556513,-0.00434764661996342,0.009611649794994416
1668680966.5119932,79093,1668680966,511852930,,-0.09207208338507122,-0.623925446886512,0.07819202463824122,0.9955612144135193,0.09352316561030884,-0.004347646608772349,0.009611650153358346
1668680966.5196733,79094,1668680966,519553595,,-0.09189924195510388,-0.6241285539526398,0.07819201731570201,0.9955612144104891,0.09352316560503597,-0.004347646603033635,0.009611650521127094
1668680966.5275898,79095,1668680966,527408227,,-0.09172402291480371,-0.6243344343127551,0.07819200993514114,0.9955612144073437,0.09352316559974784,-0.0043476466028459625,0.009611650898466582
1668680966.5357935,79096,1668680966,535547119,,-0.09154642726201165,-0.6245430855499886,0.07819200249917446,0.995561214404081,0.09352316559444572,-0.004347646608304739,0.00961165128553524
1668680966.54364,79097,1668680966,543542085,,-0.09136645617543697,-0.62475450499189,0.07819199501042051,0.995561214400699,0.09352316558913043,-0.004347646619502262,0.009611651682483605
1668680966.5516505,79098,1668680966,551537851,,-0.09118336099938909,-0.6249695855249785,0.07819247254937467,0.9955612143971262,0.0935231655837985,-0.004347646639259392,0.009611652095500722
1668680966.5598779,79099,1668680966,559670699,,-0.0909960598226504,-0.6251898089931579,0.0781947741199031,0.9955612143931828,0.09352316557843905,-0.00434764667461207,0.009611652540097966
1668680966.5680723,79100,1668680966,567916113,,-0.09080410226100466,-0.625415989468784,0.07820011723772892,0.9955612143887754,0.0935231655730474,-0.004347646729247204,0.009611653024359436
1668680966.5756803,79101,1668680966,575579526,,-0.09060711735363068,-0.625648815011693,0.07820854335864119,0.9955612143838369,0.09352316556762107,-0.004347646805811236,0.009611653554058242
1668680966.583685,79102,1668680966,583480045,,-0.09040478941791412,-0.6258888820302424,0.0782195162953741,0.9955612143782879,0.0935231655621567,-0.004347646907426148,0.009611654136013253
1668680966.5915518,79103,1668680966,591450359,,-0.09019718889246171,-0.6261361234427026,0.07823271784609483,0.9955612143721126,0.0935231655566561,-0.0043476470347457875,0.009611654771573165
1668680966.599927,79104,1668680966,599760775,,-0.08998440386594514,-0.6263904610020176,0.0782476863410147,0.9955612143653197,0.09352316555112217,-0.004347647187455477,0.009611655459938428
1668680966.6078455,79105,1668680966,607679914,,-0.08976563559858171,-0.6266525356822533,0.07826375591719938,0.9955612143578088,0.09352316554555076,-0.004347647369519445,0.009611656209779875
1668680966.615279,79106,1668680966,615186259,,-0.0895398579788376,-0.626922995838141,0.07828044502352177,0.9955612143493884,0.09352316553993292,-0.00434764758844094,0.009611657037591662
1668680966.6236546,79107,1668680966,623544024,,-0.08930702142515458,-0.6272017048292595,0.07829754611177703,0.9955612143400081,0.09352316553426851,-0.004347647846230239,0.00961165794768798
1668680966.6325169,79108,1668680966,632272054,,-0.08906684905341392,-0.6274888203779233,0.0783151738686146,0.99556121432964,0.09352316552855958,-0.004347648144031074,0.009611658942453881
1668680966.639742,79109,1668680966,639613974,,-0.08881839874089115,-0.6277848892685288,0.07833384403471319,0.9955612143181031,0.0935231655227988,-0.004347648488944973,0.009611660037459077
1668680966.647696,79110,1668680966,647565412,,-0.08856115659064369,-0.6280899442575463,0.07835406664537738,0.9955612143052739,0.09352316551698325,-0.004347648885851979,0.009611661243332974
1668680966.6555908,79111,1668680966,655395665,,-0.08829289397521871,-0.6284034053158493,0.07837547818006782,0.995561214290915,0.09352316551110401,-0.004347649344087095,0.009611662580546552
1668680966.6643898,79112,1668680966,663993997,,-0.08801194344629494,-0.6287245064089216,0.07839752387465687,0.995561214274647,0.0935231655051448,-0.004347649878522228,0.009611664081805239
1668680966.6715121,79113,1668680966,671369005,,-0.08771795262522256,-0.6290526201097474,0.07841988860308789,0.9955612142564428,0.09352316549911112,-0.004347650490294362,0.00961166574933955
1668680966.6796744,79114,1668680966,679547083,,-0.08740857730071255,-0.6293893572933091,0.07844175114853225,0.9955612142358523,0.0935231654929857,-0.0043476511970777735,0.009611667621991745
1668680966.6878092,79115,1668680966,687617455,,-0.08708324539728575,-0.6297437064591747,0.07845847077150502,0.9955612142121639,0.09352316548673988,-0.004347652026725381,0.009611669761086622
1668680966.695435,79116,1668680966,695314247,,-0.08674363219832501,-0.630125644872491,0.0784641374431669,0.9955612141849146,0.09352316548036078,-0.0043476529974574825,0.009611672206503762
1668680966.7039063,79117,1668680966,703778709,,-0.08639104815851982,-0.6305368897965373,0.07845743768094751,0.9955612141540231,0.09352316547385829,-0.004347654112609958,0.00961167496505724
1668680966.7117517,79118,1668680966,711636925,,-0.08602720751546519,-0.6309787424624576,0.07843989032446948,0.9955612141196358,0.09352316546725455,-0.004347655366643902,0.009611678023845953
1668680966.7196696,79119,1668680966,719562199,,-0.085655516349926,-0.6314555547187192,0.07841533407031424,0.9955612140819593,0.09352316546057403,-0.004347656751696399,0.009611681364813825
1668680966.7280324,79120,1668680966,727921053,,-0.08527946651555558,-0.6319692702852742,0.07838807090974795,0.9955612140415377,0.0935231654538565,-0.004347658246740348,0.009611684940724563
1668680966.7355716,79121,1668680966,735440733,,-0.08490207351942282,-0.6325186704240544,0.078362001327374,0.9955612139989799,0.09352316544714222,-0.004347659828202798,0.009611688698771867
1668680966.743477,79122,1668680966,743265806,,-0.08452600379349265,-0.6331010104499363,0.07834068247809126,0.9955612139550992,0.09352316544047672,-0.004347661464527606,0.009611692568536468
1668680966.751895,79123,1668680966,751714163,,-0.08415210079914531,-0.6337134322493744,0.07832502872194935,0.9955612139103528,0.093523165433887,-0.004347663138009554,0.009611696510446167
1668680966.7599275,79124,1668680966,759750337,,-0.0837801562977789,-0.6343532982395467,0.07831549287309916,0.9955612138649101,0.09352316542738492,-0.004347664842111112,0.00961170050977254
1668680966.7678292,79125,1668680966,767700659,,-0.08340907286775187,-0.6350175756962694,0.0783132833693978,0.9955612138187955,0.09352316542097734,-0.004347666575929078,0.009611704564308725
1668680966.776075,79126,1668680966,775917486,,-0.0830374862505297,-0.6357029427519791,0.07831905827875436,0.9955612137719237,0.09352316541466608,-0.004347668342852093,0.009611708681369423
1668680966.7842114,79127,1668680966,784019873,,-0.08266503417972312,-0.6364068567664891,0.07833260449554812,0.9955612137243772,0.09352316540845963,-0.004347670139726182,0.009611712853745949
1668680966.7917452,79128,1668680966,791651003,,-0.08229050567875142,-0.6371269625974578,0.07835366500282838,0.995561213676157,0.09352316540236329,-0.0043476719665762305,0.009611717081282866
1668680966.799762,79129,1668680966,799607612,,-0.08191183933160077,-0.6378605966323149,0.07838224364246978,0.9955612136269462,0.09352316539637298,-0.004347673835777798,0.00961172139121634
1668680966.807673,79130,1668680966,807500416,,-0.08152799091086523,-0.6386053118101623,0.07841808206968594,0.9955612135766525,0.09352316539049248,-0.0043476757510087114,0.009611725791429326
1668680966.815235,79131,1668680966,815138903,,-0.0811386138542119,-0.63935899181512,0.07846066567308585,0.9955612135253384,0.09352316538473143,-0.004347677709915202,0.00961173027640756
1668680966.8237443,79132,1668680966,823568537,,-0.08074389628457299,-0.6401199209635082,0.07850937262624896,0.9955612134731623,0.09352316537910055,-0.004347679706424537,0.009611734832399712
1668680966.8315501,79133,1668680966,831460182,,-0.08034417526213455,-0.6408866555375661,0.07856361989489395,0.9955612134203311,0.0935231653736114,-0.004347681732556731,0.009611739441454794
1668680966.839577,79134,1668680966,839441298,,-0.07993905292597286,-0.6416582047988266,0.07862289292532777,0.9955612133668857,0.09352316536827063,-0.004347683786788359,0.009611744099977669
1668680966.8476622,79135,1668680966,847546265,,-0.07952718132250117,-0.6424352833821749,0.07868706503836272,0.9955612133125096,0.09352316536307789,-0.00434768588148032,0.009611748835167779
1668680966.8556335,79136,1668680966,855326139,,-0.07910742400467774,-0.6432189719618148,0.07875616292627809,0.9955612132567739,0.09352316535803261,-0.004347688033364666,0.00961175368385615
1668680966.8636856,79137,1668680966,863577413,,-0.07867991357442478,-0.6440087896100734,0.07882984915930251,0.9955612131996765,0.09352316535314409,-0.004347690242635696,0.009611758646100999
1668680966.871671,79138,1668680966,871567171,,-0.07824645341065273,-0.6448040073732272,0.07890803049381519,0.9955612131416611,0.09352316534842756,-0.004347692492165989,0.009611763683540085
1668680966.87962,79139,1668680966,879479826,,-0.07780955747893448,-0.6456043890731002,0.07899076121310566,0.9955612130834224,0.09352316534389832,-0.004347694755061568,0.009611768736241326
1668680966.8878922,79140,1668680966,887775676,,-0.07737093987573025,-0.6464094470301304,0.07907774866800509,0.9955612130254847,0.09352316533956558,-0.004347697010997147,0.00961177375899939
1668680966.8958063,79141,1668680966,895679911,,-0.0769309246275368,-0.6472183541556848,0.07916826920620165,0.995561212968077,0.09352316533543242,-0.00434769925108491,0.009611778732095316
1668680966.9034464,79142,1668680966,903247701,,-0.07648914375077669,-0.6480301471856892,0.07926141364650702,0.9955612129111656,0.0935231653314987,-0.004347701476602983,0.00961178365841771
1668680966.911899,79143,1668680966,911770012,,-0.07604566671482149,-0.6488438675833685,0.07935663598413088,0.9955612128548279,0.0935231653277652,-0.004347703684535311,0.009611788531325608
1668680966.9207525,79144,1668680966,920509358,,-0.075601023834174,-0.6496583929203544,0.07945354483455712,0.9955612127992651,0.0935231653242319,-0.004347705867052765,0.009611793333523723
1668680966.9282093,79145,1668680966,928067907,,-0.07515569626045167,-0.6504719185894684,0.07955230107221038,0.9955612127447493,0.09352316532089736,-0.004347708013557295,0.009611798041622996
1668680966.9355462,79146,1668680966,935440551,,-0.07470987243774257,-0.6512825824197945,0.07965336878627564,0.995561212691476,0.09352316531775906,-0.004347710116407554,0.0096118026388579
1668680966.9433374,79147,1668680966,943230757,,-0.0742628709797157,-0.6520898328685555,0.07975712857530277,0.9955612126393987,0.09352316531481374,-0.004347712177338526,0.009611807129297323
1668680966.9516413,79148,1668680966,951502908,,-0.07381406315604806,-0.6528935799806298,0.07986364672926709,0.9955612125882686,0.09352316531205948,-0.004347714205930966,0.009611811534410115
1668680966.959844,79149,1668680966,959683556,,-0.07336313216346574,-0.6536930394426661,0.07997278574620711,0.9955612125381015,0.0935231653094945,-0.004347716201507878,0.009611815852849911
1668680966.968093,79150,1668680966,967898854,,-0.07290946930504415,-0.6544873239895098,0.08008456881754886,0.9955612124887799,0.09352316530711761,-0.004347718168578591,0.009611820094780371
1668680966.9756398,79151,1668680966,975461989,,-0.07245370681720127,-0.6552749644685592,0.08019839719392494,0.9955612124404685,0.09352316530492508,-0.004347720100714481,0.009611824246090198
1668680966.9837813,79152,1668680966,983649030,,-0.0719970599241123,-0.6560542736041308,0.08031339107535336,0.9955612123936304,0.09352316530290779,-0.004347721979915161,0.009611828267041602
1668680966.9915874,79153,1668680966,991472953,,-0.0715400494526161,-0.6568247140142262,0.08042906122791067,0.9955612123484612,0.0935231653010579,-0.004347723798504782,0.009611832140900443
1668680966.9996207,79154,1668680966,999504960,,-0.07108282453680985,-0.6575862917851156,0.08054481080112538,0.995561212304978,0.09352316529936917,-0.004347725555736314,0.009611835866345071
1668680967.009592,79155,1668680967,7638208,,-0.0706256840062032,-0.6583388226667626,0.08066010170762732,0.9955612122632279,0.09352316529783493,-0.004347727249656414,0.009611839439384522
1668680967.016314,79156,1668680967,16109587,,-0.07016899942514632,-0.6590820940975602,0.08077476146895214,0.9955612122233055,0.09352316529644676,-0.00434772887650757,0.009611842852037129
1668680967.0232952,79157,1668680967,23172474,,-0.06971228597292961,-0.6598165969199463,0.08088926198828607,0.9955612121851083,0.09352316529520117,-0.004347730440144124,0.009611846113211735
1668680967.031638,79158,1668680967,31538335,,-0.06925500470836224,-0.6605429142699178,0.08100403092879196,0.9955612121483737,0.09352316529409894,-0.004347731950619876,0.009611849245544429
1668680967.0397058,79159,1668680967,39568252,,-0.06879737206482743,-0.6612620783859319,0.08111924971380256,0.9955612121130846,0.09352316529313587,-0.004347733408510076,0.009611852250592886
1668680967.0481675,79160,1668680967,48021330,,-0.06833961293995333,-0.6619755475118296,0.08123531171406496,0.9955612120791735,0.09352316529230913,-0.004347734816332612,0.009611855134217868
1668680967.0557592,79161,1668680967,55568489,,-0.06788107836765593,-0.66268391395625,0.08135244291102794,0.99556121204649,0.09352316529161986,-0.004347736179829585,0.009611857909405361
1668680967.0641854,79162,1668680967,63956589,,-0.06742113881227596,-0.6633872450373791,0.08147062208648356,0.995561212014795,0.09352316529107196,-0.0043477375081830165,0.009611860596740553
1668680967.0716503,79163,1668680967,71492040,,-0.06695959120614597,-0.6640855403292409,0.08158968863497867,0.9955612119840678,0.09352316529066397,-0.004347738802133778,0.009611863198037585
1668680967.0799894,79164,1668680967,79864486,,-0.06649711048436517,-0.6647783332060404,0.08170933054179726,0.9955612119543747,0.0935231652903905,-0.004347740059046328,0.009611865707636703
1668680967.0876691,79165,1668680967,87543514,,-0.06603439844953399,-0.6654652174719141,0.08182858019780237,0.9955612119260149,0.09352316529023703,-0.004347741267322883,0.009611868100013752
1668680967.095844,79166,1668680967,95703929,,-0.06557105214496195,-0.6661463608257375,0.08194643263133841,0.9955612118988514,0.09352316529020518,-0.00434774243215076,0.009611870386921708
1668680967.1034064,79167,1668680967,103272903,,-0.0651069499826408,-0.6668211713810899,0.08206249442798547,0.9955612118728576,0.09352316529029224,-0.00434774355449848,0.009611872570732014
1668680967.111812,79168,1668680967,111657735,,-0.0646421603053729,-0.667489070188171,0.08217668394120307,0.9955612118480813,0.09352316529049286,-0.004347744632454313,0.009611874647427526
1668680967.1197805,79169,1668680967,119688296,,-0.06417755038633503,-0.6681501570622476,0.08228942187291519,0.9955612118246485,0.09352316529079689,-0.004347745661071271,0.009611876606281454
1668680967.127692,79170,1668680967,127573601,,-0.06371429461777936,-0.6688045141393258,0.08240136311803528,0.9955612118028425,0.09352316529118619,-0.0043477466293155515,0.009611878423102732
1668680967.1357446,79171,1668680967,135622731,,-0.06325216839782102,-0.6694533494749682,0.08251329738506641,0.9955612117826151,0.09352316529165748,-0.0043477475389594455,0.009611880102132911
1668680967.1434138,79172,1668680967,143276972,,-0.06279027130400643,-0.6700983794306667,0.08262604879479368,0.9955612117635989,0.09352316529222494,-0.004347748404094545,0.009611881674904423
1668680967.1519744,79173,1668680967,151801424,,-0.06232835352049222,-0.6707401278124654,0.0827396915744935,0.9955612117456557,0.09352316529289223,-0.004347749229991553,0.009611883153325895
1668680967.1596985,79174,1668680967,159588154,,-0.06186562403379404,-0.6713792099124087,0.08285402014042302,0.9955612117286381,0.09352316529366436,-0.0043477500222749415,0.009611884550050544
1668680967.1678946,79175,1668680967,167733678,,-0.061402240941985785,-0.672015874856292,0.08296861416239927,0.9955612117124006,0.09352316529454738,-0.004347750786510395,0.009611885877586476
1668680967.1760678,79176,1668680967,175893027,,-0.060939687768637486,-0.6726495009211638,0.08308287858829347,0.9955612116973517,0.09352316529551444,-0.004347751506881976,0.009611887101031728
1668680967.1833441,79177,1668680967,183242957,,-0.06047736877463242,-0.6732796614472358,0.08319633202727594,0.9955612116834884,0.09352316529656243,-0.0043477521834406835,0.009611888220716241
1668680967.1916623,79178,1668680967,191535765,,-0.06001425898372495,-0.6739061440983336,0.08330865170634913,0.9955612116704967,0.09352316529770724,-0.004347752828228045,0.009611889263543609
1668680967.2012715,79179,1668680967,200468644,,-0.05954998769291961,-0.6745293562494792,0.08341958334990943,0.9955612116583069,0.09352316529895087,-0.004347753443894945,0.009611890235540196
1668680967.208469,79180,1668680967,208222164,,-0.05908395225292249,-0.6751498969954369,0.08352883047720484,0.9955612116467177,0.09352316530030491,-0.004347754038150581,0.009611891153926175
1668680967.2157104,79181,1668680967,215606597,,-0.058616706253929056,-0.6757676204402581,0.08363640638487747,0.9955612116357805,0.09352316530176447,-0.0043477546089831865,0.009611892014352528
1668680967.223248,79182,1668680967,223156036,,-0.058149344695222975,-0.676382027360061,0.08374247539710518,0.9955612116257921,0.0935231653033066,-0.0043477551449020305,0.009611892791479186
1668680967.231796,79183,1668680967,231692474,,-0.05768225673672021,-0.6769929653148401,0.08384703100690712,0.9955612116168683,0.09352316530492041,-0.004347755641401179,0.009611893475501546
1668680967.239807,79184,1668680967,239711442,,-0.057215479292668105,-0.6776003435354905,0.0839501058872833,0.9955612116090076,0.09352316530660236,-0.004347756098457285,0.009611894066570216
1668680967.2476435,79185,1668680967,247511827,,-0.05674811746406366,-0.6782049307121201,0.08405211071374219,0.9955612116020448,0.09352316530836169,-0.0043477565223867575,0.009611894578869393
1668680967.2557988,79186,1668680967,255635566,,-0.05627884647675784,-0.6788080046155567,0.08415350487828127,0.9955612115955619,0.09352316531022803,-0.004347756929259301,0.009611895048157413
1668680967.2633398,79187,1668680967,263218776,,-0.05580799232480671,-0.6794089114056234,0.08425451250485425,0.9955612115895518,0.09352316531220088,-0.004347757319299896,0.009611895475020026
1668680967.271877,79188,1668680967,271753561,,-0.05533634667784971,-0.6800066104426152,0.08435514277743839,0.9955612115843121,0.09352316531425531,-0.004347757681034677,0.009611895834121779
