Time,header.seq,header.stamp.secs,header.stamp.nsecs,header.frame_id,wrench.force.x,wrench.force.y,wrench.force.z,wrench.torque.x,wrench.torque.y,wrench.torque.z
1668680964.7608228,78874,1668680964,760361377,,-4.504223546406065e-213,-3.942957824732366e-210,5e-324,5e-324,-5e-324,0.0
1668680964.7677631,78875,1668680964,767525676,,-2.383084721880447e-213,-2.0861314840015172e-210,5e-324,5e-324,-5e-324,0.0
1668680964.775552,78876,1668680964,775342305,,-2.383084721880447e-213,-2.0861314840015172e-210,5e-324,5e-324,-5e-324,0.0
1668680964.783786,78877,1668680964,783551438,,-1.2608372415688324e-213,-1.103725873313841e-210,5e-324,5e-324,-5e-324,0.0
1668680964.7918878,78878,1668680964,791630589,,-6.670810043515749e-214,-5.839568659812791e-211,5e-324,5e-324,-5e-324,0.0
1668680964.7997634,78879,1668680964,799550611,,-3.5293775571937086e-214,-3.089586187762708e-211,5e-324,5e-324,-5e-324,0.0
1668680964.8081353,78880,1668680964,807899869,,-1.867315342509381e-214,-1.6346314886757612e-211,5e-324,5e-324,-5e-324,0.0
1668680964.8153582,78881,1668680964,815171824,,-1.867315342509381e-214,-1.6346314886757612e-211,5e-324,5e-324,-5e-324,0.0
1668680964.8237624,78882,1668680964,823544736,,-9.879551087595788e-215,-8.648472453539971e-212,5e-324,5e-324,-5e-324,0.0
1668680964.8320072,78883,1668680964,831803384,,-5.2270512360943e-215,-4.575714850582811e-212,5e-324,5e-324,-5e-324,0.0
1668680964.8400652,78884,1668680964,839846091,,-2.765516811695929e-215,-2.4209091844044815e-212,5e-324,5e-324,-5e-324,0.0
1668680964.8483047,78885,1668680964,848081574,,-1.4631735734596573e-215,-1.2808493252999538e-212,5e-324,5e-324,-5e-324,0.0
1668680964.8562572,78886,1668680964,856014770,,-7.741326673613057e-216,-6.776689537509071e-213,5e-324,5e-324,-5e-324,0.0
1668680964.863901,78887,1668680964,863514310,,-7.741326673613057e-216,-6.776689537509071e-213,5e-324,5e-324,-5e-324,0.0
1668680964.8718312,78888,1668680964,871542153,,-4.095764149559754e-216,-3.5853960478161925e-213,5e-324,5e-324,-5e-324,0.0
1668680964.8800795,78889,1668680964,879814198,,-2.1669779194306396e-216,-1.8969534827503914e-213,5e-324,5e-324,-5e-324,0.0
1668680964.8878062,78890,1668680964,887597127,,-1.1464999281769399e-216,-1.0036359910394243e-213,5e-324,5e-324,-5e-324,0.0
1668680964.8955526,78891,1668680964,895286221,,-1.1464999281769399e-216,-1.0036359910394243e-213,5e-324,5e-324,-5e-324,0.0
1668680964.9038894,78892,1668680964,903639033,,-6.0658766917897134e-217,-5.3100153043775504e-214,5e-324,5e-324,-5e-324,0.0
1668680964.911784,78893,1668680964,911627237,,-3.2093207453144424e-217,-2.809411259108206e-214,5e-324,5e-324,-5e-324,0.0
1668680964.919887,78894,1668680964,919516815,,-1.6979803859591399e-217,-1.4863971514916681e-214,5e-324,5e-324,-5e-324,0.0
1668680964.927871,78895,1668680964,927615907,,-8.98363741084865e-218,-7.864197471266167e-215,5e-324,5e-324,-5e-324,0.0
1668680964.9360034,78896,1668680964,935739824,,-8.98363741084865e-218,-7.864197471266167e-215,5e-324,5e-324,-5e-324,0.0
1668680964.9439507,78897,1668680964,943685202,,-4.753043191603836e-218,-4.16077236188217e-215,5e-324,5e-324,-5e-324,0.0
1668680964.9519603,78898,1668680964,951684476,,-2.514729674415639e-218,-2.201372321925587e-215,5e-324,5e-324,-5e-324,0.0
1668680964.9598482,78899,1668680964,959640880,,-1.330487664525662e-218,-1.164697243265645e-215,5e-324,5e-324,-5e-324,0.0
1668680964.9679246,78900,1668680964,967692860,,-7.03931497474495e-219,-6.162154647624608e-216,5e-324,5e-324,-5e-324,0.0
1668680964.9755254,78901,1668680964,975308364,,-7.03931497474495e-219,-6.162154647624608e-216,5e-324,5e-324,-5e-324,0.0
1668680964.9838932,78902,1668680964,983625139,,-3.724345338544307e-219,-3.2602592751720667e-216,5e-324,5e-324,-5e-324,0.0
1668680964.9919777,78903,1668680964,991696524,,-1.9704684689491788e-219,-1.7249308316925925e-216,5e-324,5e-324,-5e-324,0.0
1668680964.999992,78904,1668680964,999725535,,-1.0425311388123116e-219,-9.126226238453587e-217,5e-324,5e-324,-5e-324,0.0
1668680965.0080962,78905,1668680965,7832598,,-5.5158008997368395e-220,-4.828483775996522e-217,5e-324,5e-324,-5e-324,0.0
1668680965.0156221,78906,1668680965,15321464,,-5.5158008997368395e-220,-4.828483775996522e-217,5e-324,5e-324,-5e-324,0.0
1668680965.0240061,78907,1668680965,23781030,,-2.9182878508739695e-220,-2.5546436134605583e-217,5e-324,5e-324,-5e-324,0.0
1668680965.0319095,78908,1668680965,31666783,,-1.5440013400347594e-220,-1.3516052439148797e-217,5e-324,5e-324,-5e-324,0.0
1668680965.0396032,78909,1668680965,39406302,,-8.168968449480369e-221,-7.151043400936623e-218,5e-324,5e-324,-5e-324,0.0
1668680965.0480113,78910,1668680965,47772465,,-4.3220199230593537e-221,-3.7834583693950007e-218,5e-324,5e-324,-5e-324,0.0
1668680965.0554254,78911,1668680965,55222745,,-4.3220199230593537e-221,-3.7834583693950007e-218,5e-324,5e-324,-5e-324,0.0
1668680965.0640872,78912,1668680965,63751231,,-2.2866848281817287e-221,-2.0017438617517265e-218,5e-324,5e-324,-5e-324,0.0
1668680965.0719163,78913,1668680965,71759592,,-1.209834197093472e-221,-1.059078255088996e-218,5e-324,5e-324,-5e-324,0.0
1668680965.0797462,78914,1668680965,79546661,,-6.400964253655695e-222,-5.603348019865035e-219,5e-324,5e-324,-5e-324,0.0
1668680965.0876622,78915,1668680965,87483665,,-3.386608138124275e-222,-2.9646070893115475e-219,5e-324,5e-324,-5e-324,0.0
1668680965.0956101,78916,1668680965,95348485,,-3.386608138124275e-222,-2.9646070893115475e-219,5e-324,5e-324,-5e-324,0.0
1668680965.1039197,78917,1668680965,103633558,,-1.7917792111804674e-222,-1.5685078211879436e-219,5e-324,5e-324,-5e-324,0.0
1668680965.111887,78918,1668680965,111654784,,-9.479906179510534e-223,-8.29862680284918e-220,5e-324,5e-324,-5e-324,0.0
1668680965.1198587,78919,1668680965,119675369,,-5.015607984039193e-223,-4.390619280483328e-220,5e-324,5e-324,-5e-324,0.0
1668680965.1278322,78920,1668680965,127568452,,-2.6536468793256107e-223,-2.32297922585618e-220,5e-324,5e-324,-5e-324,0.0
1668680965.1353228,78921,1668680965,135132561,,-2.6536468793256107e-223,-2.32297922585618e-220,5e-324,5e-324,-5e-324,0.0
1668680965.1449025,78922,1668680965,144214705,,-1.4039856748301096e-223,-1.2290367574674683e-220,5e-324,5e-324,-5e-324,0.0
1668680965.1520853,78923,1668680965,151762391,,-7.428176636784117e-224,-6.502560739213723e-221,5e-324,5e-324,-5e-324,0.0
1668680965.1600888,78924,1668680965,159751771,,-3.930083414415338e-224,-3.4403605840310215e-221,5e-324,5e-324,-5e-324,0.0
1668680965.1677759,78925,1668680965,167514368,,-2.0793199192082448e-224,-1.8202184374498388e-221,5e-324,5e-324,-5e-324,0.0
1668680965.1756282,78926,1668680965,175403086,,-1.1001220255421427e-224,-9.630371814544825e-222,5e-324,5e-324,-5e-324,0.0
1668680965.1834483,78927,1668680965,183200563,,-1.1001220255421427e-224,-9.630371814544825e-222,5e-324,5e-324,-5e-324,0.0
1668680965.192266,78928,1668680965,192047345,,-5.820501501008984e-225,-5.0952160124427494e-222,5e-324,5e-324,-5e-324,0.0
1668680965.1999178,78929,1668680965,199690021,,-3.079498177172897e-225,-2.6957657205138798e-222,5e-324,5e-324,-5e-324,0.0
1668680965.2077432,78930,1668680965,207545707,,-1.6292941461431223e-225,-1.4262698190127758e-222,5e-324,5e-324,-5e-324,0.0
1668680965.215984,78931,1668680965,215635351,,-8.620233758648543e-226,-7.54607709841699e-223,5e-324,5e-324,-5e-324,0.0
1668680965.2242646,78932,1668680965,223968735,,-8.620233758648543e-226,-7.54607709841699e-223,5e-324,5e-324,-5e-324,0.0
1668680965.2316267,78933,1668680965,231391593,,-4.560774383781313e-226,-3.9924619322498125e-223,5e-324,5e-324,-5e-324,0.0
1668680965.2396872,78934,1668680965,239504981,,-2.4130045149746483e-226,-2.1123230087070985e-223,5e-324,5e-324,-5e-324,0.0
1668680965.2477157,78935,1668680965,247467720,,-1.2766671401229366e-226,-1.11758322780026e-223,5e-324,5e-324,-5e-324,0.0
1668680965.256101,78936,1668680965,255903181,,-6.75456252383681e-227,-5.912884847213427e-224,5e-324,5e-324,-5e-324,0.0
1668680965.263509,78937,1668680965,263261142,,-6.75456252383681e-227,-5.912884847213427e-224,5e-324,5e-324,-5e-324,0.0
1668680965.27181,78938,1668680965,271603317,,-3.573689135918962e-227,-3.128376155503183e-224,5e-324,5e-324,-5e-324,0.0
1668680965.2797985,78939,1668680965,279543642,,-1.8907596154622213e-227,-1.655154399790668e-224,5e-324,5e-324,-5e-324,0.0
1668680965.2879791,78940,1668680965,287747324,,-1.000358953309898e-227,-8.757054621859455e-225,5e-324,5e-324,-5e-324,0.0
1668680965.295906,78941,1668680965,295601237,,-5.292677224982066e-228,-4.633163266214242e-225,5e-324,5e-324,-5e-324,0.0
1668680965.3037755,78942,1668680965,303496810,,-5.292677224982066e-228,-4.633163266214242e-225,5e-324,5e-324,-5e-324,0.0
1668680965.3119586,78943,1668680965,311736849,,-2.800238066062071e-228,-2.451303866235213e-225,5e-324,5e-324,-5e-324,0.0
1668680965.3206203,78944,1668680965,320388828,,-1.4815438186200025e-228,-1.2969304769459523e-225,5e-324,5e-324,-5e-324,0.0
1668680965.3284218,78945,1668680965,328153736,,-7.838519564080821e-229,-6.86177134218193e-226,5e-324,5e-324,-5e-324,0.0
1668680965.3360121,78946,1668680965,335778846,,-7.838519564080821e-229,-6.86177134218193e-226,5e-324,5e-324,-5e-324,0.0
1668680965.3447235,78947,1668680965,344496034,,-4.147186751027645e-229,-3.6304109425559725e-226,5e-324,5e-324,-5e-324,0.0
1668680965.3521178,78948,1668680965,351867959,,-2.1941844767106968e-229,-1.9207698645987172e-226,5e-324,5e-324,-5e-324,0.0
1668680965.3600376,78949,1668680965,359795558,,-1.1608943138731832e-229,-1.016236710148604e-226,5e-324,5e-324,-5e-324,0.0
1668680965.367634,78950,1668680965,367397214,,-6.142034192145002e-230,-5.376682912866372e-227,5e-324,5e-324,-5e-324,0.0
1668680965.3757398,78951,1668680965,375536598,,-3.2496139886855677e-230,-2.844683611289923e-227,5e-324,5e-324,-5e-324,0.0
1668680965.384172,78952,1668680965,383946802,,-3.2496139886855677e-230,-2.844683611289923e-227,5e-324,5e-324,-5e-324,0.0
1668680965.3920467,78953,1668680965,391805614,,-1.7192986468499334e-230,-1.5050589702764187e-227,5e-324,5e-324,-5e-324,0.0
1668680965.3995957,78954,1668680965,399389117,,-9.096427598330458e-231,-7.962933013075423e-228,5e-324,5e-324,-5e-324,0.0
1668680965.4079275,78955,1668680965,407706078,,-4.812717976790818e-231,-4.213011145940738e-228,5e-324,5e-324,-5e-324,0.0
1668680965.4164011,78956,1668680965,416203133,,-2.5463022789712155e-231,-2.2290107033018658e-228,5e-324,5e-324,-5e-324,0.0
1668680965.4235501,78957,1668680965,423269625,,-2.5463022789712155e-231,-2.2290107033018658e-228,5e-324,5e-324,-5e-324,0.0
1668680965.4319482,78958,1668680965,431535479,,-1.34719202894523e-231,-1.1793200975082745e-228,5e-324,5e-324,-5e-324,0.0
1668680965.4398985,78959,1668680965,439530544,,-7.127694059901058e-232,-6.239520924357698e-229,5e-324,5e-324,-5e-324,0.0
1668680965.4484253,78960,1668680965,448163642,,-3.771104751215408e-232,-3.301192055299845e-229,5e-324,5e-324,-5e-324,0.0
1668680965.4558885,78961,1668680965,455646757,,-1.9952078365210913e-232,-1.7465874572889022e-229,5e-324,5e-324,-5e-324,0.0
1668680965.463405,78962,1668680965,463167471,,-1.9952078365210913e-232,-1.7465874572889022e-229,5e-324,5e-324,-5e-324,0.0
1668680965.4724503,78963,1668680965,472175688,,-1.055620189185189e-232,-9.240806638503292e-230,5e-324,5e-324,-5e-324,0.0
1668680965.480719,78964,1668680965,480485770,,-5.585052160572719e-233,-4.889105722925261e-230,5e-324,5e-324,-5e-324,0.0
1668680965.4883957,78965,1668680965,488150303,,-2.954927156176794e-233,-2.5867173402745387e-230,5e-324,5e-324,-5e-324,0.0
1668680965.4954922,78966,1668680965,495277556,,-2.954927156176794e-233,-2.5867173402745387e-230,5e-324,5e-324,-5e-324,0.0
1668680965.503922,78967,1668680965,503626738,,-1.5633863833808301e-233,-1.3685747410005986e-230,5e-324,5e-324,-5e-324,0.0
1668680965.51172,78968,1668680965,511495507,,-8.27153041194751e-234,-7.240825244191803e-231,5e-324,5e-324,-5e-324,0.0
1668680965.519645,78969,1668680965,519397810,,-4.376283181373106e-234,-3.830959950246688e-231,5e-324,5e-324,-5e-324,0.0
1668680965.5278258,78970,1668680965,527541940,,-2.315394313959835e-234,-2.02687589403799e-231,5e-324,5e-324,-5e-324,0.0
1668680965.5355155,78971,1668680965,535285053,,-2.315394313959835e-234,-2.02687589403799e-231,5e-324,5e-324,-5e-324,0.0
1668680965.5439045,78972,1668680965,543607364,,-1.2250237489054461e-234,-1.0723750556483263e-231,5e-324,5e-324,-5e-324,0.0
1668680965.5520082,78973,1668680965,551714016,,-6.48132880146818e-235,-5.6736984408340716e-232,5e-324,5e-324,-5e-324,0.0
1668680965.5600264,78974,1668680965,559825414,,-3.4291272369433324e-235,-3.0018279358485576e-232,5e-324,5e-324,-5e-324,0.0
1668680965.567781,78975,1668680965,567588832,,-1.8142751227931736e-235,-1.5882005450956148e-232,5e-324,5e-324,-5e-324,0.0
1668680965.5757682,78976,1668680965,575419493,,-1.8142751227931736e-235,-1.5882005450956148e-232,5e-324,5e-324,-5e-324,0.0
1668680965.583722,78977,1668680965,583504408,,-9.598927055620886e-236,-8.402816634888104e-233,5e-324,5e-324,-5e-324,0.0
1668680965.5918915,78978,1668680965,591677986,,-5.078579288309764e-236,-4.445743808462265e-233,5e-324,5e-324,-5e-324,0.0
1668680965.6001368,78979,1668680965,599803826,,-2.6869635989728447e-236,-2.35214439030107e-233,5e-324,5e-324,-5e-324,0.0
1668680965.6083326,78980,1668680965,608022512,,-1.421612811839739e-236,-1.2444673987497386e-233,5e-324,5e-324,-5e-324,0.0
1668680965.6154816,78981,1668680965,615264996,,-1.421612811839739e-236,-1.2444673987497386e-233,5e-324,5e-324,-5e-324,0.0
1668680965.623732,78982,1668680965,623508166,,-7.521437906935015e-237,-6.584200837911615e-234,5e-324,5e-324,-5e-324,0.0
1668680965.6316605,78983,1668680965,631437590,,-3.9794258828230404e-237,-3.483554548516864e-234,5e-324,5e-324,-5e-324,0.0
1668680965.6399932,78984,1668680965,639824467,,-2.1054259242479118e-237,-1.8430714055104026e-234,5e-324,5e-324,-5e-324,0.0
1668680965.647974,78985,1668680965,647748563,,-1.113934133471156e-237,-9.751281797083783e-235,5e-324,5e-324,-5e-324,0.0
1668680965.655507,78986,1668680965,655273006,,-1.113934133471156e-237,-9.751281797083783e-235,5e-324,5e-324,-5e-324,0.0
1668680965.6637015,78987,1668680965,663498829,,-5.8935782989153816e-238,-5.1591868010021516e-235,5e-324,5e-324,-5e-324,0.0
1668680965.6717713,78988,1668680965,671546187,,-3.118161489244438e-238,-2.7296112451180472e-235,5e-324,5e-324,-5e-324,0.0
1668680965.6798124,78989,1668680965,679610080,,-1.6497500465543048e-238,-1.4441767349900204e-235,5e-324,5e-324,-5e-324,0.0
1668680965.687785,78990,1668680965,687577543,,-8.728461388205459e-239,-7.64081861699774e-236,5e-324,5e-324,-5e-324,0.0
1668680965.6956139,78991,1668680965,695325308,,-8.728461388205459e-239,-7.64081861699774e-236,5e-324,5e-324,-5e-324,0.0
1668680965.7046223,78992,1668680965,704376909,,-4.618035220821299e-239,-4.042587567252473e-236,5e-324,5e-324,-5e-324,0.0
1668680965.7116435,78993,1668680965,711441155,,-2.44329995313534e-239,-2.1388433698123343e-236,5e-324,5e-324,-5e-324,0.0
1668680965.7198353,78994,1668680965,719578881,,-1.292695784145506e-239,-1.131614562328287e-236,5e-324,5e-324,-5e-324,0.0
1668680965.7278779,78995,1668680965,727649122,,-6.839366522326458e-240,-5.987121524405027e-237,5e-324,5e-324,-5e-324,0.0
1668680965.7365465,78996,1668680965,735961696,,-6.839366522326458e-240,-5.987121524405027e-237,5e-324,5e-324,-5e-324,0.0
1668680965.7448027,78997,1668680965,744381971,,-3.6185570495722054e-240,-3.167653133964794e-237,5e-324,5e-324,-5e-324,0.0
1668680965.7517276,78998,1668680965,751523935,,-1.9144982328794254e-240,-1.675934977470516e-237,5e-324,5e-324,-5e-324,0.0
1668680965.759896,78999,1668680965,759659890,,-1.0129185289842987e-240,-8.86700004679337e-238,5e-324,5e-324,-5e-324,0.0
1668680965.7680027,79000,1668680965,767740786,,-5.3591271526879126e-241,-4.691332950667343e-238,5e-324,5e-324,-5e-324,0.0
1668680965.7752972,79001,1668680965,775148385,,-5.3591271526879126e-241,-4.691332950667343e-238,5e-324,5e-324,-5e-324,0.0
1668680965.783612,79002,1668680965,783373737,,-2.83539524817223e-241,-2.4820801553932856e-238,5e-324,5e-324,-5e-324,0.0
1668680965.7919536,79003,1668680965,791673338,,-1.5001447034757147e-241,-1.3132135285603195e-238,5e-324,5e-324,-5e-324,0.0
1668680965.8001437,79004,1668680965,799922090,,-7.936932717993829e-242,-6.947921354782329e-239,5e-324,5e-324,-5e-324,0.0
1668680965.8079276,79005,1668680965,807652399,,-4.199254966804654e-242,-3.675991002404829e-239,5e-324,5e-324,-5e-324,0.0
1668680965.8155575,79006,1668680965,815319129,,-4.199254966804654e-242,-3.675991002404829e-239,5e-324,5e-324,-5e-324,0.0
1668680965.8236682,79007,1668680965,823438133,,-2.221732614194408e-242,-1.9448852627642623e-239,5e-324,5e-324,-5e-324,0.0
1668680965.83199,79008,1668680965,831771164,,-1.1754694220749233e-242,-1.0289956321555343e-239,5e-324,5e-324,-5e-324,0.0
1668680965.8398335,79009,1668680965,839579855,,-6.219147855171419e-243,-5.444187537779229e-240,5e-324,5e-324,-5e-324,0.0
1668680965.8478425,79010,1668680965,847521036,,-3.290413116507081e-243,-2.8803988102867526e-240,5e-324,5e-324,-5e-324,0.0
1668680965.8554015,79011,1668680965,855200749,,-3.290413116507081e-243,-2.8803988102867526e-240,5e-324,5e-324,-5e-324,0.0
1668680965.8641348,79012,1668680965,863862995,,-1.7408845599769749e-243,-1.5239550894835073e-240,5e-324,5e-324,-5e-324,0.0
1668680965.8719819,79013,1668680965,871694589,,-9.210633874397586e-244,-8.062908186423945e-241,5e-324,5e-324,-5e-324,0.0
1668680965.8812888,79014,1668680965,880497564,,-4.8731419830228344e-244,-4.2659057915371615e-241,5e-324,5e-324,-5e-324,0.0
1668680965.8882406,79015,1668680965,888013310,,-2.5782712797552066e-244,-2.25699608646312e-241,5e-324,5e-324,-5e-324,0.0
1668680965.8968256,79016,1668680965,896569120,,-1.3641061178125338e-244,-1.1941265426947637e-241,5e-324,5e-324,-5e-324,0.0
1668680965.9040837,79017,1668680965,903777347,,-1.3641061178125338e-244,-1.1941265426947637e-241,5e-324,5e-324,-5e-324,0.0
1668680965.9126198,79018,1668680965,912383950,,-7.2171827505686454e-245,-6.317858540032738e-242,5e-324,5e-324,-5e-324,0.0
1668680965.9204242,79019,1668680965,920163182,,-3.818451231538565e-245,-3.3426387493061153e-242,5e-324,5e-324,-5e-324,0.0
1668680965.9277713,79020,1668680965,927541319,,-2.0202578085596583e-245,-1.7685159833136834e-242,5e-324,5e-324,-5e-324,0.0
1668680965.9355752,79021,1668680965,935350834,,-2.0202578085596583e-245,-1.7685159833136834e-242,5e-324,5e-324,-5e-324,0.0
1668680965.9436357,79022,1668680965,943427546,,-1.068873573488522e-245,-9.356825603380624e-243,5e-324,5e-324,-5e-324,0.0
1668680965.9517758,79023,1668680965,951540946,,-5.655172875766094e-246,-4.950488782580051e-243,5e-324,5e-324,-5e-324,0.0
1668680965.9600208,79024,1668680965,959822200,,-2.992026470485471e-246,-2.6191937549414624e-243,5e-324,5e-324,-5e-324,0.0
1668680965.967754,79025,1668680965,967521296,,-1.5830148072835008e-246,-1.3857572912929687e-243,5e-324,5e-324,-5e-324,0.0
1668680965.9756196,79026,1668680965,975426777,,-1.5830148072835008e-246,-1.3857572912929687e-243,5e-324,5e-324,-5e-324,0.0
1668680965.9871342,79027,1668680965,983729062,,-8.37538004692926e-247,-7.331734304683175e-244,5e-324,5e-324,-5e-324,0.0
1668680965.9921968,79028,1668680965,991824460,,-4.4312277186386554e-247,-3.8790579167231426e-244,5e-324,5e-324,-5e-324,0.0
1668680966.0001466,79029,1668680965,999853488,,-2.3444642493125767e-247,-2.0523234607234876e-244,5e-324,5e-324,-5e-324,0.0
1668680966.0079157,79030,1668680966,7677178,,-1.2404040065883595e-247,-1.0858387984560364e-244,5e-324,5e-324,-5e-324,0.0
1668680966.0158677,79031,1668680966,15487537,,-1.2404040065883595e-247,-1.0858387984560364e-244,5e-324,5e-324,-5e-324,0.0
1668680966.0239847,79032,1668680966,23655976,,-6.5627023317228675e-248,-5.74493211619191e-245,5e-324,5e-324,-5e-324,0.0
1668680966.0320754,79033,1668680966,31817517,,-3.472180165981491e-248,-3.039516092681738e-245,5e-324,5e-324,-5e-324,0.0
1668680966.0401218,79034,1668680966,39781739,,-1.837053472128189e-248,-1.6081405125105646e-245,5e-324,5e-324,-5e-324,0.0
1668680966.047953,79035,1668680966,47711140,,-9.719442247042153e-249,-8.508314577456421e-246,5e-324,5e-324,-5e-324,0.0
1668680966.0560796,79036,1668680966,55793833,,-5.142341201649895e-249,-4.5015604286930656e-246,5e-324,5e-324,-5e-324,0.0
1668680966.0636675,79037,1668680966,63333420,,-5.142341201649895e-249,-4.5015604286930656e-246,5e-324,5e-324,-5e-324,0.0
1668680966.0725055,79038,1668680966,72247936,,-2.7206986123337985e-249,-2.381675725397694e-246,5e-324,5e-324,-5e-324,0.0
1668680966.0805635,79039,1668680966,80290997,,-1.439461258770635e-249,-1.2600917727978805e-246,5e-324,5e-324,-5e-324,0.0
1668680966.0885282,79040,1668680966,88289982,,-7.61587007876683e-250,-6.666865933681078e-247,5e-324,5e-324,-5e-324,0.0
1668680966.0958915,79041,1668680966,95653421,,-7.61587007876683e-250,-6.666865933681078e-247,5e-324,5e-324,-5e-324,0.0
1668680966.1047332,79042,1668680966,104469951,,-4.029387849325779e-250,-3.5272908162068137e-247,5e-324,5e-324,-5e-324,0.0
1668680966.1125238,79043,1668680966,112299578,,-2.131859691981927e-250,-1.866211294161612e-247,5e-324,5e-324,-5e-324,0.0
1668680966.1198475,79044,1668680966,119635723,,-1.1279196533681271e-250,-9.873709812795195e-248,5e-324,5e-324,-5e-324,0.0
1668680966.1279883,79045,1668680966,127725062,,-5.967572581061124e-251,-5.223960747225313e-248,5e-324,5e-324,-5e-324,0.0
1668680966.1353097,79046,1668680966,135093770,,-5.967572581061124e-251,-5.223960747225313e-248,5e-324,5e-324,-5e-324,0.0
1668680966.1438227,79047,1668680966,143591114,,-3.157310221866452e-251,-2.7638817026186493e-248,5e-324,5e-324,-5e-324,0.0
1668680966.1518402,79048,1668680966,151606986,,-1.6704627722064195e-251,-1.4623084735327716e-248,5e-324,5e-324,-5e-324,0.0
1668680966.159835,79049,1668680966,159617037,,-8.838047823118176e-252,-7.736749621880564e-249,5e-324,5e-324,-5e-324,0.0
1668680966.1678927,79050,1668680966,167673847,,-4.676014971620794e-252,-4.0933425330607986e-249,5e-324,5e-324,-5e-324,0.0
1668680966.1767285,79051,1668680966,176210928,,-2.473975752612246e-252,-2.1656966958809072e-249,5e-324,5e-324,-5e-324,0.0
1668680966.1839194,79052,1668680966,183428246,,-2.473975752612246e-252,-2.1656966958809072e-249,5e-324,5e-324,-5e-324,0.0
1668680966.1919472,79053,1668680966,191693485,,-1.308925668899608e-252,-1.1458220612293465e-249,5e-324,5e-324,-5e-324,0.0
1668680966.199746,79054,1668680966,199514252,,-6.92523524086784e-253,-6.062290248200415e-250,5e-324,5e-324,-5e-324,0.0
1668680966.207766,79055,1668680966,207533216,,-3.663988282976839e-253,-3.2074232376007406e-250,5e-324,5e-324,-5e-324,0.0
1668680966.2157574,79056,1668680966,215554787,,-1.9385348902760487e-253,-1.6969764567368035e-250,5e-324,5e-324,-5e-324,0.0
1668680966.2235034,79057,1668680966,223263714,,-1.9385348902760487e-253,-1.6969764567368035e-250,5e-324,5e-324,-5e-324,0.0
1668680966.2316637,79058,1668680966,231424166,,-1.0256357909977867e-253,-8.978325844122553e-251,5e-324,5e-324,-5e-324,0.0
1668680966.2398481,79059,1668680966,239642278,,-5.426411363820541e-254,-4.750232959521925e-251,5e-324,5e-324,-5e-324,0.0
1668680966.2481248,79060,1668680966,247867031,,-2.870993831129304e-254,-2.5132428429850182e-251,5e-324,5e-324,-5e-324,0.0
1668680966.2558753,79061,1668680966,255634360,,-1.5189791237240808e-254,-1.3297010150110855e-251,5e-324,5e-324,-5e-324,0.0
1668680966.2635334,79062,1668680966,263237932,,-1.5189791237240808e-254,-1.3297010150110855e-251,5e-324,5e-324,-5e-324,0.0
1668680966.2719872,79063,1668680966,271748906,,-8.036581455843818e-255,-7.035152986734481e-252,5e-324,5e-324,-5e-324,0.0
1668680966.279904,79064,1668680966,279678240,,-4.2519769026229727e-255,-3.722143323049691e-252,5e-324,5e-324,-5e-324,0.0
1668680966.287938,79065,1668680966,287689855,,-2.249626620444796e-255,-1.9693034314175158e-252,5e-324,5e-324,-5e-324,0.0
1668680966.2954566,79066,1668680966,295216967,,-2.249626620444796e-255,-1.9693034314175158e-252,5e-324,5e-324,-5e-324,0.0
1668680966.3038423,79067,1668680966,303597488,,-1.1902275217656853e-255,-1.0419147433085096e-252,5e-324,5e-324,-5e-324,0.0
1668680966.3119109,79068,1668680966,311659889,,-6.29722968555727e-256,-5.512539687915063e-253,5e-324,5e-324,-5e-324,0.0
1668680966.3205743,79069,1668680966,320002126,,-3.3317244801931605e-256,-2.9165624160710076e-253,5e-324,5e-324,-5e-324,0.0
1668680966.3283334,79070,1668680966,328042851,,-1.762741485732557e-256,-1.5430884507708993e-253,5e-324,5e-324,-5e-324,0.0
1668680966.3357437,79071,1668680966,335445861,,-9.326274018139927e-257,-8.164138554971226e-254,5e-324,5e-324,-5e-324,0.0
1668680966.3434923,79072,1668680966,343258346,,-9.326274018139927e-257,-8.164138554971226e-254,5e-324,5e-324,-5e-324,0.0
1668680966.3518343,79073,1668680966,351590008,,-4.9343246168217975e-257,-4.319464533058292e-254,5e-324,5e-324,-5e-324,0.0
1668680966.3600307,79074,1668680966,359802731,,-2.6106416535496094e-257,-2.285332828040698e-254,5e-324,5e-324,-5e-324,0.0
1668680966.3680305,79075,1668680966,367770714,,-1.3812325642324837e-257,-1.2091188838220776e-254,5e-324,5e-324,-5e-324,0.0
1668680966.3754628,79076,1668680966,375263353,,-1.3812325642324837e-257,-1.2091188838220776e-254,5e-324,5e-324,-5e-324,0.0
1668680966.3837476,79077,1668680966,383552646,,-7.307794977921464e-258,-6.397179689877153e-255,5e-324,5e-324,-5e-324,0.0
1668680966.391865,79078,1668680966,391666637,,-3.866392150188651e-258,-3.384605809415075e-255,5e-324,5e-324,-5e-324,0.0
1668680966.3998334,79079,1668680966,399598993,,-2.0456222847253881e-258,-1.7907198234955721e-255,5e-324,5e-324,-5e-324,0.0
1668680966.40808,79080,1668680966,407852841,,-1.0822933549461457e-258,-9.474301194366231e-256,5e-324,5e-324,-5e-324,0.0
1668680966.4154406,79081,1668680966,415272333,,-1.0822933549461457e-258,-9.474301194366231e-256,5e-324,5e-324,-5e-324,0.0
1668680966.423792,79082,1668680966,423531753,,-5.726173961376408e-259,-5.0126425107836725e-256,5e-324,5e-324,-5e-324,0.0
1668680966.4316661,79083,1668680966,431467045,,-3.029591569244806e-259,-2.6520779132351032e-256,5e-324,5e-324,-5e-324,0.0
1668680966.4402752,79084,1668680966,440067336,,-1.6028896674024507e-259,-1.4031555696896974e-256,5e-324,5e-324,-5e-324,0.0
1668680966.447818,79085,1668680966,447618532,,-8.480533521242879e-260,-7.423784734700906e-257,5e-324,5e-324,-5e-324,0.0
1668680966.456182,79086,1668680966,455921024,,-4.486862088360242e-260,-3.927759756487027e-257,5e-324,5e-324,-5e-324,0.0
1668680966.463859,79087,1668680966,463658965,,-4.486862088360242e-260,-3.927759756487027e-257,5e-324,5e-324,-5e-324,0.0
1668680966.4724529,79088,1668680966,471731468,,-2.3738991597092305e-260,-2.07809052336437e-257,5e-324,5e-324,-5e-324,0.0
1668680966.4804578,79089,1668680966,480109034,,-1.2559773644675782e-260,-1.0994715794835718e-257,5e-324,5e-324,-5e-324,0.0
1668680966.4878988,79090,1668680966,487672233,,-6.645097512263928e-261,-5.817060135258333e-258,5e-324,5e-324,-5e-324,0.0
1668680966.4958022,79091,1668680966,495591617,,-3.5157736275139796e-261,-3.077677426924095e-258,5e-324,5e-324,-5e-324,0.0
1668680966.5034819,79092,1668680966,503268622,,-3.5157736275139796e-261,-3.077677426924095e-258,5e-324,5e-324,-5e-324,0.0
1668680966.512044,79093,1668680966,511852930,,-1.8601178052106015e-261,-1.6283308275920833e-258,5e-324,5e-324,-5e-324,0.0
1668680966.5197406,79094,1668680966,519553595,,-9.841470515006153e-262,-8.61513705397207e-259,5e-324,5e-324,-5e-324,0.0
1668680966.5276418,79095,1668680966,527408227,,-5.206903650210996e-262,-4.5580778304416966e-259,5e-324,5e-324,-5e-324,0.0
1668680966.5358615,79096,1668680966,535547119,,-5.206903650210996e-262,-4.5580778304416966e-259,5e-324,5e-324,-5e-324,0.0
1668680966.5437376,79097,1668680966,543542085,,0.234158150021362,-0.28006273691269257,0.1516409904350679,5e-324,-5e-324,0.0
1668680966.5517495,79098,1668680966,551537851,,0.35697436757456585,-0.4870693535710735,0.43082751706436717,5e-324,-5e-324,0.0
1668680966.559918,79099,1668680966,559670699,,0.42193294941673953,-0.5965577699959297,0.5785903983990356,5e-324,-5e-324,0.0
1668680966.5681307,79100,1668680966,567916113,,0.5326512856364725,-0.7863327572140213,0.5222534773692853,5e-324,-5e-324,0.0
1668680966.5757751,79101,1668680966,575579526,,0.5911948774135674,-0.8867081462452251,0.4925282232579632,5e-324,-5e-324,0.0
1668680966.5837479,79102,1668680966,583480045,,0.5911948774135674,-0.8867081462452251,0.4925282232579632,5e-324,-5e-324,0.0
1668680966.5916433,79103,1668680966,591450359,,0.6444595226880157,-0.9847922647202232,0.4114580576068224,5e-324,-5e-324,0.0
1668680966.600003,79104,1668680966,599760775,,0.9209556875355089,-1.2106184162604197,0.3374822152566771,5e-324,-5e-324,0.0
1668680966.6079698,79105,1668680966,607679914,,1.0671395755105841,-1.3302273188372677,0.2982743887737506,5e-324,-5e-324,0.0
1668680966.6153955,79106,1668680966,615186259,,1.0671395755105841,-1.3302273188372677,0.2982743887737506,5e-324,-5e-324,0.0
1668680966.623759,79107,1668680966,623544024,,1.2886183073305006,-1.5420346377634937,0.35485296385703174,5e-324,-5e-324,0.0
1668680966.6326334,79108,1668680966,632272054,,1.5061230150655964,-1.6714615927477325,0.4834062916115702,5e-324,-5e-324,0.0
1668680966.6398325,79109,1668680966,639613974,,1.621017904994761,-1.7400934316009753,0.551460464009367,5e-324,-5e-324,0.0
1668680966.6477678,79110,1668680966,647565412,,2.3911884711799085,-1.6829571314076563,0.4205232424779706,5e-324,-5e-324,0.0
1668680966.6556418,79111,1668680966,655395665,,2.3911884711799085,-1.6829571314076563,0.4205232424779706,5e-324,-5e-324,0.0
1668680966.6644633,79112,1668680966,663993997,,2.7984472319438463,-1.6530975213055155,0.3512263591520769,5e-324,-5e-324,0.0
1668680966.6715834,79113,1668680966,671369005,,3.4353350838934915,-2.3405281683233907,0.1858260723060373,5e-324,-5e-324,0.0
1668680966.679871,79114,1668680966,679547083,,3.3522925744090775,-4.66031713820559,-1.0956141026583568,5e-324,-0.26551460426227164,0.0
1668680966.6879046,79115,1668680966,687617455,,3.3081324162918415,-5.8878206749097455,-1.7735040719403652,5e-324,-0.40601384554379005,0.0
1668680966.6954994,79116,1668680966,695314247,,3.3081324162918415,-5.8878206749097455,-1.7735040719403652,5e-324,-0.40601384554379005,0.0
1668680966.704015,79117,1668680966,703778709,,3.1133234033114143,-7.044234369449531,-1.6074912220925546,5e-324,-0.5435869019363551,0.0
1668680966.7132776,79118,1668680966,711636925,,2.5461052442292584,-8.047618457044917,-0.8504879325943521,5e-324,-0.6699614808859329,0.0
1668680966.7197537,79119,1668680966,719562199,,2.245105915146488,-8.578780921923393,-0.4499742913351772,5e-324,-0.7368391397728524,0.0
1668680966.728136,79120,1668680966,727921053,,1.743541808013164,-8.662920401821523,0.2850170863212842,5e-324,-0.7150088277602935,0.0
1668680966.73568,79121,1668680966,735440733,,1.47810185439566,-8.707401307665874,0.6741243709411082,5e-324,-0.7034592840535705,0.0
1668680966.7435443,79122,1668680966,743265806,,1.47810185439566,-8.707401307665874,0.6741243709411082,5e-324,-0.7034592840535705,0.0
1668680966.7519443,79123,1668680966,751714163,,1.5175596163302016,-8.767538998047506,0.9450942959275915,5e-324,-0.7055941875874034,0.0
1668680966.7600017,79124,1668680966,759750337,,1.7979376364232276,-8.59465753136308,1.1955999082615292,5e-324,-0.6904450644839112,0.0
1668680966.767928,79125,1668680966,767700659,,1.9462908529407184,-8.503092059156554,1.3284933155110277,5e-324,-0.6824322674154137,0.0
1668680966.776217,79126,1668680966,775917486,,1.9462908529407184,-8.503092059156554,1.3284933155110277,5e-324,-0.6824322674154137,0.0
1668680966.7842991,79127,1668680966,784019873,,2.367806739705138,-8.417451180181216,1.4473820144255822,5e-324,-0.6904842661864032,0.0
1668680966.7918556,79128,1668680966,791651003,,2.6631075103880244,-8.27177834026826,1.526693015452783,5e-324,-0.6886846793380752,0.0
1668680966.7998261,79129,1668680966,799607612,,2.81938815834311,-8.194726334920519,1.5685176170718695,5e-324,-0.6877322577204006,0.0
1668680966.8077335,79130,1668680966,807500416,,2.9245302733587453,-8.097342102130545,1.5661864823545588,5e-324,-0.6976950190635218,0.0
1668680966.8153253,79131,1668680966,815138903,,2.9245302733587453,-8.097342102130545,1.5661864823545588,5e-324,-0.6976950190635218,0.0
1668680966.8237996,79132,1668680966,823568537,,2.9804207909780067,-8.045787541609176,1.5646473687042262,5e-324,-0.7029573373626397,0.0
1668680966.8316944,79133,1668680966,831460182,,3.2031780866399577,-8.154198393932953,1.5751328085034588,5e-324,-0.7263563897536816,0.0
1668680966.839626,79134,1668680966,839441298,,3.566325526888085,-8.61364700094034,1.6858977651720717,5e-324,-0.795987010475077,0.0
1668680966.8477757,79135,1668680966,847546265,,3.7583913678534406,-8.856721393977125,1.744655204080336,5e-324,-0.8328325557565783,0.0
1668680966.8557103,79136,1668680966,855326139,,3.7583913678534406,-8.856721393977125,1.744655204080336,5e-324,-0.8328325557565783,0.0
1668680966.8638232,79137,1668680966,863577413,,3.4298770331885757,-9.012290621303471,1.8739136414981208,5e-324,-0.8527171105086342,0.0
1668680966.8717802,79138,1668680966,871567171,,3.1657875178723724,-9.150407387916019,1.920822511014097,5e-324,-0.8753367654257856,0.0
1668680966.8798347,79139,1668680966,879479826,,3.025913347917753,-9.22349625021372,1.9457867420616681,5e-324,-0.8873061571861819,0.0
1668680966.8880112,79140,1668680966,887775676,,3.153454602229832,-9.245252998790093,1.853228439878802,5e-324,-0.8788157194194626,0.0
1668680966.895921,79141,1668680966,895679911,,3.221152868068156,-9.256613625670404,1.804477311462442,5e-324,-0.8743181805424515,0.0
1668680966.9035087,79142,1668680966,903247701,,3.221152868068156,-9.256613625670404,1.804477311462442,5e-324,-0.8743181805424515,0.0
1668680966.9119563,79143,1668680966,911770012,,3.1432696503928286,-9.192973446406135,1.7917245515002294,5e-324,-0.8667905079930625,0.0
1668680966.9208405,79144,1668680966,920509358,,3.1455308769211054,-8.95121930666982,1.9552175238919856,5e-324,-0.8370576378963341,0.0
1668680966.9282668,79145,1668680966,928067907,,3.14651430771909,-8.823355123203264,2.0418681309297195,5e-324,-0.8213322729912383,0.0
1668680966.935656,79146,1668680966,935440551,,3.413895919892482,-8.942856391368746,2.1929145582059335,5e-324,-0.8447911005874744,0.0
1668680966.9434361,79147,1668680966,943230757,,3.413895919892482,-8.942856391368746,2.1929145582059335,5e-324,-0.8447911005874744,0.0
1668680966.9517128,79148,1668680966,951502908,,3.6002521783710546,-8.839195278293058,2.283424000556996,5e-324,-0.8333309361373884,0.0
1668680966.9599118,79149,1668680966,959683556,,3.6993194733114385,-8.784030036346293,2.331562548588204,5e-324,-0.8272565766640225,0.0
1668680966.9681633,79150,1668680966,967898854,,3.5141788940138863,-8.471765490402834,2.2300400218971506,5e-324,-0.7792071273473411,0.0
1668680966.977294,79151,1668680966,975461989,,3.41658372397703,-8.306252962233698,2.1767099898760884,5e-324,-0.7537796032037578,0.0
1668680966.9838703,79152,1668680966,983649030,,3.41658372397703,-8.306252962233698,2.1767099898760884,5e-324,-0.7537796032037578,0.0
1668680966.9916978,79153,1668680966,991472953,,3.4205654554429383,-8.29123863966149,2.0784541326053216,5e-324,-0.7553107660525902,0.0
1668680966.9997318,79154,1668680966,999504960,,3.3692571636341193,-8.225248146571122,2.0820981669073166,5e-324,-0.7343900561502458,0.0
1668680967.009652,79155,1668680967,7638208,,3.342051490917453,-8.190270255029825,2.0842985104559055,5e-324,-0.7233273464083421,0.0
1668680967.0163665,79156,1668680967,16109587,,3.547049019862242,-8.332647814488276,2.284775694902085,5e-324,-0.7563740572111302,0.0
1668680967.02335,79157,1668680967,23172474,,3.547049019862242,-8.332647814488276,2.284775694902085,5e-324,-0.7563740572111302,0.0
1668680967.0317504,79158,1668680967,31538335,,3.5290411542511797,-8.623245323447975,2.419269947922338,5e-324,-0.8026409879076264,0.0
1668680967.0397773,79159,1668680967,39568252,,3.519516463699743,-8.77694212721305,2.4905688421195955,5e-324,-0.8271210391474523,0.0
1668680967.0482576,79160,1668680967,48021330,,3.768415219302619,-8.828145725363092,2.5825565886729827,5e-324,-0.8488940747113,0.0
1668680967.0558496,79161,1668680967,55568489,,3.768415219302619,-8.828145725363092,2.5825565886729827,5e-324,-0.8488940747113,0.0
1668680967.0643277,79162,1668680967,63956589,,3.899850805401132,-8.855385874604927,2.6311684414108285,5e-324,-0.8604200844857461,0.0
1668680967.0717278,79163,1668680967,71492040,,3.6306864001207657,-8.705437571188117,2.580321895143107,5e-324,-0.8411909742542829,0.0
1668680967.0800498,79164,1668680967,79864486,,3.73717967410217,-8.735130487209755,2.416796225809009,5e-324,-0.8528111762826951,0.0
1668680967.0877225,79165,1668680967,87543514,,3.7937926513246003,-8.750625411052162,2.330522560912835,5e-324,-0.8589522015862734,0.0
1668680967.0959196,79166,1668680967,95703929,,3.822066072139262,-8.542508520860443,2.331987675572595,5e-324,-0.8226896101491321,0.0
1668680967.1034598,79167,1668680967,103272903,,3.822066072139262,-8.542508520860443,2.331987675572595,5e-324,-0.8226896101491321,0.0
1668680967.111905,79168,1668680967,111657735,,3.597923845534127,-8.527380099164661,2.4876433139540057,5e-324,-0.8363077412107971,0.0
1668680967.119981,79169,1668680967,119688296,,3.4796101188295117,-8.51917686716498,2.570187994993383,5e-324,-0.8435082066998008,0.0
1668680967.1278079,79170,1668680967,127573601,,3.660776141390808,-8.853543671699647,2.78398967487119,5e-324,-0.8796259792133142,0.0
1668680967.1358342,79171,1668680967,135622731,,3.7563236670161007,-9.030581867184903,2.8971382172675346,5e-324,-0.898740442664905,0.0
1668680967.143469,79172,1668680967,143276972,,3.7563236670161007,-9.030581867184903,2.8971382172675346,5e-324,-0.898740442664905,0.0
1668680967.1520524,79173,1668680967,151801424,,4.02633139033497,-9.246075407141332,2.9251907306797644,5e-324,-0.9260679430559972,0.0
1668680967.1597939,79174,1668680967,159588154,,3.7486349281411817,-9.144424274793785,2.85354572411317,5e-324,-0.917855746794274,0.0
1668680967.1679695,79175,1668680967,167733678,,3.60155857198556,-9.090434330913336,2.816374556748837,5e-324,-0.9135156112684415,0.0
1668680967.1761844,79176,1668680967,175893027,,3.9346174772147897,-9.032367313560748,2.7653482396138434,5e-324,-0.9065364318517919,0.0
1668680967.1835601,79177,1668680967,183242957,,3.9346174772147897,-9.032367313560748,2.7653482396138434,5e-324,-0.9065364318517919,0.0
1668680967.1917882,79178,1668680967,191535765,,4.088088211418021,-9.159637046600736,2.7273084683240145,5e-324,-0.9168928129970557,0.0
1668680967.2013438,79179,1668680967,200468644,,4.169009687620123,-9.227118167154304,2.707170258798895,5e-324,-0.9223742851923853,0.0
1668680967.2085462,79180,1668680967,208222164,,3.9768682302518794,-9.133531002343954,2.757252207344818,5e-324,-0.910050269106668,0.0
1668680967.2158191,79181,1668680967,215606597,,3.8753721456766144,-9.08410429810593,2.7833156156243923,5e-324,-0.9035270814681919,0.0
1668680967.2233462,79182,1668680967,223156036,,3.8753721456766144,-9.08410429810593,2.7833156156243923,5e-324,-0.9035270814681919,0.0
1668680967.231896,79183,1668680967,231692474,,3.872914933997394,-9.04754677067453,2.820588752697227,5e-324,-0.8975238154654266,0.0
1668680967.23989,79184,1668680967,239711442,,4.1614556300860865,-9.311498415236196,2.9387199404615716,5e-324,-0.9330719534697594,0.0
1668680967.247696,79185,1668680967,247511827,,4.313875581267627,-9.45134179687516,3.001043214598729,5e-324,-0.9518794886828006,0.0
1668680967.25586,79186,1668680967,255635566,,4.1210137766892405,-9.140477980760036,3.0560452150290858,5e-324,-0.9133544061250716,0.0
1668680967.2634802,79187,1668680967,263218776,,4.1210137766892405,-9.140477980760036,3.0560452150290858,5e-324,-0.9133544061250716,0.0
1668680967.2719698,79188,1668680967,271753561,,4.025560926340205,-8.889685687461753,3.0358441605394684,5e-324,-0.8796704528865916,0.0
1668680967.2799249,79189,1668680967,279682565,,3.9749127931057453,-8.757135470382476,3.0250039340990256,5e-324,-0.8618492489300555,0.0
1668680967.2878487,79190,1668680967,287663958,,4.202070925375006,-8.919088047405124,2.9176633675905927,5e-324,-0.8848481751788735,0.0
1668680967.2957242,79191,1668680967,295519809,,4.321926251759651,-9.004808423842553,2.8612518956113178,5e-324,-0.897027779542759,0.0
1668680967.3035762,79192,1668680967,303369642,,4.321926251759651,-9.004808423842553,2.8612518956113178,5e-324,-0.897027779542759,0.0
1668680967.3118682,79193,1668680967,311625812,,4.305892539990688,-9.012951341485042,2.812351059198727,5e-324,-0.8971717789189324,0.0
1668680967.3198233,79194,1668680967,319584390,,4.276848851593692,-8.927534143768248,2.9441268263309635,5e-324,-0.9052046727108143,0.0
1668680967.3276918,79195,1668680967,327495585,,4.261467673898525,-8.882491826195018,3.0135049572070187,5e-324,-0.9094593347236377,0.0
1668680967.3358235,79196,1668680967,335549991,,4.54147760035908,-9.191554143346144,3.1066453514457097,5e-324,-0.953698999726249,0.0
1668680967.3436399,79197,1668680967,343391615,,4.54147760035908,-9.191554143346144,3.1066453514457097,5e-324,-0.953698999726249,0.0
1668680967.3517478,79198,1668680967,351534006,,4.851128714478181,-9.04251375217586,3.6333933902417996,5e-324,-0.9609230671819468,0.0
1668680967.3603587,79199,1668680967,360011274,,5.015372340446264,-8.963282670536358,3.9123054599919627,5e-324,-0.9647349993957841,0.0
1668680967.3677368,79200,1668680967,367543813,,4.896783449245122,-8.787192917824385,3.832730777042162,5e-324,-0.9419698067957087,0.0
1668680967.3755865,79201,1668680967,375261917,,4.896783449245122,-8.787192917824385,3.832730777042162,5e-324,-0.9419698067957087,0.0
1668680967.3837996,79202,1668680967,383533796,,4.83445390474091,-8.693310071790002,3.7915780121978306,5e-324,-0.9299174210281251,0.0
1668680967.3918605,79203,1668680967,391639958,,5.094290617837784,-8.799238657279929,3.752549261053918,5e-324,-0.9483374997751474,0.0
1668680967.4002419,79204,1668680967,400013075,,4.932486759643342,-8.884633217230277,3.4359762885461604,5e-324,-0.9497794420473579,0.0
1668680967.4078526,79205,1668680967,407607660,,4.846544249965773,-8.929695352756315,3.2692466661891295,5e-324,-0.9505474543959078,0.0
1668680967.4159966,79206,1668680967,415695840,,4.927986089779898,-8.731983704831334,3.2362219833497408,5e-324,-0.9393292817714971,0.0
1668680967.4235735,79207,1668680967,423328139,,4.927986089779898,-8.731983704831334,3.2362219833497408,5e-324,-0.9393292817714971,0.0
1668680967.4318962,79208,1668680967,431668978,,5.003411638085311,-8.69681978958359,3.290762333221867,5e-324,-0.9344579852984437,0.0
1668680967.439938,79209,1668680967,439726152,,5.0435956582783525,-8.678358437674866,3.318911792606988,5e-324,-0.931860818056118,0.0
1668680967.4480608,79210,1668680967,447845231,,5.318086132078623,-8.604389308999089,3.934118362509821,5e-324,-0.9600309912741738,0.0
1668680967.4559238,79211,1668680967,455716181,,5.463456595242087,-8.565131900009415,4.259647757673962,5e-324,-0.9749416351961271,0.0
1668680967.4638445,79212,1668680967,463585880,,5.463456595242087,-8.565131900009415,4.259647757673962,5e-324,-0.9749416351961271,0.0
1668680967.4719088,79213,1668680967,471686487,,5.62994957097418,-8.48254396128556,4.506085528320748,5e-324,-0.9702894359558933,0.0
1668680967.4798634,79214,1668680967,479636861,,5.992881055920979,-8.7987431052216,4.609606875896534,5e-324,-1.0182522195149222,0.0
1668680967.4879045,79215,1668680967,487682633,,6.185490931107065,-8.966088409295606,4.663522752824981,5e-324,-1.0436103808078458,0.0
1668680967.4961588,79216,1668680967,495845006,,5.933107062783827,-8.906229841367931,4.696107609677879,5e-324,-1.0301444289641526,0.0
1668680967.5040796,79217,1668680967,503833333,,5.933107062783827,-8.906229841367931,4.696107609677879,5e-324,-1.0301444289641526,0.0
1668680967.5118837,79218,1668680967,511677902,,5.821981445405382,-8.611838573486075,5.211825920663076,5e-324,-1.0106750315246689,0.0
1668680967.5199528,79219,1668680967,519612554,,5.762972113567766,-8.456243258380239,5.484673832659947,5e-324,-1.0003653593914568,0.0
1668680967.5282826,79220,1668680967,527621585,,6.061374499955979,-8.739358037652108,5.345497231459595,5e-324,-1.02844111081542,0.0
1668680967.5357697,79221,1668680967,535573339,,6.218772055594723,-8.88921936701259,5.2723198562086555,5e-324,-1.0432977915573576,0.0
1668680967.5434384,79222,1668680967,543188561,,6.218772055594723,-8.88921936701259,5.2723198562086555,5e-324,-1.0432977915573576,0.0
1668680967.5519595,79223,1668680967,551750976,,6.197450371575478,-8.95209983524932,5.138962468083387,5e-324,-1.0453784713617327,0.0
1668680967.5599022,79224,1668680967,559689111,,6.193131964466561,-8.498550837838147,5.333505000221249,5e-324,-1.0059454378267394,0.0
1668680967.5677764,79225,1668680967,567575851,,6.190580797780926,-8.258617128914537,5.436685588177911,5e-324,-0.9850848841293103,0.0
1668680967.5755084,79226,1668680967,575253960,,6.190580797780926,-8.258617128914537,5.436685588177911,5e-324,-0.9850848841293103,0.0
1668680967.583709,79227,1668680967,583510801,,6.654207997192975,-8.445155915919933,5.2547112996066865,5e-324,-1.0090411606668361,0.0
1668680967.5919838,79228,1668680967,591753305,,6.878791603624261,-8.593811809963357,5.508620445315025,5e-324,-1.0446534400782541,0.0
1668680967.5997498,79229,1668680967,599487481,,6.998066139917154,-8.672891512343263,5.641799914860462,5e-324,-1.0634819430911089,0.0
1668680967.6077926,79230,1668680967,607607781,,6.46604447019506,-8.611764366391068,5.728619827956235,5e-324,-1.0443180012115718,0.0
1668680967.6155543,79231,1668680967,615337720,,6.46604447019506,-8.611764366391068,5.728619827956235,5e-324,-1.0443180012115718,0.0
1668680967.6240215,79232,1668680967,623811187,,6.184634164421425,-8.579722713864994,5.774064760608647,5e-324,-1.0341889693300244,0.0
1668680967.6321442,79233,1668680967,631874168,,6.280838364446476,-8.699907075877654,5.765612668988348,5e-324,-1.0468180412137233,0.0
1668680967.640151,79234,1668680967,639842556,,5.8651804134678915,-8.633336867775018,5.639566056172501,5e-324,-1.0203668330865305,0.0
1668680967.6478467,79235,1668680967,647639802,,5.645459227962177,-8.597892538113122,5.57301512756203,5e-324,-1.0063681195824512,0.0
1668680967.6556134,79236,1668680967,655440113,,5.645459227962177,-8.597892538113122,5.57301512756203,5e-324,-1.0063681195824512,0.0
1668680967.6637647,79237,1668680967,663566652,,5.743280896852172,-8.17068940823663,5.471806867100293,5e-324,-0.943277443247484,0.0
1668680967.6716692,79238,1668680967,671466180,,6.064639628168187,-7.980585374244722,4.85655522511125,5e-324,-0.9024033581303765,0.0
1668680967.67973,79239,1668680967,679511918,,6.234540972136259,-7.879669953251058,4.531784698488746,5e-324,-0.8807603257133052,0.0
1668680967.6877978,79240,1668680967,687589287,,6.482472557693731,-7.587911878336577,4.46675250398329,5e-324,-0.858516695228142,0.0
1668680967.6955612,79241,1668680967,695246781,,6.482472557693731,-7.587911878336577,4.46675250398329,5e-324,-0.858516695228142,0.0
1668680967.7039528,79242,1668680967,703724880,,6.613409238260079,-7.433458428576991,4.432827361020937,5e-324,-0.8467693457757152,0.0
1668680967.7119563,79243,1668680967,711652352,,6.661837393213457,-7.317473937849831,4.418692943969399,5e-324,-0.8413910797640959,0.0
1668680967.7200873,79244,1668680967,719743874,,6.6469455181362145,-7.6282170617581695,3.909992822106523,5e-324,-0.8537864898352602,0.0
1668680967.727876,79245,1668680967,727645691,,6.639305342046764,-7.792751707375663,3.6401672586880034,5e-324,-0.8603400110627866,0.0
1668680967.7356048,79246,1668680967,735377748,,6.639305342046764,-7.792751707375663,3.6401672586880034,5e-324,-0.8603400110627866,0.0
1668680967.7456858,79247,1668680967,743932205,,6.504995932449505,-7.792297243668592,4.11877130049444,5e-324,-0.8899406187309042,0.0
1668680967.7520936,79248,1668680967,751826825,,6.247126243962539,-7.778460630653643,4.175089033211068,5e-324,-0.8771583120043045,0.0
1668680967.759881,79249,1668680967,759690994,,6.110945213921664,-7.770843414847317,4.205046744118931,5e-324,-0.8703910432022777,0.0
1668680967.7680736,79250,1668680967,767744008,,6.629740433510153,-7.635679417104862,4.464579394179323,5e-324,-0.8729988192032971,0.0
1668680967.7763672,79251,1668680967,775827128,,6.904377417800669,-7.563731089304788,4.6023153333238636,5e-324,-0.8743767119069388,0.0
1668680967.784075,79252,1668680967,783802510,,6.904377417800669,-7.563731089304788,4.6023153333238636,5e-324,-0.8743767119069388,0.0
1668680967.7918196,79253,1668680967,791537409,,6.904377417800669,-7.563731089304788,4.6023153333238636,5e-324,-0.8743767119069388,0.0
1668680967.8000045,79254,1668680967,799728738,,6.752886432861029,-7.376196779007325,4.6505529157727,5e-324,-0.8616707812479052,0.0
1668680967.8081393,79255,1668680967,807850618,,6.811573734604007,-7.349378260308217,4.2439388283256845,5e-324,-0.8470120943471142,0.0
1668680967.8154886,79256,1668680967,815242030,,6.811573734604007,-7.349378260308217,4.2439388283256845,5e-324,-0.8470120943471142,0.0
1668680967.8236036,79257,1668680967,823416863,,6.868555443349443,-7.298396578063526,3.9702033981710336,5e-324,-0.8377780002221087,0.0
1668680967.8318582,79258,1668680967,831630568,,6.537825682624531,-7.477098703328657,3.6812674320794256,5e-324,-0.8427028483734889,0.0
1668680967.839876,79259,1668680967,839656487,,6.362641984327866,-7.571836843760377,3.5283498739259853,5e-324,-0.8453187060730273,0.0
1668680967.8480415,79260,1668680967,847731553,,6.449406421718266,-7.762379445418869,3.8635190552988705,5e-324,-0.881163917682805,0.0
1668680967.855703,79261,1668680967,855449260,,6.449406421718266,-7.762379445418869,3.8635190552988705,5e-324,-0.881163917682805,0.0
1668680967.8638942,79262,1668680967,863637510,,6.495218693483359,-7.8635942368194005,4.040293049351379,5e-324,-0.9001392121711667,0.0
1668680967.8719287,79263,1668680967,871689911,,6.2196923093747865,-7.7531540119549485,4.161016392217098,5e-324,-0.8823558133014034,0.0
1668680967.8799667,79264,1668680967,879723847,,6.164649505940493,-7.852041558638902,4.096485348803661,5e-324,-0.898823149565595,0.0
1668680967.8880944,79265,1668680967,887855764,,6.135860312418444,-7.904233506864173,4.062099993837625,5e-324,-0.9075339161389672,0.0
1668680967.8953831,79266,1668680967,895164334,,6.135860312418444,-7.904233506864173,4.062099993837625,5e-324,-0.9075339161389672,0.0
1668680967.9038222,79267,1668680967,903624195,,6.361856410537506,-7.768018346823781,3.935775819904485,5e-324,-0.8795554520585631,0.0
1668680967.9122658,79268,1668680967,912018920,,6.019211362028234,-7.542693470026112,3.6665056673763528,5e-324,-0.8304875325442745,0.0
1668680967.9201283,79269,1668680967,919697457,,5.837888430223648,-7.423222419061785,3.5245845600705064,5e-324,-0.8045367320592688,0.0
1668680967.9282653,79270,1668680967,927943585,,5.958875570830639,-7.692496264946671,3.4729541959331818,5e-324,-0.8353797732036645,0.0
1668680967.9357345,79271,1668680967,935525546,,6.022352456787074,-7.835062067264392,3.44629516778979,5e-324,-0.8517078263941049,0.0
1668680967.943686,79272,1668680967,943482482,,6.022352456787074,-7.835062067264392,3.44629516778979,5e-324,-0.8517078263941049,0.0
1668680967.951988,79273,1668680967,951751388,,5.880016370207507,-7.797410995834933,3.3179226497163605,5e-324,-0.8360310087474394,0.0
1668680967.959894,79274,1668680967,959653568,,5.792358787794363,-7.84439264624991,3.1425051194579003,5e-324,-0.8472698217546655,0.0
1668680967.9678955,79275,1668680967,967696038,,5.745835671155942,-7.8692460811221325,3.049950245255022,5e-324,-0.8532195114322301,0.0
1668680967.9757943,79276,1668680967,975540084,,5.745835671155942,-7.8692460811221325,3.049950245255022,5e-324,-0.8532195114322301,0.0
1668680967.9837766,79277,1668680967,983570757,,5.898854421805451,-7.83486004229828,2.984328292693544,5e-324,-0.8350786422773038,0.0
1668680967.991847,79278,1668680967,991613301,,5.772955130499994,-7.714821203939781,3.29754505135602,5e-324,-0.8344081553232086,0.0
1668680967.9997501,79279,1668680967,999548671,,5.706676023498157,-7.6516215372573235,3.462215624599394,5e-324,-0.8340514147665394,0.0
1668680968.0080974,79280,1668680968,7826009,,5.4984600649221225,-8.166438636813133,3.665714869442115,5e-324,-0.8906209153484785,0.0
1668680968.0155127,79281,1668680968,15312883,,5.4984600649221225,-8.166438636813133,3.665714869442115,5e-324,-0.8906209153484785,0.0
1668680968.023812,79282,1668680968,23561980,,5.388768221863609,-8.438622330606247,3.773166865765371,5e-324,-0.9205349611906931,0.0
1668680968.0317266,79283,1668680968,31479750,,5.384817997357276,-8.5621682071686,3.8393106242040984,5e-324,-0.9123352614124808,0.0
1668680968.0400717,79284,1668680968,39733498,,5.223750862898001,-8.418242669350809,4.3657667810371645,5e-324,-0.9070633509509041,0.0
1668680968.0477934,79285,1668680968,47579716,,5.1385842308911025,-8.341622103906115,4.644986373982192,5e-324,-0.9042679781233278,0.0
1668680968.055504,79286,1668680968,55272282,,5.1385842308911025,-8.341622103906115,4.644986373982192,5e-324,-0.9042679781233278,0.0
1668680968.0641315,79287,1668680968,63914793,,5.083082563047349,-8.45190243157391,4.277751698120944,5e-324,-0.8973072865170236,0.0
1668680968.0725532,79288,1668680968,72247164,,5.350786906383533,-8.611713077590128,4.111798092416456,5e-324,-0.9128176669490915,0.0
1668680968.0802677,79289,1668680968,79957807,,5.4920969913824385,-8.69649082846485,4.023988156937053,5e-324,-0.9210311240258497,0.0
1668680968.0913062,79290,1668680968,90378866,,5.486188728967273,-8.402874908910334,4.200913087411061,5e-324,-0.8929910394125052,0.0
1668680968.0973537,79291,1668680968,96954692,,5.483263284795726,-8.247368082848578,4.294550340194356,5e-324,-0.8781315382310015,0.0
1668680968.1045055,79292,1668680968,104148311,,5.483263284795726,-8.247368082848578,4.294550340194356,5e-324,-0.8781315382310015,0.0
1668680968.1118526,79293,1668680968,111624471,,5.6689743409280045,-8.244953514188683,4.33957940663025,5e-324,-0.8909110555410809,0.0
1668680968.1197536,79294,1668680968,119539192,,5.799273418927599,-8.376980105698628,4.0970346324702085,5e-324,-0.8952977423887365,0.0
1668680968.12783,79295,1668680968,127627234,,5.868409360193873,-8.447018856471612,3.9680569626155187,5e-324,-0.8976248401245992,0.0
1668680968.1357286,79296,1668680968,135530518,,5.7775097821694965,-8.501847891300446,4.240543593955729,5e-324,-0.9210520364263393,0.0
1668680968.1434577,79297,1668680968,143270680,,5.7775097821694965,-8.501847891300446,4.240543593955729,5e-324,-0.9210520364263393,0.0
1668680968.1516986,79298,1668680968,151470649,,5.373009014702053,-8.422841830453326,4.781237663558654,5e-324,-0.9165325762476898,0.0
1668680968.1597679,79299,1668680968,159571992,,5.15900714037819,-8.38091148143074,5.0674870836991115,5e-324,-0.9141404429190743,0.0
1668680968.1680977,79300,1668680968,167852068,,5.318127639160586,-8.627064210920853,5.26507780425298,5e-324,-0.9500964977032523,0.0
1668680968.1773298,79301,1668680968,175539830,,5.401542674372717,-8.757421887091954,5.370202878832086,5e-324,-0.9691307778338498,0.0
1668680968.1850278,79302,1668680968,183363932,,5.401542674372717,-8.757421887091954,5.370202878832086,5e-324,-0.9691307778338498,0.0
1668680968.1917408,79303,1668680968,191540499,,5.32179848158612,-8.778973283707181,5.382606505837741,5e-324,-0.9698132723870094,0.0
1668680968.2000575,79304,1668680968,199830809,,5.230771208354516,-8.48182866618878,5.459215267602648,5e-324,-0.9489863817221083,0.0
1668680968.2076068,79305,1668680968,207418708,,5.183000256715504,-8.324843007828019,5.49906518604184,5e-324,-0.9379606821898765,0.0
1668680968.2158027,79306,1668680968,215559523,,5.299232216003855,-8.233549024835451,5.057345625618758,5e-324,-0.9029244646838066,0.0
1668680968.2235675,79307,1668680968,223334378,,5.299232216003855,-8.233549024835451,5.057345625618758,5e-324,-0.9029244646838066,0.0
1668680968.232971,79308,1668680968,232367706,,5.66741590113712,-8.188360029773712,5.12725628116157,5e-324,-0.906965703542346,0.0
1668680968.2400804,79309,1668680968,239859723,,5.862032233218995,-8.164805035540391,5.163930992101453,5e-324,-0.9090985929691577,0.0
1668680968.2478676,79310,1668680968,247597622,,5.613918888536069,-8.255322436491262,5.032306297563736,5e-324,-0.920259115081469,0.0
1668680968.255487,79311,1668680968,255270668,,5.613918888536069,-8.255322436491262,5.032306297563736,5e-324,-0.920259115081469,0.0
1668680968.264057,79312,1668680968,263755150,,5.481966694545118,-8.303406617683068,4.9630919729439285,5e-324,-0.9261670743089192,0.0
1668680968.2716246,79313,1668680968,271415506,,5.712075271350537,-8.468565004826168,4.894794188043636,5e-324,-0.9437914961426294,0.0
1668680968.2797112,79314,1668680968,279492835,,5.490419147482587,-8.316658555566466,5.242492462886901,5e-324,-0.933850232032553,0.0
1668680968.287921,79315,1668680968,287675834,,5.3735022263445895,-8.236088119236344,5.426392422821301,5e-324,-0.9285876911702474,0.0
1668680968.2955177,79316,1668680968,295268805,,5.3735022263445895,-8.236088119236344,5.426392422821301,5e-324,-0.9285876911702474,0.0
1668680968.3053281,79317,1668680968,303516247,,5.244921105000275,-8.172984897050906,5.481968658857461,5e-324,-0.9201016876850844,0.0
1668680968.311968,79318,1668680968,311715386,,5.5070363956406485,-8.387702317294643,5.043010046063861,5e-324,-0.9271289048916972,0.0
1668680968.3198771,79319,1668680968,319649269,,5.64535923113702,-8.50177969682083,4.810379256159764,5e-324,-0.9308643510593231,0.0
1668680968.3278885,79320,1668680968,327654409,,5.525084122595215,-8.26544495159433,4.805356903255269,5e-324,-0.904198527972615,0.0
1668680968.33569,79321,1668680968,335512576,,5.461019151464042,-8.140717183642833,4.802689792211021,5e-324,-0.890092518221572,0.0
1668680968.343337,79322,1668680968,343139262,,5.461019151464042,-8.140717183642833,4.802689792211021,5e-324,-0.890092518221572,0.0
1668680968.351771,79323,1668680968,351503508,,5.611969456680692,-8.135043082427451,4.82436768979527,5e-324,-0.8966429030259958,0.0
1668680968.359965,79324,1668680968,359701330,,5.849541065800407,-8.405969542101985,4.515080999928863,5e-324,-0.9208465687372858,0.0
1668680968.3678155,79325,1668680968,367621904,,5.97468576926838,-8.54943594708225,4.351965110026338,5e-324,-0.9336643156300493,0.0
1668680968.376013,79326,1668680968,375766984,,6.075581451639024,-8.482546411745982,4.629483253950409,5e-324,-0.9433305781716754,0.0
1668680968.38369,79327,1668680968,383351915,,6.075581451639024,-8.482546411745982,4.629483253950409,5e-324,-0.9433305781716754,0.0
1668680968.392589,79328,1668680968,391972517,,5.806924369266171,-8.592294976871486,4.4042314353193595,5e-324,-0.938395321059621,0.0
1668680968.3996572,79329,1668680968,399454059,,5.664719861242373,-8.65039777418157,4.28506623786302,5e-324,-0.935790532012521,0.0
1668680968.4076788,79330,1668680968,407421404,,5.72346001848777,-8.710765452256288,4.599174747542741,5e-324,-0.9528776705954747,0.0
1668680968.41543,79331,1668680968,415191771,,5.72346001848777,-8.710765452256288,4.599174747542741,5e-324,-0.9528776705954747,0.0
1668680968.4237523,79332,1668680968,423526467,,5.754837140997865,-8.742658796543568,4.765096818718295,5e-324,-0.9619043307610446,0.0
1668680968.4317458,79333,1668680968,431524336,,5.649871084415706,-8.67226960844772,4.847162856724005,5e-324,-0.9572934593421896,0.0
1668680968.439832,79334,1668680968,439617760,,5.7227796784023255,-8.715530459729637,4.646530609630105,5e-324,-0.967148707622048,0.0
1668680968.4477699,79335,1668680968,447501092,,5.7608820746118,-8.738073160738722,4.541595120008399,5e-324,-0.9723741867994247,0.0
1668680968.4559288,79336,1668680968,455698929,,5.763893696155325,-8.842358802513875,4.3278137187989,5e-324,-0.9852040344011883,0.0
1668680968.4635367,79337,1668680968,463294229,,5.763893696155325,-8.842358802513875,4.3278137187989,5e-324,-0.9852040344011883,0.0
1668680968.47176,79338,1668680968,471542394,,5.529296073557334,-8.481678823941163,4.744748259642236,5e-324,-0.9539206102481492,0.0
1668680968.480213,79339,1668680968,479795798,,5.4049767835093565,-8.291195399292887,4.9650365688642015,5e-324,-0.9373886463750852,0.0
1668680968.4879642,79340,1668680968,487731155,,5.645204114455406,-8.615216571439177,5.163606868975263,5e-324,-0.9966529395554786,0.0
