Time,header.seq,header.stamp.secs,header.stamp.nsecs,header.frame_id,pose.position.x,pose.position.y,pose.position.z,pose.orientation.x,pose.orientation.y,pose.orientation.z,pose.orientation.w
1668680964.7607954,78874,1668680964,760361377,,-0.09879818043296344,-0.6160097982919182,0.0781922967147341,0.9955612156868467,0.09352316526210439,-0.00434759538630278,0.009611544820769187
1668680964.7676878,78875,1668680964,767525676,,-0.09879818043296344,-0.6160097982919182,0.0781922967147341,0.9955612156868467,0.09352316526210439,-0.00434759538630278,0.009611544820769187
1668680964.775458,78876,1668680964,775342305,,-0.09879818043296344,-0.6160097982919182,0.0781922967147341,0.9955612156868467,0.09352316526210439,-0.00434759538630278,0.009611544820769187
1668680964.7836947,78877,1668680964,783551438,,-0.09879818043296344,-0.6160097982919182,0.0781922967147341,0.9955612156868467,0.09352316526210439,-0.00434759538630278,0.009611544820769187
1668680964.7918632,78878,1668680964,791630589,,-0.09879818043296344,-0.6160097982919182,0.0781922967147341,0.9955612156868467,0.09352316526210439,-0.00434759538630278,0.009611544820769187
1668680964.7996569,78879,1668680964,799550611,,-0.09879818043296344,-0.6160097982919182,0.0781922967147341,0.9955612156868467,0.09352316526210439,-0.00434759538630278,0.009611544820769187
1668680964.8080559,78880,1668680964,807899869,,-0.09879818043296344,-0.6160097982919182,0.0781922967147341,0.9955612156868467,0.09352316526210439,-0.00434759538630278,0.009611544820769187
1668680964.8152745,78881,1668680964,815171824,,-0.09879818043296344,-0.6160097982919182,0.0781922967147341,0.9955612156868467,0.09352316526210439,-0.00434759538630278,0.009611544820769187
1668680964.8236876,78882,1668680964,823544736,,-0.09879818043296344,-0.6160097982919182,0.0781922967147341,0.9955612156868467,0.09352316526210439,-0.00434759538630278,0.009611544820769187
1668680964.8319685,78883,1668680964,831803384,,-0.09879818043296344,-0.6160097982919182,0.0781922967147341,0.9955612156868467,0.09352316526210439,-0.00434759538630278,0.009611544820769187
1668680964.8399754,78884,1668680964,839846091,,-0.09879818043296344,-0.6160097982919182,0.0781922967147341,0.9955612156868467,0.09352316526210439,-0.00434759538630278,0.009611544820769187
1668680964.848258,78885,1668680964,848081574,,-0.09879818043296344,-0.6160097982919182,0.0781922967147341,0.9955612156868467,0.09352316526210439,-0.00434759538630278,0.009611544820769187
1668680964.856249,78886,1668680964,856014770,,-0.09879818043296344,-0.6160097982919182,0.0781922967147341,0.9955612156868467,0.09352316526210439,-0.00434759538630278,0.009611544820769187
1668680964.8638341,78887,1668680964,863514310,,-0.09879818043296344,-0.6160097982919182,0.0781922967147341,0.9955612156868467,0.09352316526210439,-0.00434759538630278,0.009611544820769187
1668680964.8718214,78888,1668680964,871542153,,-0.09879818043296344,-0.6160097982919182,0.0781922967147341,0.9955612156868467,0.09352316526210439,-0.00434759538630278,0.009611544820769187
1668680964.8800187,78889,1668680964,879814198,,-0.09879818043296344,-0.6160097982919182,0.0781922967147341,0.9955612156868467,0.09352316526210439,-0.00434759538630278,0.009611544820769187
1668680964.8877845,78890,1668680964,887597127,,-0.09879818043296344,-0.6160097982919182,0.0781922967147341,0.9955612156868467,0.09352316526210439,-0.00434759538630278,0.009611544820769187
1668680964.8955245,78891,1668680964,895286221,,-0.09879818043296344,-0.6160097982919182,0.0781922967147341,0.9955612156868467,0.09352316526210439,-0.00434759538630278,0.009611544820769187
1668680964.9038663,78892,1668680964,903639033,,-0.09879818043296344,-0.6160097982919182,0.0781922967147341,0.9955612156868467,0.09352316526210439,-0.00434759538630278,0.009611544820769187
1668680964.911768,78893,1668680964,911627237,,-0.09879818043296344,-0.6160097982919182,0.0781922967147341,0.9955612156868467,0.09352316526210439,-0.00434759538630278,0.009611544820769187
1668680964.9198208,78894,1668680964,919516815,,-0.09879818043296344,-0.6160097982919182,0.0781922967147341,0.9955612156868467,0.09352316526210439,-0.00434759538630278,0.009611544820769187
1668680964.9278667,78895,1668680964,927615907,,-0.09879818043296344,-0.6160097982919182,0.0781922967147341,0.9955612156868467,0.09352316526210439,-0.00434759538630278,0.009611544820769187
1668680964.9358966,78896,1668680964,935739824,,-0.09879818043296344,-0.6160097982919182,0.0781922967147341,0.9955612156868467,0.09352316526210439,-0.00434759538630278,0.009611544820769187
1668680964.9439313,78897,1668680964,943685202,,-0.09879818043296344,-0.6160097982919182,0.0781922967147341,0.9955612156868467,0.09352316526210439,-0.00434759538630278,0.009611544820769187
1668680964.9518533,78898,1668680964,951684476,,-0.09879818043296344,-0.6160097982919182,0.0781922967147341,0.9955612156868467,0.09352316526210439,-0.00434759538630278,0.009611544820769187
1668680964.9597712,78899,1668680964,959640880,,-0.09879818043296344,-0.6160097982919182,0.0781922967147341,0.9955612156868467,0.09352316526210439,-0.00434759538630278,0.009611544820769187
1668680964.9679046,78900,1668680964,967692860,,-0.09879818043296344,-0.6160097982919182,0.0781922967147341,0.9955612156868467,0.09352316526210439,-0.00434759538630278,0.009611544820769187
1668680964.975435,78901,1668680964,975308364,,-0.09879818043296344,-0.6160097982919182,0.0781922967147341,0.9955612156868467,0.09352316526210439,-0.00434759538630278,0.009611544820769187
1668680964.983802,78902,1668680964,983625139,,-0.09879818043296344,-0.6160097982919182,0.0781922967147341,0.9955612156868467,0.09352316526210439,-0.00434759538630278,0.009611544820769187
1668680964.991892,78903,1668680964,991696524,,-0.09879818043296344,-0.6160097982919182,0.0781922967147341,0.9955612156868467,0.09352316526210439,-0.00434759538630278,0.009611544820769187
1668680964.9999702,78904,1668680964,999725535,,-0.09879818043296344,-0.6160097982919182,0.0781922967147341,0.9955612156868467,0.09352316526210439,-0.00434759538630278,0.009611544820769187
1668680965.008062,78905,1668680965,7832598,,-0.09879818043296344,-0.6160097982919182,0.0781922967147341,0.9955612156868467,0.09352316526210439,-0.00434759538630278,0.009611544820769187
1668680965.0155535,78906,1668680965,15321464,,-0.09879818043296344,-0.6160097982919182,0.0781922967147341,0.9955612156868467,0.09352316526210439,-0.00434759538630278,0.009611544820769187
1668680965.0239403,78907,1668680965,23781030,,-0.09879818043296344,-0.6160097982919182,0.0781922967147341,0.9955612156868467,0.09352316526210439,-0.00434759538630278,0.009611544820769187
1668680965.0318441,78908,1668680965,31666783,,-0.09879818043296344,-0.6160097982919182,0.0781922967147341,0.9955612156868467,0.09352316526210439,-0.00434759538630278,0.009611544820769187
1668680965.039538,78909,1668680965,39406302,,-0.09879818043296344,-0.6160097982919182,0.0781922967147341,0.9955612156868467,0.09352316526210439,-0.00434759538630278,0.009611544820769187
1668680965.0479255,78910,1668680965,47772465,,-0.09879818043296344,-0.6160097982919182,0.0781922967147341,0.9955612156868467,0.09352316526210439,-0.00434759538630278,0.009611544820769187
1668680965.0553603,78911,1668680965,55222745,,-0.09879818043296344,-0.6160097982919182,0.0781922967147341,0.9955612156868467,0.09352316526210439,-0.00434759538630278,0.009611544820769187
1668680965.0639706,78912,1668680965,63751231,,-0.09879818043296344,-0.6160097982919182,0.0781922967147341,0.9955612156868467,0.09352316526210439,-0.00434759538630278,0.009611544820769187
1668680965.0718973,78913,1668680965,71759592,,-0.09879818043296344,-0.6160097982919182,0.0781922967147341,0.9955612156868467,0.09352316526210439,-0.00434759538630278,0.009611544820769187
1668680965.0796835,78914,1668680965,79546661,,-0.09879818043296344,-0.6160097982919182,0.0781922967147341,0.9955612156868467,0.09352316526210439,-0.00434759538630278,0.009611544820769187
1668680965.0876188,78915,1668680965,87483665,,-0.09879818043296344,-0.6160097982919182,0.0781922967147341,0.9955612156868467,0.09352316526210439,-0.00434759538630278,0.009611544820769187
1668680965.0955245,78916,1668680965,95348485,,-0.09879818043296344,-0.6160097982919182,0.0781922967147341,0.9955612156868467,0.09352316526210439,-0.00434759538630278,0.009611544820769187
1668680965.1039016,78917,1668680965,103633558,,-0.09879818043296344,-0.6160097982919182,0.0781922967147341,0.9955612156868467,0.09352316526210439,-0.00434759538630278,0.009611544820769187
1668680965.1118665,78918,1668680965,111654784,,-0.09879818043296344,-0.6160097982919182,0.0781922967147341,0.9955612156868467,0.09352316526210439,-0.00434759538630278,0.009611544820769187
1668680965.119817,78919,1668680965,119675369,,-0.09879818043296344,-0.6160097982919182,0.0781922967147341,0.9955612156868467,0.09352316526210439,-0.00434759538630278,0.009611544820769187
1668680965.1278083,78920,1668680965,127568452,,-0.09879818043296344,-0.6160097982919182,0.0781922967147341,0.9955612156868467,0.09352316526210439,-0.00434759538630278,0.009611544820769187
1668680965.1352468,78921,1668680965,135132561,,-0.09879818043296344,-0.6160097982919182,0.0781922967147341,0.9955612156868467,0.09352316526210439,-0.00434759538630278,0.009611544820769187
1668680965.144813,78922,1668680965,144214705,,-0.09879818043296344,-0.6160097982919182,0.0781922967147341,0.9955612156868467,0.09352316526210439,-0.00434759538630278,0.009611544820769187
1668680965.1520393,78923,1668680965,151762391,,-0.09879818043296344,-0.6160097982919182,0.0781922967147341,0.9955612156868467,0.09352316526210439,-0.00434759538630278,0.009611544820769187
1668680965.159975,78924,1668680965,159751771,,-0.09879818043296344,-0.6160097982919182,0.0781922967147341,0.9955612156868467,0.09352316526210439,-0.00434759538630278,0.009611544820769187
1668680965.167754,78925,1668680965,167514368,,-0.09879818043296344,-0.6160097982919182,0.0781922967147341,0.9955612156868467,0.09352316526210439,-0.00434759538630278,0.009611544820769187
1668680965.1756055,78926,1668680965,175403086,,-0.09879818043296344,-0.6160097982919182,0.0781922967147341,0.9955612156868467,0.09352316526210439,-0.00434759538630278,0.009611544820769187
1668680965.1834054,78927,1668680965,183200563,,-0.09879818043296344,-0.6160097982919182,0.0781922967147341,0.9955612156868467,0.09352316526210439,-0.00434759538630278,0.009611544820769187
1668680965.1922398,78928,1668680965,192047345,,-0.09879818043296344,-0.6160097982919182,0.0781922967147341,0.9955612156868467,0.09352316526210439,-0.00434759538630278,0.009611544820769187
1668680965.1998887,78929,1668680965,199690021,,-0.09879818043296344,-0.6160097982919182,0.0781922967147341,0.9955612156868467,0.09352316526210439,-0.00434759538630278,0.009611544820769187
1668680965.2076712,78930,1668680965,207545707,,-0.09879818043296344,-0.6160097982919182,0.0781922967147341,0.9955612156868467,0.09352316526210439,-0.00434759538630278,0.009611544820769187
1668680965.2159448,78931,1668680965,215635351,,-0.09879818043296344,-0.6160097982919182,0.0781922967147341,0.9955612156868467,0.09352316526210439,-0.00434759538630278,0.009611544820769187
1668680965.2242463,78932,1668680965,223968735,,-0.09879818043296344,-0.6160097982919182,0.0781922967147341,0.9955612156868467,0.09352316526210439,-0.00434759538630278,0.009611544820769187
1668680965.2315538,78933,1668680965,231391593,,-0.09879818043296344,-0.6160097982919182,0.0781922967147341,0.9955612156868467,0.09352316526210439,-0.00434759538630278,0.009611544820769187
1668680965.2396634,78934,1668680965,239504981,,-0.09879818043296344,-0.6160097982919182,0.0781922967147341,0.9955612156868467,0.09352316526210439,-0.00434759538630278,0.009611544820769187
1668680965.2476268,78935,1668680965,247467720,,-0.09879818043296344,-0.6160097982919182,0.0781922967147341,0.9955612156868467,0.09352316526210439,-0.00434759538630278,0.009611544820769187
1668680965.2560723,78936,1668680965,255903181,,-0.09879818043296344,-0.6160097982919182,0.0781922967147341,0.9955612156868467,0.09352316526210439,-0.00434759538630278,0.009611544820769187
1668680965.2633858,78937,1668680965,263261142,,-0.09879818043296344,-0.6160097982919182,0.0781922967147341,0.9955612156868467,0.09352316526210439,-0.00434759538630278,0.009611544820769187
1668680965.2717373,78938,1668680965,271603317,,-0.09879818043296344,-0.6160097982919182,0.0781922967147341,0.9955612156868467,0.09352316526210439,-0.00434759538630278,0.009611544820769187
1668680965.279777,78939,1668680965,279543642,,-0.09879818043296344,-0.6160097982919182,0.0781922967147341,0.9955612156868467,0.09352316526210439,-0.00434759538630278,0.009611544820769187
1668680965.287948,78940,1668680965,287747324,,-0.09879818043296344,-0.6160097982919182,0.0781922967147341,0.9955612156868467,0.09352316526210439,-0.00434759538630278,0.009611544820769187
1668680965.29588,78941,1668680965,295601237,,-0.09879818043296344,-0.6160097982919182,0.0781922967147341,0.9955612156868467,0.09352316526210439,-0.00434759538630278,0.009611544820769187
1668680965.3036914,78942,1668680965,303496810,,-0.09879818043296344,-0.6160097982919182,0.0781922967147341,0.9955612156868467,0.09352316526210439,-0.00434759538630278,0.009611544820769187
1668680965.3119364,78943,1668680965,311736849,,-0.09879818043296344,-0.6160097982919182,0.0781922967147341,0.9955612156868467,0.09352316526210439,-0.00434759538630278,0.009611544820769187
1668680965.320562,78944,1668680965,320388828,,-0.09879818043296344,-0.6160097982919182,0.0781922967147341,0.9955612156868467,0.09352316526210439,-0.00434759538630278,0.009611544820769187
1668680965.328407,78945,1668680965,328153736,,-0.09879818043296344,-0.6160097982919182,0.0781922967147341,0.9955612156868467,0.09352316526210439,-0.00434759538630278,0.009611544820769187
1668680965.335989,78946,1668680965,335778846,,-0.09879818043296344,-0.6160097982919182,0.0781922967147341,0.9955612156868467,0.09352316526210439,-0.00434759538630278,0.009611544820769187
1668680965.3446293,78947,1668680965,344496034,,-0.09879818043296344,-0.6160097982919182,0.0781922967147341,0.9955612156868467,0.09352316526210439,-0.00434759538630278,0.009611544820769187
1668680965.352015,78948,1668680965,351867959,,-0.09879818043296344,-0.6160097982919182,0.0781922967147341,0.9955612156868467,0.09352316526210439,-0.00434759538630278,0.009611544820769187
1668680965.3599467,78949,1668680965,359795558,,-0.09879818043296344,-0.6160097982919182,0.0781922967147341,0.9955612156868467,0.09352316526210439,-0.00434759538630278,0.009611544820769187
1668680965.36761,78950,1668680965,367397214,,-0.09879818043296344,-0.6160097982919182,0.0781922967147341,0.9955612156868467,0.09352316526210439,-0.00434759538630278,0.009611544820769187
1668680965.3756638,78951,1668680965,375536598,,-0.09879818043296344,-0.6160097982919182,0.0781922967147341,0.9955612156868467,0.09352316526210439,-0.00434759538630278,0.009611544820769187
1668680965.3841543,78952,1668680965,383946802,,-0.09879818043296344,-0.6160097982919182,0.0781922967147341,0.9955612156868467,0.09352316526210439,-0.00434759538630278,0.009611544820769187
1668680965.3920121,78953,1668680965,391805614,,-0.09879818043296344,-0.6160097982919182,0.0781922967147341,0.9955612156868467,0.09352316526210439,-0.00434759538630278,0.009611544820769187
1668680965.39951,78954,1668680965,399389117,,-0.09879818043296344,-0.6160097982919182,0.0781922967147341,0.9955612156868467,0.09352316526210439,-0.00434759538630278,0.009611544820769187
1668680965.407908,78955,1668680965,407706078,,-0.09879818043296344,-0.6160097982919182,0.0781922967147341,0.9955612156868467,0.09352316526210439,-0.00434759538630278,0.009611544820769187
1668680965.4163814,78956,1668680965,416203133,,-0.09879818043296344,-0.6160097982919182,0.0781922967147341,0.9955612156868467,0.09352316526210439,-0.00434759538630278,0.009611544820769187
1668680965.4235358,78957,1668680965,423269625,,-0.09879818043296344,-0.6160097982919182,0.0781922967147341,0.9955612156868467,0.09352316526210439,-0.00434759538630278,0.009611544820769187
1668680965.4318533,78958,1668680965,431535479,,-0.09879818043296344,-0.6160097982919182,0.0781922967147341,0.9955612156868467,0.09352316526210439,-0.00434759538630278,0.009611544820769187
1668680965.4396808,78959,1668680965,439530544,,-0.09879818043296344,-0.6160097982919182,0.0781922967147341,0.9955612156868467,0.09352316526210439,-0.00434759538630278,0.009611544820769187
1668680965.4483573,78960,1668680965,448163642,,-0.09879818043296344,-0.6160097982919182,0.0781922967147341,0.9955612156868467,0.09352316526210439,-0.00434759538630278,0.009611544820769187
1668680965.455868,78961,1668680965,455646757,,-0.09879818043296344,-0.6160097982919182,0.0781922967147341,0.9955612156868467,0.09352316526210439,-0.00434759538630278,0.009611544820769187
1668680965.4633706,78962,1668680965,463167471,,-0.09879818043296344,-0.6160097982919182,0.0781922967147341,0.9955612156868467,0.09352316526210439,-0.00434759538630278,0.009611544820769187
1668680965.4724314,78963,1668680965,472175688,,-0.09879818043296344,-0.6160097982919182,0.0781922967147341,0.9955612156868467,0.09352316526210439,-0.00434759538630278,0.009611544820769187
1668680965.4806972,78964,1668680965,480485770,,-0.09879818043296344,-0.6160097982919182,0.0781922967147341,0.9955612156868467,0.09352316526210439,-0.00434759538630278,0.009611544820769187
1668680965.488359,78965,1668680965,488150303,,-0.09879818043296344,-0.6160097982919182,0.0781922967147341,0.9955612156868467,0.09352316526210439,-0.00434759538630278,0.009611544820769187
1668680965.4954696,78966,1668680965,495277556,,-0.09879818043296344,-0.6160097982919182,0.0781922967147341,0.9955612156868467,0.09352316526210439,-0.00434759538630278,0.009611544820769187
1668680965.503914,78967,1668680965,503626738,,-0.09879818043296344,-0.6160097982919182,0.0781922967147341,0.9955612156868467,0.09352316526210439,-0.00434759538630278,0.009611544820769187
1668680965.5116975,78968,1668680965,511495507,,-0.09879818043296344,-0.6160097982919182,0.0781922967147341,0.9955612156868467,0.09352316526210439,-0.00434759538630278,0.009611544820769187
1668680965.5196013,78969,1668680965,519397810,,-0.09879818043296344,-0.6160097982919182,0.0781922967147341,0.9955612156868467,0.09352316526210439,-0.00434759538630278,0.009611544820769187
1668680965.5278,78970,1668680965,527541940,,-0.09879818043296344,-0.6160097982919182,0.0781922967147341,0.9955612156868467,0.09352316526210439,-0.00434759538630278,0.009611544820769187
1668680965.535496,78971,1668680965,535285053,,-0.09879818043296344,-0.6160097982919182,0.0781922967147341,0.9955612156868467,0.09352316526210439,-0.00434759538630278,0.009611544820769187
1668680965.5438826,78972,1668680965,543607364,,-0.09879818043296344,-0.6160097982919182,0.0781922967147341,0.9955612156868467,0.09352316526210439,-0.00434759538630278,0.009611544820769187
1668680965.5519776,78973,1668680965,551714016,,-0.09879818043296344,-0.6160097982919182,0.0781922967147341,0.9955612156868467,0.09352316526210439,-0.00434759538630278,0.009611544820769187
1668680965.5599434,78974,1668680965,559825414,,-0.09879818043296344,-0.6160097982919182,0.0781922967147341,0.9955612156868467,0.09352316526210439,-0.00434759538630278,0.009611544820769187
1668680965.5677624,78975,1668680965,567588832,,-0.09879818043296344,-0.6160097982919182,0.0781922967147341,0.9955612156868467,0.09352316526210439,-0.00434759538630278,0.009611544820769187
1668680965.5756667,78976,1668680965,575419493,,-0.09879818043296344,-0.6160097982919182,0.0781922967147341,0.9955612156868467,0.09352316526210439,-0.00434759538630278,0.009611544820769187
1668680965.5836406,78977,1668680965,583504408,,-0.09879818043296344,-0.6160097982919182,0.0781922967147341,0.9955612156868467,0.09352316526210439,-0.00434759538630278,0.009611544820769187
1668680965.591863,78978,1668680965,591677986,,-0.09879818043296344,-0.6160097982919182,0.0781922967147341,0.9955612156868467,0.09352316526210439,-0.00434759538630278,0.009611544820769187
1668680965.6001022,78979,1668680965,599803826,,-0.09879818043296344,-0.6160097982919182,0.0781922967147341,0.9955612156868467,0.09352316526210439,-0.00434759538630278,0.009611544820769187
1668680965.6082404,78980,1668680965,608022512,,-0.09879818043296344,-0.6160097982919182,0.0781922967147341,0.9955612156868467,0.09352316526210439,-0.00434759538630278,0.009611544820769187
1668680965.6154232,78981,1668680965,615264996,,-0.09879818043296344,-0.6160097982919182,0.0781922967147341,0.9955612156868467,0.09352316526210439,-0.00434759538630278,0.009611544820769187
1668680965.6237085,78982,1668680965,623508166,,-0.09879818043296344,-0.6160097982919182,0.0781922967147341,0.9955612156868467,0.09352316526210439,-0.00434759538630278,0.009611544820769187
1668680965.6316302,78983,1668680965,631437590,,-0.09879818043296344,-0.6160097982919182,0.0781922967147341,0.9955612156868467,0.09352316526210439,-0.00434759538630278,0.009611544820769187
1668680965.6399727,78984,1668680965,639824467,,-0.09879818043296344,-0.6160097982919182,0.0781922967147341,0.9955612156868467,0.09352316526210439,-0.00434759538630278,0.009611544820769187
1668680965.6478753,78985,1668680965,647748563,,-0.09879690133441453,-0.6160113051943948,0.0781922967147341,0.9955612156868467,0.09352316526210439,-0.00434759538630278,0.009611544820769187
1668680965.6554132,78986,1668680965,655273006,,-0.09879306406494526,-0.6160158258709837,0.0781922967147341,0.9955612156868467,0.09352316526210439,-0.00434759538630278,0.009611544820769187
1668680965.6636817,78987,1668680965,663498829,,-0.09878666870308758,-0.6160233602291527,0.0781922967147341,0.9955612156868467,0.09352316526210439,-0.00434759538630278,0.009611544820769187
1668680965.671746,78988,1668680965,671546187,,-0.09877771537972627,-0.6160339081146537,0.0781922967147341,0.9955612156868467,0.09352316526210439,-0.00434759538630278,0.009611544820769187
1668680965.6797292,78989,1668680965,679610080,,-0.09876620427809622,-0.61604746931148,0.0781922967147341,0.9955612156868467,0.09352316526210439,-0.00434759538630278,0.009611544820769187
1668680965.6876938,78990,1668680965,687577543,,-0.0987521356337788,-0.6160640435418062,0.0781922967147341,0.9955612156868467,0.09352316526210439,-0.00434759538630278,0.009611544820769187
1668680965.695587,78991,1668680965,695325308,,-0.09873550973469691,-0.616083630465913,0.0781922967147341,0.9955612156868467,0.09352316526210439,-0.00434759538630278,0.009611544820769187
1668680965.7045422,78992,1668680965,704376909,,-0.09871632692110918,-0.6161062296820927,0.0781922967147341,0.9955612156868467,0.09352316526210439,-0.00434759538630278,0.009611544820769187
1668680965.7115607,78993,1668680965,711441155,,-0.09869458758560296,-0.6161318407265405,0.0781922967147341,0.9955612156868467,0.09352316526210439,-0.00434759538630278,0.009611544820769187
1668680965.7198174,78994,1668680965,719578881,,-0.09867029217308625,-0.6161604630732257,0.0781922967147341,0.9955612156868467,0.09352316526210439,-0.00434759538630278,0.009611544820769187
1668680965.7278001,78995,1668680965,727649122,,-0.09864344118077872,-0.6161920961337495,0.0781922967147341,0.9955612156868467,0.09352316526210439,-0.00434759538630278,0.009611544820769187
1668680965.7364364,78996,1668680965,735961696,,-0.0986140351582014,-0.6162267392571833,0.0781922967147341,0.9955612156868467,0.09352316526210439,-0.00434759538630278,0.009611544820769187
1668680965.7446544,78997,1668680965,744381971,,-0.0985820747071655,-0.6162643917298916,0.0781922967147341,0.9955612156868467,0.09352316526210439,-0.00434759538630278,0.009611544820769187
1668680965.7516544,78998,1668680965,751523935,,-0.0985475604817601,-0.6163050527753383,0.0781922967147341,0.9955612156868467,0.09352316526210439,-0.00434759538630278,0.009611544820769187
1668680965.7598028,78999,1668680965,759659890,,-0.09851049318833871,-0.6163487215538758,0.0781922967147341,0.9955612156868467,0.09352316526210439,-0.00434759538630278,0.009611544820769187
1668680965.7679825,79000,1668680965,767740786,,-0.09847087358550488,-0.6163953971625175,0.0781922967147341,0.9955612156868467,0.09352316526210439,-0.00434759538630278,0.009611544820769187
1668680965.7752774,79001,1668680965,775148385,,-0.09842870248409663,-0.616445078634695,0.0781922967147341,0.9955612156868467,0.09352316526210439,-0.00434759538630278,0.009611544820769187
1668680965.7835932,79002,1668680965,783373737,,-0.09838398074716988,-0.6164977649399972,0.0781922967147341,0.9955612156868467,0.09352316526210439,-0.00434759538630278,0.009611544820769187
1668680965.7919378,79003,1668680965,791673338,,-0.09833670928998077,-0.6165534549838942,0.0781922967147341,0.9955612156868467,0.09352316526210439,-0.00434759538630278,0.009611544820769187
1668680965.8001208,79004,1668680965,799922090,,-0.09828688907996692,-0.6166121476074449,0.0781922967147341,0.9955612156868467,0.09352316526210439,-0.00434759538630278,0.009611544820769187
1668680965.807898,79005,1668680965,807652399,,-0.09823452113672769,-0.6166738415869879,0.0781922967147341,0.9955612156868467,0.09352316526210439,-0.00434759538630278,0.009611544820769187
1668680965.815534,79006,1668680965,815319129,,-0.09817960653200324,-0.6167385356338168,0.0781922967147341,0.9955612156868467,0.09352316526210439,-0.00434759538630278,0.009611544820769187
1668680965.8236084,79007,1668680965,823438133,,-0.0981221463896526,-0.6168062283938395,0.0781922967147341,0.9955612156868467,0.09352316526210439,-0.00434759538630278,0.009611544820769187
1668680965.83192,79008,1668680965,831771164,,-0.09806214188563075,-0.6168769184472216,0.0781922967147341,0.9955612156868467,0.09352316526210439,-0.00434759538630278,0.009611544820769187
1668680965.839758,79009,1668680965,839579855,,-0.09799959424796448,-0.6169506043080139,0.0781922967147341,0.9955612156868467,0.09352316526210439,-0.00434759538630278,0.009611544820769187
1668680965.8477302,79010,1668680965,847521036,,-0.09793450475672726,-0.6170272844237645,0.0781922967147341,0.9955612156868467,0.09352316526210439,-0.00434759538630278,0.009611544820769187
1668680965.855375,79011,1668680965,855200749,,-0.09786687474401307,-0.6171069571751155,0.0781922967147341,0.9955612156868467,0.09352316526210439,-0.00434759538630278,0.009611544820769187
1668680965.8640985,79012,1668680965,863862995,,-0.09779670559390913,-0.6171896208753839,0.0781922967147341,0.9955612156868467,0.09352316526210439,-0.00434759538630278,0.009611544820769187
1668680965.8719606,79013,1668680965,871694589,,-0.09772399874246757,-0.6172752737701277,0.0781922967147341,0.9955612156868467,0.09352316526210439,-0.00434759538630278,0.009611544820769187
1668680965.8809912,79014,1668680965,880497564,,-0.09764875567767603,-0.6173639140366967,0.0781922967147341,0.9955612156868467,0.09352316526210439,-0.00434759538630278,0.009611544820769187
1668680965.888222,79015,1668680965,888013310,,-0.09757097793942725,-0.6174555397837683,0.0781922967147341,0.9955612156868467,0.09352316526210439,-0.00434759538630278,0.009611544820769187
1668680965.896784,79016,1668680965,896569120,,-0.09749066711948748,-0.6175501490508686,0.0781922967147341,0.9955612156868467,0.09352316526210439,-0.00434759538630278,0.009611544820769187
1668680965.9040647,79017,1668680965,903777347,,-0.097407824861464,-0.6176477398078788,0.0781922967147341,0.9955612156868467,0.09352316526210439,-0.00434759538630278,0.009611544820769187
1668680965.9125457,79018,1668680965,912383950,,-0.09732245286077139,-0.6177483099545268,0.0781922967147341,0.9955612156868467,0.09352316526210439,-0.00434759538630278,0.009611544820769187
1668680965.9203856,79019,1668680965,920163182,,-0.09723455286459687,-0.6178518573198652,0.0781922967147341,0.9955612156868467,0.09352316526210439,-0.00434759538630278,0.009611544820769187
1668680965.9276958,79020,1668680965,927541319,,-0.09714412667186459,-0.6179583796617344,0.0781922967147341,0.9955612156868467,0.09352316526210439,-0.00434759538630278,0.009611544820769187
1668680965.9355574,79021,1668680965,935350834,,-0.0970511761331987,-0.6180678746662116,0.0781922967147341,0.9955612156868467,0.09352316526210439,-0.00434759538630278,0.009611544820769187
1668680965.9435625,79022,1668680965,943427546,,-0.09695570315088564,-0.6181803399470465,0.0781922967147341,0.9955612156868467,0.09352316526210439,-0.00434759538630278,0.009611544820769187
1668680965.9517546,79023,1668680965,951540946,,-0.09685770967883502,-0.6182957730450834,0.0781922967147341,0.9955612156868467,0.09352316526210439,-0.00434759538630278,0.009611544820769187
1668680965.9599805,79024,1668680965,959822200,,-0.09675719772253977,-0.6184141714276691,0.0781922967147341,0.9955612156868467,0.09352316526210439,-0.00434759538630278,0.009611544820769187
1668680965.9676883,79025,1668680965,967521296,,-0.09665416933903506,-0.618535532488048,0.0781922967147341,0.9955612156868467,0.09352316526210439,-0.00434759538630278,0.009611544820769187
1668680965.975579,79026,1668680965,975426777,,-0.09654862663685619,-0.6186598535447445,0.0781922967147341,0.9955612156868467,0.09352316526210439,-0.00434759538630278,0.009611544820769187
1668680965.9871125,79027,1668680965,983729062,,-0.09644057177599542,-0.6187871318409311,0.0781922967147341,0.9955612156868467,0.09352316526210439,-0.00434759538630278,0.009611544820769187
1668680965.9920666,79028,1668680965,991824460,,-0.0963300069678578,-0.6189173645437861,0.0781922967147341,0.9955612156868467,0.09352316526210439,-0.00434759538630278,0.009611544820769187
1668680966.000127,79029,1668680965,999853488,,-0.09621693447521593,-0.6190505487438361,0.0781922967147341,0.9955612156868467,0.09352316526210439,-0.00434759538630278,0.009611544820769187
1668680966.0078385,79030,1668680966,7677178,,-0.09610135661216354,-0.6191866814542885,0.0781922967147341,0.9955612156868467,0.09352316526210439,-0.00434759538630278,0.009611544820769187
1668680966.0157306,79031,1668680966,15487537,,-0.0959832757440683,-0.6193257596103505,0.0781922967147341,0.9955612156868467,0.09352316526210439,-0.00434759538630278,0.009611544820769187
1668680966.0239503,79032,1668680966,23655976,,-0.09586269428752327,-0.6194677800685376,0.0781922967147341,0.9955612156868467,0.09352316526210439,-0.00434759538630278,0.009611544820769187
1668680966.032049,79033,1668680966,31817517,,-0.09573961471029752,-0.6196127396059687,0.0781922967147341,0.9955612156868467,0.09352316526210439,-0.00434759538630278,0.009611544820769187
1668680966.0399475,79034,1668680966,39781739,,-0.09561403953128556,-0.6197606349196516,0.0781922967147341,0.9955612156868467,0.09352316526210439,-0.00434759538630278,0.009611544820769187
1668680966.047892,79035,1668680966,47711140,,-0.09548597132045587,-0.6199114626257559,0.0781922967147341,0.9955612156868467,0.09352316526210439,-0.00434759538630278,0.009611544820769187
1668680966.0560415,79036,1668680966,55793833,,-0.09535541269879828,-0.6200652192588765,0.0781922967147341,0.9955612156868467,0.09352316526210439,-0.00434759538630278,0.009611544820769187
1668680966.063641,79037,1668680966,63333420,,-0.09522236633827025,-0.6202219012712848,0.0781922967147341,0.9955612156868467,0.09352316526210439,-0.00434759538630278,0.009611544820769187
1668680966.0724764,79038,1668680966,72247936,,-0.09508683496174229,-0.6203815050321712,0.0781922967147341,0.9955612156868467,0.09352316526210439,-0.00434759538630278,0.009611544820769187
1668680966.0805385,79039,1668680966,80290997,,-0.09494882134294222,-0.6205440268268753,0.0781922967147341,0.9955612156868467,0.09352316526210439,-0.00434759538630278,0.009611544820769187
1668680966.0884671,79040,1668680966,88289982,,-0.09480832830639833,-0.6207094628561086,0.0781922967147341,0.9955612156868467,0.09352316526210439,-0.00434759538630278,0.009611544820769187
1668680966.0958643,79041,1668680966,95653421,,-0.09466535872738165,-0.620877809235166,0.0781922967147341,0.9955612156868467,0.09352316526210439,-0.00434759538630278,0.009611544820769187
1668680966.104713,79042,1668680966,104469951,,-0.09451991553184708,-0.6210490619931281,0.0781922967147341,0.9955612156868467,0.09352316526210439,-0.00434759538630278,0.009611544820769187
1668680966.1125069,79043,1668680966,112299578,,-0.09437200169637351,-0.6212232170720551,0.0781922967147341,0.9955612156868467,0.09352316526210439,-0.00434759538630278,0.009611544820769187
1668680966.1197798,79044,1668680966,119635723,,-0.09422162024810288,-0.6214002703261704,0.0781922967147341,0.9955612156868467,0.09352316526210439,-0.00434759538630278,0.009611544820769187
1668680966.1279182,79045,1668680966,127725062,,-0.09406877426467829,-0.6215802175210379,0.0781922967147341,0.9955612156868467,0.09352316526210439,-0.00434759538630278,0.009611544820769187
1668680966.1352894,79046,1668680966,135093770,,-0.09391346687418094,-0.6217630543327288,0.0781922967147341,0.9955612156868467,0.09352316526210439,-0.00434759538630278,0.009611544820769187
1668680966.1438017,79047,1668680966,143591114,,-0.09375570125506615,-0.6219487763469815,0.0781922967147341,0.9955612156868467,0.09352316526210439,-0.00434759538630278,0.009611544820769187
1668680966.1517515,79048,1668680966,151606986,,-0.0935954806360983,-0.6221373790583542,0.0781922967147341,0.9955612156868467,0.09352316526210439,-0.00434759538630278,0.009611544820769187
1668680966.1598108,79049,1668680966,159617037,,-0.0934328082962848,-0.6223288578693686,0.0781922967147341,0.9955612156868467,0.09352316526210439,-0.00434759538630278,0.009611544820769187
1668680966.1677928,79050,1668680966,167673847,,-0.09326768756480888,-0.622523208089648,0.0781922967147341,0.9955612156868467,0.09352316526210439,-0.00434759538630278,0.009611544820769187
1668680966.1764715,79051,1668680966,176210928,,-0.09310012182096158,-0.6227204249350479,0.0781922967147341,0.9955612156868467,0.09352316526210439,-0.00434759538630278,0.009611544820769187
1668680966.1836708,79052,1668680966,183428246,,-0.09293011449407249,-0.62292050352678,0.0781922967147341,0.9955612156868467,0.09352316526210439,-0.00434759538630278,0.009611544820769187
1668680966.191921,79053,1668680966,191693485,,-0.09275766906343957,-0.6231234388905302,0.0781922967147341,0.9955612156868467,0.09352316526210439,-0.00434759538630278,0.009611544820769187
1668680966.199671,79054,1668680966,199514252,,-0.09258278905825808,-0.623329225955571,0.0781922967147341,0.9955612156868467,0.09352316526210439,-0.00434759538630278,0.009611544820769187
1668680966.2077441,79055,1668680966,207533216,,-0.09240547805754816,-0.6235378595538675,0.0781922967147341,0.9955612156868467,0.09352316526210439,-0.00434759538630278,0.009611544820769187
1668680966.2157378,79056,1668680966,215554787,,-0.09222573969008172,-0.6237493344191787,0.0781922967147341,0.9955612156868467,0.09352316526210439,-0.00434759538630278,0.009611544820769187
1668680966.223483,79057,1668680966,223263714,,-0.09204357763430811,-0.6239636451861539,0.0781922967147341,0.9955612156868467,0.09352316526210439,-0.00434759538630278,0.009611544820769187
1668680966.231632,79058,1668680966,231424166,,-0.09185899561827889,-0.6241807863894244,0.0781922967147341,0.9955612156868467,0.09352316526210439,-0.00434759538630278,0.009611544820769187
1668680966.2397773,79059,1668680966,239642278,,-0.09167199741957145,-0.624400752462691,0.0781922967147341,0.9955612156868467,0.09352316526210439,-0.00434759538630278,0.009611544820769187
1668680966.2480438,79060,1668680966,247867031,,-0.09148258686521182,-0.6246235377378065,0.0781922967147341,0.9955612156868467,0.09352316526210439,-0.00434759538630278,0.009611544820769187
1668680966.2558424,79061,1668680966,255634360,,-0.09129076783159622,-0.624849136443857,0.0781922967147341,0.9955612156868467,0.09352316526210439,-0.00434759538630278,0.009611544820769187
1668680966.2634373,79062,1668680966,263237932,,-0.09109654424441181,-0.6250775427062369,0.0781922967147341,0.9955612156868467,0.09352316526210439,-0.00434759538630278,0.009611544820769187
1668680966.2718835,79063,1668680966,271748906,,-0.09089992007855635,-0.6253087505457233,0.0781922967147341,0.9955612156868467,0.09352316526210439,-0.00434759538630278,0.009611544820769187
1668680966.2798197,79064,1668680966,279678240,,-0.09070089935805678,-0.6255427538775469,0.0781922967147341,0.9955612156868467,0.09352316526210439,-0.00434759538630278,0.009611544820769187
1668680966.2879004,79065,1668680966,287689855,,-0.09049948615598694,-0.62577954651046,0.0781922967147341,0.9955612156868467,0.09352316526210439,-0.00434759538630278,0.009611544820769187
1668680966.2953541,79066,1668680966,295216967,,-0.09029568459438418,-0.6260191221458042,0.0781922967147341,0.9955612156868467,0.09352316526210439,-0.00434759538630278,0.009611544820769187
1668680966.3037338,79067,1668680966,303597488,,-0.09008949884416502,-0.6262614743765749,0.0781922967147341,0.9955612156868467,0.09352316526210439,-0.00434759538630278,0.009611544820769187
1668680966.3118348,79068,1668680966,311659889,,-0.08988093312503975,-0.6265065966864856,0.0781922967147341,0.9955612156868467,0.09352316526210439,-0.00434759538630278,0.009611544820769187
1668680966.320556,79069,1668680966,320002126,,-0.08966999170542614,-0.6267544824490309,0.0781922967147341,0.9955612156868467,0.09352316526210439,-0.00434759538630278,0.009611544820769187
1668680966.3282943,79070,1668680966,328042851,,-0.08945667890236196,-0.6270051249265494,0.0781922967147341,0.9955612156868467,0.09352316526210439,-0.00434759538630278,0.009611544820769187
1668680966.3357213,79071,1668680966,335445861,,-0.08924099908141679,-0.6272585172692859,0.0781922967147341,0.9955612156868467,0.09352316526210439,-0.00434759538630278,0.009611544820769187
1668680966.3434682,79072,1668680966,343258346,,-0.08902295665660256,-0.6275146525144547,0.0781922967147341,0.9955612156868467,0.09352316526210439,-0.00434759538630278,0.009611544820769187
1668680966.3517287,79073,1668680966,351590008,,-0.08880255609028326,-0.6277735235853021,0.0781922967147341,0.9955612156868467,0.09352316526210439,-0.00434759538630278,0.009611544820769187
1668680966.3600059,79074,1668680966,359802731,,-0.08857980189308359,-0.6280351232901719,0.0781922967147341,0.9955612156868467,0.09352316526210439,-0.00434759538630278,0.009611544820769187
1668680966.3679938,79075,1668680966,367770714,,-0.0883546986237967,-0.6282994443215698,0.0781922967147341,0.9955612156868467,0.09352316526210439,-0.00434759538630278,0.009611544820769187
1668680966.3754365,79076,1668680966,375263353,,-0.08812725088929083,-0.6285664792552323,0.0781922967147341,0.9955612156868467,0.09352316526210439,-0.00434759538630278,0.009611544820769187
1668680966.3836744,79077,1668680966,383552646,,-0.08789746334441502,-0.6288362205491949,0.0781922967147341,0.9955612156868467,0.09352316526210439,-0.00434759538630278,0.009611544820769187
1668680966.3918064,79078,1668680966,391666637,,-0.08766534069190395,-0.6291086605428645,0.0781922967147341,0.9955612156868467,0.09352316526210439,-0.00434759538630278,0.009611544820769187
1668680966.3997724,79079,1668680966,399598993,,-0.08743088768228156,-0.6293837914560948,0.0781922967147341,0.9955612156868467,0.09352316526210439,-0.00434759538630278,0.009611544820769187
1668680966.4080527,79080,1668680966,407852841,,-0.08719410911376395,-0.6296616053882637,0.0781922967147341,0.9955612156868467,0.09352316526210439,-0.00434759538630278,0.009611544820769187
1668680966.4153938,79081,1668680966,415272333,,-0.08695500983216106,-0.629942094317355,0.0781922967147341,0.9955612156868467,0.09352316526210439,-0.00434759538630278,0.009611544820769187
1668680966.423652,79082,1668680966,423531753,,-0.08671359473077764,-0.6302252500990444,0.0781922967147341,0.9955612156868467,0.09352316526210439,-0.00434759538630278,0.009611544820769187
1668680966.4316502,79083,1668680966,431467045,,-0.08646986875031294,-0.6305110644657894,0.0781922967147341,0.9955612156868467,0.09352316526210439,-0.00434759538630278,0.009611544820769187
1668680966.4402077,79084,1668680966,440067336,,-0.08622383687875976,-0.6307995290259242,0.0781922967147341,0.9955612156868467,0.09352316526210439,-0.00434759538630278,0.009611544820769187
1668680966.4477925,79085,1668680966,447618532,,-0.08597550415130224,-0.6310906352627593,0.0781922967147341,0.9955612156868467,0.09352316526210439,-0.00434759538630278,0.009611544820769187
1668680966.4560728,79086,1668680966,455921024,,-0.08572487565021289,-0.6313843745336877,0.0781922967147341,0.9955612156868467,0.09352316526210439,-0.00434759538630278,0.009611544820769187
1668680966.4638374,79087,1668680966,463658965,,-0.08547195650474854,-0.6316807380692959,0.0781922967147341,0.9955612156868467,0.09352316526210439,-0.00434759538630278,0.009611544820769187
1668680966.4724145,79088,1668680966,471731468,,-0.08521675189104537,-0.6319797169724817,0.0781922967147341,0.9955612156868467,0.09352316526210439,-0.00434759538630278,0.009611544820769187
1668680966.4804254,79089,1668680966,480109034,,-0.08495926703201301,-0.6322813022175789,0.0781922967147341,0.9955612156868467,0.09352316526210439,-0.00434759538630278,0.009611544820769187
1668680966.487837,79090,1668680966,487672233,,-0.08469950719722762,-0.6325854846494887,0.0781922967147341,0.9955612156868467,0.09352316526210439,-0.00434759538630278,0.009611544820769187
1668680966.4957216,79091,1668680966,495591617,,-0.08443747770282402,-0.6328922549828194,0.0781922967147341,0.9955612156868467,0.09352316526210439,-0.00434759538630278,0.009611544820769187
1668680966.5034535,79092,1668680966,503268622,,-0.08417318391138696,-0.6332016038010326,0.0781922967147341,0.9955612156868467,0.09352316526210439,-0.00434759538630278,0.009611544820769187
1668680966.5120275,79093,1668680966,511852930,,-0.08390663123184135,-0.6335135215555991,0.0781922967147341,0.9955612156868467,0.09352316526210439,-0.00434759538630278,0.009611544820769187
1668680966.5197082,79094,1668680966,519553595,,-0.08363782511934147,-0.6338279985651631,0.0781922967147341,0.9955612156868467,0.09352316526210439,-0.00434759538630278,0.009611544820769187
1668680966.5276253,79095,1668680966,527408227,,-0.08336677107515948,-0.6341450250147149,0.0781922967147341,0.9955612156868467,0.09352316526210439,-0.00434759538630278,0.009611544820769187
1668680966.5358388,79096,1668680966,535547119,,-0.08309347464657274,-0.6344645909547737,0.0781922967147341,0.9955612156868467,0.09352316526210439,-0.00434759538630278,0.009611544820769187
1668680966.5436637,79097,1668680966,543542085,,-0.08281794142675028,-0.6347866863005801,0.0781922967147341,0.9955612156868467,0.09352316526210439,-0.00434759538630278,0.009611544820769187
1668680966.5516868,79098,1668680966,551537851,,-0.08254017705463837,-0.6351113008312991,0.0781922967147341,0.9955612156868467,0.09352316526210439,-0.00434759538630278,0.009611544820769187
1668680966.5598972,79099,1668680966,559670699,,-0.0822601872148451,-0.6354384241892331,0.0781922967147341,0.9955612156868467,0.09352316526210439,-0.00434759538630278,0.009611544820769187
1668680966.5681086,79100,1668680966,567916113,,-0.08197797763752403,-0.6357680458790474,0.0781922967147341,0.9955612156868467,0.09352316526210439,-0.00434759538630278,0.009611544820769187
1668680966.5756965,79101,1668680966,575579526,,-0.08169355409825695,-0.6361001552670049,0.0781922967147341,0.9955612156868467,0.09352316526210439,-0.00434759538630278,0.009611544820769187
1668680966.5837228,79102,1668680966,583480045,,-0.08140692241793561,-0.6364347415802152,0.0781922967147341,0.9955612156868467,0.09352316526210439,-0.00434759538630278,0.009611544820769187
1668680966.5915725,79103,1668680966,591450359,,-0.08111808846264268,-0.6367717939058939,0.0781922967147341,0.9955612156868467,0.09352316526210439,-0.00434759538630278,0.009611544820769187
1668680966.599975,79104,1668680966,599760775,,-0.08082705814353168,-0.6371113011906362,0.0781922967147341,0.9955612156868467,0.09352316526210439,-0.00434759538630278,0.009611544820769187
1668680966.6079423,79105,1668680966,607679914,,-0.08053383741670592,-0.6374532522397021,0.0781922967147341,0.9955612156868467,0.09352316526210439,-0.00434759538630278,0.009611544820769187
1668680966.6153681,79106,1668680966,615186259,,-0.0802384322830967,-0.6377976357163162,0.0781922967147341,0.9955612156868467,0.09352316526210439,-0.00434759538630278,0.009611544820769187
1668680966.6236763,79107,1668680966,623544024,,-0.07994084878834047,-0.6381444401409806,0.0781922967147341,0.9955612156868467,0.09352316526210439,-0.00434759538630278,0.009611544820769187
1668680966.6326127,79108,1668680966,632272054,,-0.07964109302265512,-0.6384936538908024,0.0781922967147341,0.9955612156868467,0.09352316526210439,-0.00434759538630278,0.009611544820769187
1668680966.6398275,79109,1668680966,639613974,,-0.07933917112071524,-0.6388452651988361,0.0781922967147341,0.9955612156868467,0.09352316526210439,-0.00434759538630278,0.009611544820769187
1668680966.6477103,79110,1668680966,647565412,,-0.07903508926152673,-0.6391992621534398,0.0781922967147341,0.9955612156868467,0.09352316526210439,-0.00434759538630278,0.009611544820769187
1668680966.6556237,79111,1668680966,655395665,,-0.07872885366830021,-0.6395556326976486,0.0781922967147341,0.9955612156868467,0.09352316526210439,-0.00434759538630278,0.009611544820769187
1668680966.6644344,79112,1668680966,663993997,,-0.07842047060832374,-0.6399143646285621,0.0781922967147341,0.9955612156868467,0.09352316526210439,-0.00434759538630278,0.009611544820769187
1668680966.6715617,79113,1668680966,671369005,,-0.0781099463928345,-0.6402754455967495,0.0781922967147341,0.9955612156868467,0.09352316526210439,-0.00434759538630278,0.009611544820769187
1668680966.6797068,79114,1668680966,679547083,,-0.07779728737688968,-0.6406388631056699,0.0781922967147341,0.9955612156868467,0.09352316526210439,-0.00434759538630278,0.009611544820769187
1668680966.6878395,79115,1668680966,687617455,,-0.07748249995923637,-0.6410046045111105,0.0781922967147341,0.9955612156868467,0.09352316526210439,-0.00434759538630278,0.009611544820769187
1668680966.6954644,79116,1668680966,695314247,,-0.07716559058218062,-0.6413726570206424,0.0781922967147341,0.9955612156868467,0.09352316526210439,-0.00434759538630278,0.009611544820769187
1668680966.7039337,79117,1668680966,703778709,,-0.07684656573145564,-0.6417430076930924,0.0781922967147341,0.9955612156868467,0.09352316526210439,-0.00434759538630278,0.009611544820769187
1668680966.7117865,79118,1668680966,711636925,,-0.076525431936089,-0.6421156434380351,0.0781922967147341,0.9955612156868467,0.09352316526210439,-0.00434759538630278,0.009611544820769187
1668680966.7196934,79119,1668680966,719562199,,-0.07620219576826905,-0.6424905510153016,0.0781922967147341,0.9955612156868467,0.09352316526210439,-0.00434759538630278,0.009611544820769187
1668680966.7280734,79120,1668680966,727921053,,-0.0758768638432104,-0.6428677170345084,0.0781922967147341,0.9955612156868467,0.09352316526210439,-0.00434759538630278,0.009611544820769187
1668680966.7356098,79121,1668680966,735440733,,-0.07554944281901854,-0.6432471279546044,0.0781922967147341,0.9955612156868467,0.09352316526210439,-0.00434759538630278,0.009611544820769187
1668680966.743523,79122,1668680966,743265806,,-0.0752199393965536,-0.6436287700834379,0.0781922967147341,0.9955612156868467,0.09352316526210439,-0.00434759538630278,0.009611544820769187
1668680966.751907,79123,1668680966,751714163,,-0.07488836031929313,-0.6440126295773441,0.0781922967147341,0.9955612156868467,0.09352316526210439,-0.00434759538630278,0.009611544820769187
1668680966.7599866,79124,1668680966,759750337,,-0.07455471237319423,-0.6443986924407519,0.0781922967147341,0.9955612156868467,0.09352316526210439,-0.00434759538630278,0.009611544820769187
1668680966.7678678,79125,1668680966,767700659,,-0.07421900238655456,-0.6447869445258114,0.0781922967147341,0.9955612156868467,0.09352316526210439,-0.00434759538630278,0.009611544820769187
1668680966.776132,79126,1668680966,775917486,,-0.07388123722987261,-0.6451773715320439,0.0781922967147341,0.9955612156868467,0.09352316526210439,-0.00434759538630278,0.009611544820769187
1668680966.7842484,79127,1668680966,784019873,,-0.07354142381570714,-0.6455699590060108,0.0781922967147341,0.9955612156868467,0.09352316526210439,-0.00434759538630278,0.009611544820769187
1668680966.7917705,79128,1668680966,791651003,,-0.07319956909853567,-0.6459646923410061,0.0781922967147341,0.9955612156868467,0.09352316526210439,-0.00434759538630278,0.009611544820769187
1668680966.7998176,79129,1668680966,799607612,,-0.07285568007461216,-0.6463615567767704,0.0781922967147341,0.9955612156868467,0.09352316526210439,-0.00434759538630278,0.009611544820769187
1668680966.8077118,79130,1668680966,807500416,,-0.07250976378182383,-0.6467605373992271,0.0781922967147341,0.9955612156868467,0.09352316526210439,-0.00434759538630278,0.009611544820769187
1668680966.8152623,79131,1668680966,815138903,,-0.07216182729954712,-0.6471616191402413,0.0781922967147341,0.9955612156868467,0.09352316526210439,-0.00434759538630278,0.009611544820769187
1668680966.8237808,79132,1668680966,823568537,,-0.07181187774850285,-0.6475647867774016,0.0781922967147341,0.9955612156868467,0.09352316526210439,-0.00434759538630278,0.009611544820769187
1668680966.8315866,79133,1668680966,831460182,,-0.07145992229061042,-0.6479700249338264,0.0781922967147341,0.9955612156868467,0.09352316526210439,-0.00434759538630278,0.009611544820769187
1668680966.839597,79134,1668680966,839441298,,-0.07110596812884126,-0.6483773180779919,0.0781922967147341,0.9955612156868467,0.09352316526210439,-0.00434759538630278,0.009611544820769187
1668680966.847694,79135,1668680966,847546265,,-0.07075002250707146,-0.6487866505235862,0.0781922967147341,0.9955612156868467,0.09352316526210439,-0.00434759538630278,0.009611544820769187
1668680966.8556793,79136,1668680966,855326139,,-0.07039209270993348,-0.6491980064293863,0.0781922967147341,0.9955612156868467,0.09352316526210439,-0.00434759538630278,0.009611544820769187
1668680966.8637083,79137,1668680966,863577413,,-0.07003218606266705,-0.6496113697991602,0.0781922967147341,0.9955612156868467,0.09352316526210439,-0.00434759538630278,0.009611544820769187
1668680966.8716946,79138,1668680966,871567171,,-0.06967030993096929,-0.6500267244815945,0.0781922967147341,0.9955612156868467,0.09352316526210439,-0.00434759538630278,0.009611544820769187
1668680966.8796499,79139,1668680966,879479826,,-0.06930647172084398,-0.650444054170246,0.0781922967147341,0.9955612156868467,0.09352316526210439,-0.00434759538630278,0.009611544820769187
1668680966.8879774,79140,1668680966,887775676,,-0.06894067887844993,-0.6508633424035203,0.0781922967147341,0.9955612156868467,0.09352316526210439,-0.00434759538630278,0.009611544820769187
1668680966.895911,79141,1668680966,895679911,,-0.06857293888994864,-0.6512845725646756,0.0781922967147341,0.9955612156868467,0.09352316526210439,-0.00434759538630278,0.009611544820769187
1668680966.903485,79142,1668680966,903247701,,-0.06820325928135111,-0.6517077278818522,0.0781922967147341,0.9955612156868467,0.09352316526210439,-0.00434759538630278,0.009611544820769187
1668680966.9119291,79143,1668680966,911770012,,-0.06783164761836372,-0.6521327914281291,0.0781922967147341,0.9955612156868467,0.09352316526210439,-0.00434759538630278,0.009611544820769187
1668680966.9208176,79144,1668680966,920509358,,-0.0674581115062335,-0.652559746121607,0.0781922967147341,0.9955612156868467,0.09352316526210439,-0.00434759538630278,0.009611544820769187
1668680966.9282424,79145,1668680966,928067907,,-0.06708265858959245,-0.6529885747255191,0.0781922967147341,0.9955612156868467,0.09352316526210439,-0.00434759538630278,0.009611544820769187
1668680966.9356005,79146,1668680966,935440551,,-0.06670529655230104,-0.6534192598483669,0.0781922967147341,0.9955612156868467,0.09352316526210439,-0.00434759538630278,0.009611544820769187
1668680966.9433591,79147,1668680966,943230757,,-0.06632603311729103,-0.6538517839440868,0.0781922967147341,0.9955612156868467,0.09352316526210439,-0.00434759538630278,0.009611544820769187
1668680966.9516768,79148,1668680966,951502908,,-0.06594487604640739,-0.6542861293122415,0.0781922967147341,0.9955612156868467,0.09352316526210439,-0.00434759538630278,0.009611544820769187
1668680966.9598782,79149,1668680966,959683556,,-0.0655618331402494,-0.6547222780982411,0.0781922967147341,0.9955612156868467,0.09352316526210439,-0.00434759538630278,0.009611544820769187
1668680966.9681377,79150,1668680966,967898854,,-0.06517691223801106,-0.6551602122935921,0.0781922967147341,0.9955612156868467,0.09352316526210439,-0.00434759538630278,0.009611544820769187
1668680966.9772842,79151,1668680966,975461989,,-0.06479012121732065,-0.6555999137361747,0.0781922967147341,0.9955612156868467,0.09352316526210439,-0.00434759538630278,0.009611544820769187
1668680966.9838004,79152,1668680966,983649030,,-0.06440146799407953,-0.6560413641105487,0.0781922967147341,0.9955612156868467,0.09352316526210439,-0.00434759538630278,0.009611544820769187
1668680966.991623,79153,1668680966,991472953,,-0.06401096052230006,-0.6564845449482893,0.0781922967147341,0.9955612156868467,0.09352316526210439,-0.00434759538630278,0.009611544820769187
1668680966.9996483,79154,1668680966,999504960,,-0.06361860679394289,-0.6569294376283511,0.0781922967147341,0.9955612156868467,0.09352316526210439,-0.00434759538630278,0.009611544820769187
1668680967.009631,79155,1668680967,7638208,,-0.06322441483875338,-0.6573760233774614,0.0781922967147341,0.9955612156868467,0.09352316526210439,-0.00434759538630278,0.009611544820769187
1668680967.0163515,79156,1668680967,16109587,,-0.06282839272409725,-0.6578242832705444,0.0781922967147341,0.9955612156868467,0.09352316526210439,-0.00434759538630278,0.009611544820769187
1668680967.0233138,79157,1668680967,23172474,,-0.062430548554795504,-0.6582741982311738,0.0781922967147341,0.9955612156868467,0.09352316526210439,-0.00434759538630278,0.009611544820769187
1668680967.0316653,79158,1668680967,31538335,,-0.06203089047295851,-0.6587257490320562,0.0781922967147341,0.9955612156868467,0.09352316526210439,-0.00434759538630278,0.009611544820769187
1668680967.0397522,79159,1668680967,39568252,,-0.06162942665781947,-0.659178916295544,0.0781922967147341,0.9955612156868467,0.09352316526210439,-0.00434759538630278,0.009611544820769187
1668680967.0481827,79160,1668680967,48021330,,-0.06122616532556688,-0.6596336804941803,0.0781922967147341,0.9955612156868467,0.09352316526210439,-0.00434759538630278,0.009611544820769187
1668680967.055778,79161,1668680967,55568489,,-0.06082111472917652,-0.660090021951272,0.0781922967147341,0.9955612156868467,0.09352316526210439,-0.00434759538630278,0.009611544820769187
1668680967.0642393,79162,1668680967,63956589,,-0.060414283158242474,-0.6605479208414954,0.0781922967147341,0.9955612156868467,0.09352316526210439,-0.00434759538630278,0.009611544820769187
1668680967.0716693,79163,1668680967,71492040,,-0.06000567893880748,-0.661007357191532,0.0781922967147341,0.9955612156868467,0.09352316526210439,-0.00434759538630278,0.009611544820769187
1668680967.080018,79164,1668680967,79864486,,-0.059595310433192564,-0.6614683108807358,0.0781922967147341,0.9955612156868467,0.09352316526210439,-0.00434759538630278,0.009611544820769187
1668680967.0876856,79165,1668680967,87543514,,-0.059183186039825905,-0.6619307616418306,0.0781922967147341,0.9955612156868467,0.09352316526210439,-0.00434759538630278,0.009611544820769187
1668680967.0958843,79166,1668680967,95703929,,-0.05876931419307091,-0.6623946890616405,0.0781922967147341,0.9955612156868467,0.09352316526210439,-0.00434759538630278,0.009611544820769187
1668680967.1034288,79167,1668680967,103272903,,-0.05835370336305362,-0.6628600725818496,0.0781922967147341,0.9955612156868467,0.09352316526210439,-0.00434759538630278,0.009611544820769187
1668680967.1118345,79168,1668680967,111657735,,-0.057936362055489424,-0.6633268914997955,0.0781922967147341,0.9955612156868467,0.09352316526210439,-0.00434759538630278,0.009611544820769187
1668680967.119804,79169,1668680967,119688296,,-0.05751729881150887,-0.6637951249692927,0.0781922967147341,0.9955612156868467,0.09352316526210439,-0.00434759538630278,0.009611544820769187
1668680967.1277876,79170,1668680967,127573601,,-0.05709652220748296,-0.664264752001489,0.0781922967147341,0.9955612156868467,0.09352316526210439,-0.00434759538630278,0.009611544820769187
1668680967.1357734,79171,1668680967,135622731,,-0.05667404085484759,-0.664735751465753,0.0781922967147341,0.9955612156868467,0.09352316526210439,-0.00434759538630278,0.009611544820769187
1668680967.1434238,79172,1668680967,143276972,,-0.05624986339992734,-0.6652081020905938,0.0781922967147341,0.9955612156868467,0.09352316526210439,-0.00434759538630278,0.009611544820769187
1668680967.1520305,79173,1668680967,151801424,,-0.05582399852375845,-0.6656817824646131,0.0781922967147341,0.9955612156868467,0.09352316526210439,-0.00434759538630278,0.009611544820769187
1668680967.1597152,79174,1668680967,159588154,,-0.05539645494191127,-0.6661567710374888,0.0781922967147341,0.9955612156868467,0.09352316526210439,-0.00434759538630278,0.009611544820769187
1668680967.1679564,79175,1668680967,167733678,,-0.05496724140431178,-0.6666330461209918,0.0781922967147341,0.9955612156868467,0.09352316526210439,-0.00434759538630278,0.009611544820769187
1668680967.176103,79176,1668680967,175893027,,-0.05453636669506262,-0.6671105858900336,0.0781922967147341,0.9955612156868467,0.09352316526210439,-0.00434759538630278,0.009611544820769187
1668680967.1834803,79177,1668680967,183242957,,-0.054103839632263215,-0.6675893683837474,0.0781922967147341,0.9955612156868467,0.09352316526210439,-0.00434759538630278,0.009611544820769187
1668680967.191693,79178,1668680967,191535765,,-0.05366966906782937,-0.6680693715066014,0.0781922967147341,0.9955612156868467,0.09352316526210439,-0.00434759538630278,0.009611544820769187
1668680967.2013214,79179,1668680967,200468644,,-0.05323386388731213,-0.6685505730295438,0.0781922967147341,0.9955612156868467,0.09352316526210439,-0.00434759538630278,0.009611544820769187
1668680967.2085211,79180,1668680967,208222164,,-0.05279643300971587,-0.6690329505911811,0.0781922967147341,0.9955612156868467,0.09352316526210439,-0.00434759538630278,0.009611544820769187
1668680967.2157319,79181,1668680967,215606597,,-0.0523573853873158,-0.6695164816989876,0.0781922967147341,0.9955612156868467,0.09352316526210439,-0.00434759538630278,0.009611544820769187
1668680967.2232711,79182,1668680967,223156036,,-0.05191673000547474,-0.6700011437305492,0.0781922967147341,0.9955612156868467,0.09352316526210439,-0.00434759538630278,0.009611544820769187
1668680967.231827,79183,1668680967,231692474,,-0.05147447588245928,-0.6704869139348375,0.0781922967147341,0.9955612156868467,0.09352316526210439,-0.00434759538630278,0.009611544820769187
1668680967.2398233,79184,1668680967,239711442,,-0.05103063206925508,-0.6709737694335179,0.0781922967147341,0.9955612156868467,0.09352316526210439,-0.00434759538630278,0.009611544820769187
1668680967.2476697,79185,1668680967,247511827,,-0.05058520764938182,-0.6714616872222894,0.0781922967147341,0.9955612156868467,0.09352316526210439,-0.00434759538630278,0.009611544820769187
1668680967.25584,79186,1668680967,255635566,,-0.050138211738707125,-0.6719506441722568,0.0781922967147341,0.9955612156868467,0.09352316526210439,-0.00434759538630278,0.009611544820769187
1668680967.2634315,79187,1668680967,263218776,,-0.049689653485260166,-0.6724406170313353,0.0781922967147341,0.9955612156868467,0.09352316526210439,-0.00434759538630278,0.009611544820769187
1668680967.2719066,79188,1668680967,271753561,,-0.049239542069044295,-0.6729315824256874,0.0781922967147341,0.9955612156868467,0.09352316526210439,-0.00434759538630278,0.009611544820769187
1668680967.2799053,79189,1668680967,279682565,,-0.04878788670184929,-0.6734235168611921,0.0781922967147341,0.9955612156868467,0.09352316526210439,-0.00434759538630278,0.009611544820769187
1668680967.2878299,79190,1668680967,287663958,,-0.04833469662706272,-0.6739163967249461,0.0781922967147341,0.9955612156868467,0.09352316526210439,-0.00434759538630278,0.009611544820769187
