Time,header.seq,header.stamp.secs,header.stamp.nsecs,header.frame_id,twist.linear.x,twist.linear.y,twist.linear.z,twist.angular.x,twist.angular.y,twist.angular.z
1668680471.6318247,17233,1668680471,631674014,,-3.186465326328112e-05,1.9136543000614165e-09,-3.546094223496427e-11,1.5137653218593426e-07,1.061523793416305e-07,7.83728935753198e-10
1668680471.6396804,17234,1668680471,639561840,,-2.98402137822698e-05,1.8789116053783413e-09,-3.502602380590802e-11,1.4008794334768223e-07,1.101954360762068e-07,8.361175353490649e-10
1668680471.6478503,17235,1668680471,647718953,,-2.791686958345291e-05,1.8433450342727674e-09,-3.456085969696292e-11,1.2887100535191403e-07,1.1419230234068844e-07,8.879833638959344e-10
1668680471.6556895,17236,1668680471,655502238,,-2.6090426765994816e-05,1.8070762408983036e-09,-3.40684628502957e-11,1.1772658576818499e-07,1.1814283304721576e-07,9.393239372088025e-10
1668680471.6638494,17237,1668680471,663695373,,-2.4356831656021202e-05,1.7702196603525399e-09,-3.355164169246803e-11,1.0665553596164919e-07,1.2204689019558372e-07,9.901368413047559e-10
1668680471.6745875,17238,1668680471,671935127,,-2.2712167722980926e-05,1.7328830649830079e-09,-3.301308615524239e-11,9.565869110916533e-08,1.2590434283722823e-07,1.0404197592844095e-09
1668680471.6799028,17239,1668680471,679787249,,-2.1152652469188077e-05,1.695167864792626e-09,-3.24553135337401e-11,8.473687023958793e-08,1.29715067035377e-07,1.090170471237039e-09
1668680471.687694,17240,1668680471,687444968,,-1.967463430097914e-05,1.6571689803629968e-09,-3.1880718074905197e-11,7.389087623589524e-08,1.3347894582514317e-07,1.1393868228224346e-09
1668680471.6952732,17241,1668680471,695167886,,-1.8274589388499535e-05,1.6189752800356306e-09,-3.1291555155163317e-11,6.312149588457794e-08,1.371958691683285e-07,1.1880667559809272e-09
1668680471.7038658,17242,1668680471,703695522,,-1.6949118521766952e-05,1.5806699062394395e-09,-3.068994054081957e-11,5.242949990125519e-08,1.408657339139073e-07,1.2362082986639615e-09
1668680471.7119186,17243,1668680471,711778099,,-1.5694943969407177e-05,1.5423303078125003e-09,-3.0077860124011984e-11,4.181564294271239e-08,1.4448844376155987e-07,1.2838095642953831e-09
1668680471.719799,17244,1668680471,719646831,,-1.4508906345778725e-05,1.5040286309989332e-09,-2.945714817601957e-11,3.128066366387565e-08,1.4806390921432576e-07,1.3308687466282538e-09
1668680471.727987,17245,1668680471,727758685,,-1.3387961492286038e-05,1.4658317283684652e-09,-2.8829587246044747e-11,2.0825284743337454e-08,1.5159204753443598e-07,1.3773841193247239e-09
1668680471.7355037,17246,1668680471,735324547,,-1.2329177377864595e-05,1.4278016097583503e-09,-2.8196798254074e-11,1.045021291636354e-08,1.5507278270094814e-07,1.4233540491257e-09
1668680471.7438977,17247,1668680471,743714486,,-1.1329731022962349e-05,1.3899955055855253e-09,-2.7560290051447825e-11,1.5613901221693439e-10,1.5850604536324845e-07,1.4687769810887551e-09
1668680471.7518408,17248,1668680471,751661473,,-1.03869054518517e-05,1.352466339873907e-09,-2.692153932213032e-11,-1.0056261992284395e-08,1.6189177280361173e-07,1.513651436284199e-09
1668680471.7599897,17249,1668680471,759734211,,-9.49808667625477e-06,1.3152625121567536e-09,-2.6281845160444773e-11,-2.018633095693743e-08,1.652299088864722e-07,1.557976027783672e-09
1668680471.7678876,17250,1668680471,767721990,,-8.660760714261389e-06,1.2784284668560448e-09,-2.564242463801898e-11,-3.0233424517857593e-08,1.6852040401406814e-07,1.601749445596511e-09
1668680471.7757936,17251,1668680471,775588934,,-7.872510647701323e-06,1.242004590744372e-09,-2.5004387863776498e-11,-4.0196915056650856e-08,1.7176321508636249e-07,1.6449704660684273e-09
1668680471.7839105,17252,1668680471,783757790,,-7.131013720417425e-06,1.2060277238703518e-09,-2.436886224638747e-11,-5.007619063285253e-08,1.749583054470732e-07,1.687637928300109e-09
1668680471.7926998,17253,1668680471,792380945,,-6.434038479912962e-06,1.1705312217479192e-09,-2.3736798901358506e-11,-5.987065495459469e-08,1.7810564483748982e-07,1.7297507716690868e-09
1668680471.8000114,17254,1668680471,799691589,,-5.779441965055884e-06,1.135544960411299e-09,-2.310905466224184e-11,-6.957972733917418e-08,1.8120520935562798e-07,1.7713080041540898e-09
1668680471.808638,17255,1668680471,808436838,,-5.165166941165068e-06,1.1010958361799922e-09,-2.24864778491251e-11,-7.920284262698676e-08,1.842569814019732e-07,1.81230871524891e-09
1668680471.815977,17256,1668680471,815783667,,-4.589239184690134e-06,1.067207652762339e-09,-2.1869795591908167e-11,-8.873945117081387e-08,1.872609496370126e-07,1.85275207252853e-09
1668680471.8235435,17257,1668680471,823384705,,-4.049764818431143e-06,1.0339014847805606e-09,-2.12596676104894e-11,-9.818901876240686e-08,1.9021710893055427e-07,1.8926373289835825e-09
1668680471.832266,17258,1668680471,831975918,,-3.5449276990517625e-06,1.00119571294265e-09,-2.0656787067786284e-11,-1.0755102656806285e-07,1.9312546030785214e-07,1.9319638056815847e-09
1668680471.839807,17259,1668680471,839650789,,-3.0729868575786714e-06,9.691063044919667e-10,-2.0061685939639843e-11,-1.1682497109264009e-07,1.9598601090761076e-07,1.9707308996883913e-09
1668680471.8477662,17260,1668680471,847619342,,-2.632273993832493e-06,9.376468264069854e-10,-1.9474894759114886e-11,-1.26010364111196e-07,1.9879877393286788e-07,2.008938090093139e-09
1668680471.8561532,17261,1668680471,856038683,,-2.2211910255162475e-06,9.068286779901605e-10,-1.889679874424214e-11,-1.3510673261351142e-07,2.0156376859653772e-07,2.0465849333953064e-09
1668680471.8635185,17262,1668680471,863387760,,-1.8382076924307404e-06,8.766611692974502e-10,-1.8327847654360905e-11,-1.4411361874250274e-07,2.0428102007533688e-07,2.0836710493287686e-09
1668680471.8724978,17263,1668680471,872282082,,-1.4818592161837458e-06,8.471517039983191e-10,-1.7768348515052135e-11,-1.530305797274339e-07,2.069505594562362e-07,2.1201961481269428e-09
1668680471.879951,17264,1668680471,879774619,,-1.1507440157749688e-06,8.183059761011241e-10,-1.721866504592511e-11,-1.618571878212417e-07,2.095724236834907e-07,2.1561600034158268e-09
1668680471.8876414,17265,1668680471,887497796,,-8.435214787546403e-07,7.901278508146673e-10,-1.667904527076903e-11,-1.7059303024790907e-07,2.1214665551631088e-07,2.1915624683165194e-09
1668680471.8954897,17266,1668680471,895283431,,-5.589097884955933e-07,7.626196665047857e-10,-1.6149726425659954e-11,-1.7923770912188424e-07,2.146733034667763e-07,2.2264034635541484e-09
1668680471.904351,17267,1668680471,904059205,,-2.9568380698390204e-07,7.357824585865948e-10,-1.563092198858969e-11,-1.8779084138535112e-07,2.171524217530445e-07,2.2606829857831982e-09
1668680471.9117448,17268,1668680471,911566199,,-5.2673013193282766e-08,7.096158103955787e-10,-1.5122782382968505e-11,-1.962520587467314e-07,2.1958407024953975e-07,2.294401103889927e-09
1668680471.9198833,17269,1668680471,919685140,,1.712405034613921e-07,6.84117935695162e-10,-1.4625399901645876e-11,-2.046210075990204e-07,2.219683144277106e-07,2.327557955790787e-09
1668680471.9276528,17270,1668680471,927550955,,3.7712399480250163e-07,6.592861932303108e-10,-1.4138854310919736e-11,-2.1289734895340935e-07,2.243052253101044e-07,2.3601537496147898e-09
1668680471.9356184,17271,1668680471,935302444,,5.659959513835057e-07,6.351166573064981e-10,-1.3663244550580739e-11,-2.2108075837248297e-07,2.2659487941396566e-07,2.392188763217561e-09
1668680471.9437592,17272,1668680471,943619652,,7.38827946300398e-07,6.116044897641652e-10,-1.3198581029159795e-11,-2.2917092588013108e-07,2.2883735869627633e-07,2.4236633538193643e-09
1668680471.9523528,17273,1668680471,952089941,,8.965464256527797e-07,5.887439815434058e-10,-1.2744950032653542e-11,-2.3716755589955973e-07,2.310327504996199e-07,2.4545779421160537e-09
1668680471.9595973,17274,1668680471,959497662,,1.040034446699119e-06,5.665286461073452e-10,-1.2302319372071685e-11,-2.450703671716837e-07,2.3318114750240503e-07,2.4849330128330328e-09
1668680471.9677644,17275,1668680471,967615833,,1.1701333642326288e-06,5.44951141531554e-10,-1.1870708623120374e-11,-2.528790926799782e-07,2.352826476643085e-07,2.514729122249449e-09
1668680471.9754517,17276,1668680471,975303926,,1.2876444660658398e-06,5.240035824385555e-10,-1.1450065153150481e-11,-2.6059347957051115e-07,2.3733735416540048e-07,2.5439668910413996e-09
1668680471.9835649,17277,1668680471,983449523,,1.3933305581534853e-06,5.036774987918837e-10,-1.1040293793234089e-11,-2.682132890734418e-07,2.393453753612516e-07,2.5726470103619353e-09
1668680471.993525,17278,1668680471,991670099,,1.4879175005116303e-06,4.839638530262102e-10,-1.0641325203769624e-11,-2.7573829642194874e-07,2.4130682472143204e-07,2.6007702302449665e-09
1668680471.9997535,17279,1668680471,999619873,,1.5720956945363785e-06,4.648529739397292e-10,-1.0253120600216411e-11,-2.8316829076562154e-07,2.4322182077362586e-07,2.6283373678312244e-09
1668680472.0078044,17280,1668680472,7607518,,1.646521522975302e-06,4.463349888726241e-10,-9.875518698984465e-12,-2.9050307508498604e-07,2.450904870530104e-07,2.6553493174367292e-09
1668680472.0155275,17281,1668680472,15305902,,1.7118187429037635e-06,4.283995645022255e-10,-9.508426835028273e-12,-2.9774246611801563e-07,2.4691295204660973e-07,2.6818070160455157e-09
1668680472.0241137,17282,1668680472,23912164,,1.7685798333236002e-06,4.1103596970253634e-10,-9.151760680719622e-12,-3.0488629426222544e-07,2.486893491318702e-07,2.7077114849531603e-09
1668680472.031684,17283,1668680472,31545314,,1.8173672976745722e-06,3.9423332516361035e-10,-8.805371679994865e-12,-3.1193440349783927e-07,2.5041981652482284e-07,2.7330637873727828e-09
1668680472.0397909,17284,1668680472,39662985,,1.8587149229013765e-06,3.779804773192178e-10,-8.469120589790706e-12,-3.1888665128900213e-07,2.5210449722064917e-07,2.757865063647899e-09
1668680472.0476103,17285,1668680472,47509422,,1.8931289953214627e-06,3.622659919913133e-10,-8.142821949297211e-12,-3.2574290851343846e-07,2.5374353894834785e-07,2.7821165217279606e-09
1668680472.0554855,17286,1668680472,55362618,,1.921089474925699e-06,3.470783402939991e-10,-7.826346981177314e-12,-3.325030593497753e-07,2.5533709409843963e-07,2.8058194134116194e-09
1668680472.0637546,17287,1668680472,63648823,,1.943051128696293e-06,3.324059055188334e-10,-7.519485571184476e-12,-3.3916700120256016e-07,2.5688531968067137e-07,2.8289750592528865e-09
1668680472.071738,17288,1668680472,71594666,,1.9594446242119127e-06,3.1823685268889685e-10,-7.222086200399507e-12,-3.457346446063489e-07,2.5838837725739586e-07,2.8515848379041864e-09
1668680472.079819,17289,1668680472,79705866,,1.9706775841950573e-06,3.0455941926173027e-10,-6.933993057480515e-12,-3.5220591312320714e-07,2.5984643288761235e-07,2.87365018385012e-09
1668680472.0879977,17290,1668680472,87645933,,1.9771356033469055e-06,2.9136168989420727e-10,-6.655029244384107e-12,-3.5858074326475584e-07,2.6125965707524445e-07,2.895172595422514e-09
1668680472.0956402,17291,1668680472,95467463,,1.9791832281768183e-06,2.7863182729905805e-10,-6.384988171655409e-12,-3.6485908439122955e-07,2.626282247101406e-07,2.9161536212254483e-09
1668680472.1042144,17292,1668680472,103941545,,1.977164901096509e-06,2.663580930625688e-10,-6.123724880182941e-12,-3.7104089861580253e-07,2.6395231500909487e-07,2.9365948790766054e-09
1668680472.1116035,17293,1668680472,111450536,,1.971405869358683e-06,2.5452853834298586e-10,-5.871051848838574e-12,-3.7712616069971484e-07,2.6523211145703773e-07,2.956498032596551e-09
1668680472.1197524,17294,1668680472,119635162,,1.962213060187999e-06,2.43131458492631e-10,-5.626752642683946e-12,-3.8311485797306275e-07,2.664678017604477e-07,2.9758648057023147e-09
1668680472.1283772,17295,1668680472,128105347,,1.949875922872173e-06,2.321552090924166e-10,-5.39065948590299e-12,-3.8900699022246706e-07,2.676595777739489e-07,2.994696978691557e-09
1668680472.136,17296,1668680472,135870711,,1.934667238800166e-06,2.2158817361183265e-10,-5.1626014392071266e-12,-3.948025695942594e-07,2.688076354525258e-07,3.0129963848595184e-09
1668680472.14341,17297,1668680472,143257410,,1.9168439003144314e-06,2.1141884318971376e-10,-4.942329349906431e-12,-4.00501620502502e-07,2.699121747933826e-07,3.030764908109118e-09
1668680472.1522462,17298,1668680472,151968230,,1.8966476594177627e-06,2.0163591742988148e-10,-4.729747935752371e-12,-4.0610417951194495e-07,2.7097339977475493e-07,3.048004482339818e-09
1668680472.160625,17299,1668680472,160509718,,1.8743058473057464e-06,1.9222815078240457e-10,-4.52458521384517e-12,-4.11610295266636e-07,2.719915183047767e-07,3.0647171044216266e-09
1668680472.1676712,17300,1668680472,167528102,,1.8500320651869656e-06,1.8318445760348868e-10,-4.326663263521793e-12,-4.170200283525204e-07,2.7296674215459233e-07,3.0809048163718323e-09
1668680472.175611,17301,1668680472,175505081,,1.8240268479111581e-06,1.7449389933169324e-10,-4.135818821298584e-12,-4.2233345122157934e-07,2.7389928690620713e-07,3.0965697123637773e-09
1668680472.1833484,17302,1668680472,183239157,,1.7964783008047047e-06,1.6614580957827855e-10,-3.9518781351224136e-12,-4.275506480723716e-07,2.747893718939511e-07,3.1117139407449133e-09
1668680472.191825,17303,1668680472,191682065,,1.7675627106557747e-06,1.5812952596403674e-10,-3.7745790819400766e-12,-4.326717147579283e-07,2.756372201479058e-07,3.126339690976401e-09
1668680472.1996624,17304,1668680472,199559554,,1.737445131794731e-06,1.504347183033812e-10,-3.6038006447036963e-12,-4.3769675866758394e-07,2.7644305833144567e-07,3.140449197778065e-09
1668680472.2077756,17305,1668680472,207604674,,1.7062799481637744e-06,1.4305114303737883e-10,-3.43939419804637e-12,-4.426258986330248e-07,2.7720711668721514e-07,3.154044759446753e-09
1668680472.2153654,17306,1668680472,215234910,,1.674211411647275e-06,1.3596874581270466e-10,-3.281141214100018e-12,-4.474592648190424e-07,2.7792962898235946e-07,3.1671287115415626e-09
1668680472.2248352,17307,1668680472,224631968,,1.6413741583429562e-06,1.291777284976422e-10,-3.1288478102829636e-12,-4.521969986182788e-07,2.7861083244046405e-07,3.179703439618981e-09
1668680472.232698,17308,1668680472,232477221,,1.607893702560772e-06,1.2266847395228369e-10,-2.9823256506423823e-12,-4.5683925254321975e-07,2.792509676957849e-07,3.191771379825809e-09
1668680472.2401226,17309,1668680472,239845662,,1.573886910084892e-06,1.1643155895260972e-10,-2.8414496602914706e-12,-4.6138619010842977e-07,2.7985027872693745e-07,3.203335003241757e-09
1668680472.2481658,17310,1668680472,248059179,,1.5394624509239456e-06,1.1045779345538682e-10,-2.706060557526214e-12,-4.658379857400174e-07,2.8040901280371756e-07,3.214396835614889e-09
1668680472.256017,17311,1668680472,255859775,,1.5047212325984723e-06,1.0473814722320174e-10,-2.5759128240721906e-12,-4.701948246598752e-07,2.8092742042480447e-07,3.2249594449758822e-09
1668680472.2637951,17312,1668680472,263604621,,1.4697568143694122e-06,9.926384657227516e-11,-2.450921126455756e-12,-4.74456902765476e-07,2.8140575526205895e-07,3.2350254319399253e-09
1668680472.2716756,17313,1668680472,271511374,,1.4346558033574598e-06,9.402640863064916e-11,-2.330921639117953e-12,-4.78624426528769e-07,2.8184427410502555e-07,3.2445974563289625e-09
1668680472.2796025,17314,1668680472,279499834,,1.3994982329070076e-06,8.901720747070987e-11,-2.2157056858079043e-12,-4.826976128984945e-07,2.822432368045568e-07,3.2536782136555183e-09
1668680472.287857,17315,1668680472,287737824,,1.3643579243105367e-06,8.422822472450709e-11,-2.1051465055131125e-12,-4.866766891671383e-07,2.826029062105806e-07,3.2622704394853407e-09
1668680472.295434,17316,1668680472,295320955,,1.3293028318182293e-06,7.965159037493246e-11,-1.999096872321789e-12,-4.905618928696036e-07,2.82923548114377e-07,3.2703769098274598e-09
1668680472.3037722,17317,1668680472,303624699,,1.2943953723110254e-06,7.527943404079446e-11,-1.8973838766372053e-12,-4.943534716729803e-07,2.832054311949801e-07,3.278000445690378e-09
1668680472.3117163,17318,1668680472,311610778,,1.2596927396184766e-06,7.110424091420939e-11,-1.7998862504562089e-12,-4.980516832666054e-07,2.834488269629211e-07,3.285143897182415e-09
1668680472.3199809,17319,1668680472,319771585,,1.2252472045181814e-06,6.711879596849705e-11,-1.7064754755537112e-12,-5.0165679523613e-07,2.83654009695653e-07,3.2918101701720686e-09
1668680472.3279536,17320,1668680472,327735746,,1.1911064004330353e-06,6.331585886849815e-11,-1.6170300392654981e-12,-5.051690849651658e-07,2.8382125639101197e-07,3.298002187408569e-09
1668680472.3356574,17321,1668680472,335543993,,1.1573135960046897e-06,5.968854927892918e-11,-1.5314040666604948e-12,-5.085888395179859e-07,2.8395084669902204e-07,3.303722918892455e-09
1668680472.3433504,17322,1668680472,343239860,,1.123907954611029e-06,5.623015383300566e-11,-1.4494395258250463e-12,-5.119163555290381e-07,2.840430628735573e-07,3.3089753734473854e-09
1668680472.351915,17323,1668680472,351763628,,1.0909247815196823e-06,5.293408542342602e-11,-1.3710014102807713e-12,-5.151519390841395e-07,2.8409818971051326e-07,3.3137626066803432e-09
1668680472.3598614,17324,1668680472,359663619,,1.0583957588933305e-06,4.9794092122665935e-11,-1.2959519341719808e-12,-5.182959056042862e-07,2.841165144955513e-07,3.3180876863424343e-09
1668680472.367925,17325,1668680472,367724979,,1.0263491698342482e-06,4.6803984011782776e-11,-1.2241849653642407e-12,-5.213485797329126e-07,2.8409832694282933e-07,3.3219537325017544e-09
1668680472.3786395,17326,1668680472,378271766,,9.948101109556328e-07,4.3957819863384076e-11,-1.1556405946673494e-12,-5.243102952211056e-07,2.8404391913917685e-07,3.32536388958622e-09
1668680472.383657,17327,1668680472,383492615,,9.63800694777415e-07,4.124994201507461e-11,-1.0902090379061983e-12,-5.271813948135199e-07,2.8395358549133526e-07,3.328321343707297e-09
1668680472.3921309,17328,1668680472,391760274,,9.333402417887602e-07,3.8674652567387724e-11,-1.0276867106755447e-12,-5.299622301512653e-07,2.838276226756061e-07,3.3308293050050833e-09
1668680472.399801,17329,1668680472,399603580,,9.034454631134298e-07,3.622657249995432e-11,-9.680301059521388e-13,-5.326531616155145e-07,2.83666329564945e-07,3.33289102237588e-09
1668680472.4083822,17330,1668680472,408195038,,8.741306335408303e-07,3.390050667051141e-11,-9.110931780384142e-13,-5.352545582464001e-07,2.834700071867742e-07,3.334509774703919e-09
1668680472.4154935,17331,1668680472,415358525,,8.454077559227686e-07,3.169137436550301e-11,-8.568032149473581e-13,-5.377667976138945e-07,2.832389586597246e-07,3.335688865319863e-09
1668680472.4237273,17332,1668680472,423565639,,8.172867170962553e-07,2.959428228381335e-11,-8.050523078434633e-13,-5.401902657022615e-07,2.829734891459901e-07,3.3364316404040766e-09
1668680472.4317136,17333,1668680472,431563754,,7.897754354045882e-07,2.7604591677488326e-11,-7.557343794123159e-13,-5.425253567946811e-07,2.8267390579041664e-07,3.336741456024128e-09
1668680472.4397073,17334,1668680472,439525413,,7.628800008310471e-07,2.5717678994709596e-11,-7.08765564001754e-13,-5.447724733649358e-07,2.8234051766807447e-07,3.336621717607372e-09
1668680472.4477735,17335,1668680472,447631005,,7.366048072617082e-07,2.3929098922307848e-11,-6.640516277443695e-13,-5.469320259465938e-07,2.819736357248437e-07,3.336075845999069e-09
1668680472.455795,17336,1668680472,455560882,,7.109526778937179e-07,2.2234652261469847e-11,-6.214682619297957e-13,-5.490044330282772e-07,2.815735727307465e-07,3.335107283732546e-09
1668680472.4638748,17337,1668680472,463649510,,6.85924983909655e-07,2.0630229367000422e-11,-5.809798297620016e-13,-5.509901209195322e-07,2.8114064321581483e-07,3.3337195179850607e-09
1668680472.4719727,17338,1668680472,471824074,,6.615217562996791e-07,1.9111912490297583e-11,-5.424474833130902e-13,-5.528895236616321e-07,2.8067516342552365e-07,3.3319160520086495e-09
1668680472.4798727,17339,1668680472,479757079,,6.377417917526342e-07,1.7675905680314438e-11,-5.05883797167877e-13,-5.547030828883179e-07,2.8017745125742414e-07,3.3297004121147627e-09
1668680472.4876301,17340,1668680472,487530536,,6.145827526354715e-07,1.631849767001224e-11,-4.711087211016498e-13,-5.56431247717341e-07,2.796478262147175e-07,3.32707615453396e-09
1668680472.49578,17341,1668680472,495659512,,5.920412611369858e-07,1.5036164605395615e-11,-4.380866502735358e-13,-5.580744746385087e-07,2.790866093513632e-07,3.3240468585434023e-09
1668680472.5036857,17342,1668680472,503458176,,5.701129881624823e-07,1.3825445555114182e-11,-4.0677114301848946e-13,-5.596332273810269e-07,2.7849412321414954e-07,3.3206161262612363e-09
1668680472.5121498,17343,1668680472,511989445,,5.487927370502642e-07,1.2683183857299169e-11,-3.7704761377799367e-13,-5.611079768143527e-07,2.7787069179599435e-07,3.3167875888850957e-09
1668680472.519897,17344,1668680472,519706326,,5.280745223051965e-07,1.1606146899398163e-11,-3.4888250147970455e-13,-5.624992008178407e-07,2.772166404785109e-07,3.3125648851157384e-09
1668680472.5279825,17345,1668680472,527730673,,5.07951643833518e-07,1.0591333325804201e-11,-3.2223123703310096e-13,-5.638073841740446e-07,2.7653229597711986e-07,3.3079516882513007e-09
1668680472.5353727,17346,1668680472,535197177,,4.884167565426296e-07,9.635845037321446e-12,-2.969980584169299e-13,-5.6503301844465e-07,2.7581798629540935e-07,3.302951687346108e-09
1668680472.5438583,17347,1668680472,543722073,,4.6946193586828564e-07,8.73690630690925e-12,-2.7312907398057824e-13,-5.66176601857823e-07,2.750740406697689e-07,3.297568588902941e-09
1668680472.5520859,17348,1668680472,551885444,,4.5107873910330114e-07,7.89177186403653e-12,-2.5054731583409953e-13,-5.672386391919917e-07,2.743007895155283e-07,3.2918061222822936e-09
1668680472.5597868,17349,1668680472,559579045,,4.332582630484368e-07,7.097861336375452e-12,-2.2925724230721213e-13,-5.682196416532976e-07,2.734985643759913e-07,3.285668040581276e-09
1668680472.5677867,17350,1668680472,567580349,,4.159911979990909e-07,6.3526365561562565e-12,-2.0913632701136565e-13,-5.691201267678671e-07,2.7266769787344563e-07,3.2791581104405263e-09
1668680472.5758803,17351,1668680472,575692585,,3.9926787810428636e-07,5.65381718794358e-12,-1.9012658039031333e-13,-5.699406182623982e-07,2.7180852366014914e-07,3.2722801136448895e-09
1668680472.5834503,17352,1668680472,583303215,,3.830783286961458e-07,4.999031595812265e-12,-1.7220200766189892e-13,-5.706816459393283e-07,2.7092137635682254e-07,3.2650378490552897e-09
1668680472.591605,17353,1668680472,591502498,,3.674123102881243e-07,4.386125277918848e-12,-1.5536604979825362e-13,-5.713437455688013e-07,2.700065915135377e-07,3.2574351379230137e-09
1668680472.5996838,17354,1668680472,599543648,,5.469483040802466e-07,1.834938239569741e-07,-1.4067365005246713e-13,-5.719274594675639e-07,2.690645041743544e-07,3.2494758139318864e-09
1668680472.6076827,17355,1668680472,607568389,,1.2952851764303204e-06,9.02592003570822e-07,-1.3900285363326083e-13,-5.724333363656986e-07,2.6809544896018133e-07,3.2411637246626844e-09
1668680472.6156943,17356,1668680472,615563633,,2.955376623936121e-06,2.4805354388838838e-06,-2.025138329789185e-13,-5.72861930878243e-07,2.6709976164249666e-07,3.2325027362183597e-09
1668680472.6236856,17357,1668680472,623505490,,5.841273541395163e-06,5.213320685869571e-06,-4.804711747439327e-13,-5.732138039723423e-07,2.6607777927466706e-07,3.2234967237463764e-09
1668680472.6317334,17358,1668680472,631548824,,1.0239785718123786e-05,9.371270558859124e-06,-1.2890443766895075e-12,-5.734895236616127e-07,2.6502984041499854e-07,3.2141495760694395e-09
1668680472.6397524,17359,1668680472,639593708,,1.641206596473553e-05,1.5200527251618411e-05,-3.1875984091733374e-12,-5.736896657830289e-07,2.639562853663371e-07,3.2044651953239177e-09
1668680472.6479251,17360,1668680472,647716115,,2.4595119678765654e-05,2.2924475184632134e-05,-7.0541320134990745e-12,-5.738148148245288e-07,2.628574564376619e-07,3.1944474989618063e-09
1668680472.6555874,17361,1668680472,655401985,,3.500324276668996e-05,3.274509631922244e-05,-1.4155599952595038e-11,-5.738655647790009e-07,2.6173369822582536e-07,3.184100418747416e-09
1668680472.664764,17362,1668680472,664397845,,4.782939074923353e-05,4.484426059536779e-05,-2.6209182636448795e-11,-5.738425199456235e-07,2.6058535786654565e-07,3.1734278846019142e-09
1668680472.6720862,17363,1668680472,671895502,,6.324648178960506e-05,5.9384954070228805e-05,-4.5432694379763656e-11,-5.737462956847042e-07,2.5941278527759356e-07,3.162433847046309e-09
1668680472.6800036,17364,1668680472,679911571,,8.140863629621772e-05,7.651244725389375e-05,-7.45822859396671e-11,-5.735775190694245e-07,2.5821633335791417e-07,3.151122263161032e-09
1668680472.6879005,17365,1668680472,687710887,,0.00010245235566782698,9.635540606042638e-05,-1.1697709015577882e-10,-5.733368294443503e-07,2.5699635816952767e-07,3.1394970952374618e-09
1668680472.695963,17366,1668680472,695813787,,0.00012649764266524743,0.00011902694771531605,-1.7651048968619252e-10,-5.730248788939142e-07,2.5575321907304894e-07,3.1275623062242738e-09
1668680472.7036445,17367,1668680472,703422544,,0.0001536490658123154,0.0001446256438842503,-2.5764862393371814e-10,-5.726423325680957e-07,2.5448727883037273e-07,3.115321882082335e-09
1668680472.7117999,17368,1668680472,711667444,,0.00018399677014902882,0.0001732364732138729,-3.654166575004137e-10,-5.721898689170528e-07,2.531989036591893e-07,3.102779813949578e-09
1668680472.7199254,17369,1668680472,719803825,,0.0002176174365820602,0.00020493172540178968,-5.053741405263436e-10,-5.716681797830403e-07,2.518884632543041e-07,3.089940085726885e-09
1668680472.7285519,17370,1668680472,728196056,,0.00025457519200177943,0.0002397718588425568,-6.835800153404048e-10,-5.710779704135029e-07,2.5055633077939437e-07,3.076806701183144e-09
1668680472.7359517,17371,1668680472,735643926,,0.00029492247225983587,0.00027780631382583377,-9.065492413615975e-10,-5.704199593384584e-07,2.4920288279714457e-07,3.0633836668519585e-09
1668680472.743812,17372,1668680472,743699186,,0.00033870084002964637,0.00031907428319430847,-1.1812019454911361e-09,-5.69694878158336e-07,2.4782849919768534e-07,3.0496749934953195e-09
1668680472.7520816,17373,1668680472,751895269,,0.00038594175950048897,0.0003636054423031606,-1.5148062689260532e-09,-5.689034712469154e-07,2.464335630738915e-07,3.0356846842044885e-09
1668680472.7598784,17374,1668680472,759666734,,0.0004366673297876106,0.0004114206400570793,-1.9149169114520754e-09,-5.680464953463557e-07,2.4501846056775923e-07,3.021416759201121e-09
1668680472.7679362,17375,1668680472,767789166,,0.0004908909788726018,0.000462532552737224,-2.389309730221599e-09,-5.671247191270736e-07,2.435835807080982e-07,3.006875232852181e-09
1668680472.7754302,17376,1668680472,775261115,,0.0005486181198235085,0.0005169463022695861,-2.945914460896757e-09,-5.661389226375066e-07,2.421293152114206e-07,2.9920641266261566e-09
1668680472.7836804,17377,1668680472,783558424,,0.0006098467709798222,0.0005746600405245424,-3.5927460597699634e-09,-5.650898967202784e-07,2.4065605826689895e-07,2.9769874599315516e-09
1668680472.7919183,17378,1668680472,791736255,,0.0006745681417258858,0.0006356655011797856,-4.3378361919438825e-09,-5.639784423680472e-07,2.39164206299749e-07,2.961649255808947e-09
1668680472.7998788,17379,1668680472,799705373,,0.0007427671854152398,0.0006999485206214324,-5.189165346237112e-09,-5.628053700427469e-07,2.376541577328528e-07,2.946053551393553e-09
1668680472.807724,17380,1668680472,807576731,,0.0008144231209502186,0.0007674895293024621,-6.154596579750596e-09,-5.615714989736157e-07,2.3612631273568782e-07,2.9302043585586676e-09
1668680472.8158777,17381,1668680472,815664197,,0.0008895099244645642,0.0008382640149238464,-7.241811924312502e-09,-5.602776564031375e-07,2.3458107295198732e-07,2.9141057123795167e-09
1668680472.8244252,17382,1668680472,824092542,,0.0009679967925001018,0.0009122429587516734,-8.45825150363792e-09,-5.589246768472625e-07,2.330188412347918e-07,2.8977616365472025e-09
1668680472.832121,17383,1668680472,832007716,,0.0010498485780162164,0.0009893932463319742,-9.81105667252324e-09,-5.575134013047751e-07,2.3144002137079909e-07,2.8811761557286097e-09
1668680472.8399749,17384,1668680472,839817413,,0.0011350262005180472,0.00106967805381694,-1.1307016575862794e-08,-5.560446765073576e-07,2.2984501781120434e-07,2.8643532938316812e-09
1668680472.8478782,17385,1668680472,847728639,,0.0012234870315388853,0.001153057211066804,-1.2952519463503826e-08,-5.545193541446242e-07,2.282342353930906e-07,2.847297073246477e-09
1668680472.855662,17386,1668680472,855509430,,0.0013151852566633962,0.001239487542647121,-1.475350863020787e-08,-5.529382900832752e-07,2.2660807907817337e-07,2.830011511375727e-09
1668680472.8639836,17387,1668680472,863844727,,0.001410072215230802,0.0013289231877947482,-1.6715442790836318e-08,-5.513023436379867e-07,2.249669536803134e-07,2.812500627790565e-09
1668680472.8721483,17388,1668680472,871925153,,0.0015080967188112286,0.0014213159003834892,-1.884326181030549e-08,-5.496123768122188e-07,2.2331126360324494e-07,2.794768439460041e-09
1668680472.8796904,17389,1668680472,879523454,,0.001609205349503901,0.0015166153298779384,-2.1141357238301303e-08,-5.478692535812887e-07,2.2164141259330296e-07,2.776818955330107e-09
1668680472.8881023,17390,1668680472,887925732,,0.0017133427390627325,0.0016147692842229636,-2.3613547585420174e-08,-5.460738392093148e-07,2.1995780349091736e-07,2.7586561912856106e-09
1668680472.8958194,17391,1668680472,895688099,,0.0018204518298137315,0.0017157239755780768,-2.6263058849740416e-08,-5.442269995476924e-07,2.18260837991753e-07,2.7402841454304827e-09
1668680472.9033365,17392,1668680472,903229143,,0.0019304741182877858,0.0018194242497666842,-2.9092509513109643e-08,-5.423296004194207e-07,2.1655091642589495e-07,2.7217068182538995e-09
1668680472.9117682,17393,1668680472,911625386,,0.002043349882454028,0.001925813800274684,-3.210390045933401e-08,-5.403825069720684e-07,2.1482843753679333e-07,2.7029282180512926e-09
1668680472.9197474,17394,1668680472,919615244,,0.0021590183934008652,0.00203483536759593,-3.5298609130943493e-08,-5.383865831062492e-07,2.1309379827083992e-07,2.683952324278316e-09
1668680472.9277725,17395,1668680472,927578489,,0.0022774181122763703,0.002146430924689491,-3.8677388150611995e-08,-5.363426909025372e-07,2.1134739358969276e-07,2.6647831220284746e-09
1668680472.935632,17396,1668680472,935525737,,0.002398486873263798,0.002260541849280145,-4.224036773665547e-08,-5.342516901169549e-07,2.0958961628739838e-07,2.645424595527912e-09
1668680472.9435968,17397,1668680472,943459023,,0.002522162053334841,0.0023771090837002174,-4.5987062157182574e-08,-5.321144376629432e-07,2.0782085680832714e-07,2.625880711655537e-09
1668680472.9517534,17398,1668680472,951563445,,0.002648380729490447,0.0024960732829425246,-4.991637951581858e-08,-5.299317871720764e-07,2.0604150309067542e-07,2.606155439024982e-09
1668680472.96008,17399,1668680472,959814533,,0.002777079824167727,0.00261737495156345,-5.4026634859421724e-08,-5.277045885336902e-07,2.042519404232967e-07,2.586252744948836e-09
1668680472.9678736,17400,1668680472,967687515,,0.0029081962394610318,0.00274095457004527,-5.8315566191676116e-08,-5.254336875392152e-07,2.0245255129487557e-07,2.5661765776577306e-09
1668680472.976603,17401,1668680472,976459423,,0.003041666980776578,0.0028667527112025536,-6.278035330711843e-08,-5.231199254739957e-07,2.0064371527894797e-07,2.545930875841318e-09
1668680472.98401,17402,1668680472,983791387,,0.0031774292705113623,0.002994710147188038,-6.741763885003475e-08,-5.207641388220543e-07,1.9882580891479487e-07,2.5255195812250164e-09
1668680472.9920797,17403,1668680472,991843466,,0.0033154206523204983,0.0031247679476296875,-7.22235517380897e-08,-5.183671589316224e-07,1.9699920559839866e-07,2.5049466246922225e-09
1668680472.9995759,17404,1668680472,999435319,,0.003455579086511057,0.0032568675694049877,-7.719373213780534e-08,-5.159298117685285e-07,1.9516427549627613e-07,2.4842159280190346e-09
1668680473.0078168,17405,1668680473,7668228,,0.003597843037075374,0.003390950938536353,-8.232335835405104e-08,-5.134529176438192e-07,1.9332138544600973e-07,2.463331403006891e-09
1668680473.0157306,17406,1668680473,15588822,,0.0037421515508527558,0.003526960524667522,-8.76071747371057e-08,-5.109372910213642e-07,1.9147089889897458e-07,2.442296947145761e-09
1668680473.0238523,17407,1668680473,23551606,,0.00388844432928578,0.0036648394085597694,-9.303952086414496e-08,-5.083837403044143e-07,1.8961317584383444e-07,2.421116458359296e-09
1668680473.031635,17408,1668680473,31520147,,0.004036661793214355,0.0038045313430259396,-9.861436161211365e-08,-5.057930676898709e-07,1.8774857275233162e-07,2.399793809851336e-09
1668680473.040115,17409,1668680473,39831346,,0.0041867451411304645,0.003945980807699795,-1.0432531765690698e-07,-5.031660690035653e-07,1.858774425342384e-07,2.3783328717899566e-09
1668680473.0478637,17410,1668680473,47630984,,0.004338636401295119,0.004089133058019228,-1.101656963694054e-07,-5.005035336005698e-07,1.8400013449306732e-07,2.356737509139062e-09
1668680473.0560877,17411,1668680473,55961035,,0.004492278478099852,0.0042339341687835375,-1.1612852325139936e-07,-4.978062442669517e-07,1.821169942946158e-07,2.335011565178513e-09
1668680473.0634127,17412,1668680473,63272900,,0.0046476151930363255,0.004380331072626503,-1.2220657291146768e-07,-4.95074977117391e-07,1.8022836394781638e-07,2.3131588823208094e-09
1668680473.071816,17413,1668680473,71638084,,0.004804591320619194,0.004528271593730816,-1.283924001939838e-07,-4.923105015767289e-07,1.7833458177868885e-07,2.291183283896492e-09
1668680473.0797577,17414,1668680473,79559217,,0.004963152619590172,0.004677704477093274,-1.3467837098409432e-07,-4.895135802854788e-07,1.7643598241812934e-07,2.2690885793583138e-09
1668680473.0879614,17415,1668680473,87768222,,0.005123245859715095,0.004828579413632315,-1.4105669224229924e-07,-4.866849691350161e-07,1.745328967999452e-07,2.246878576424305e-09
1668680473.095673,17416,1668680473,95574977,,0.0052848188444687355,0.004980847061418869,-1.4751944183654527e-07,-4.838254172126702e-07,1.726256521571146e-07,2.2245570455159402e-09
1668680473.1037073,17417,1668680473,103584234,,0.005447820429888517,0.005134459063291795,-1.5405859746093544e-07,-4.80935666832217e-07,1.7071457203075813e-07,2.2021277744019296e-09
1668680473.11187,17418,1668680473,111700929,,0.005612200539861853,0.005289368061109993,-1.6066606471434204e-07,-4.780164535331748e-07,1.6879997626368802e-07,2.17959451442179e-09
1668680473.1202404,17419,1668680473,120013456,,0.00577791017809948,0.0054455277068775655,-1.6733370425642815e-07,-4.750685061165964e-07,1.6688218103729792e-07,2.1569610169150377e-09
1668680473.1284344,17420,1668680473,128291904,,0.005944901437032985,0.005602892670966937,-1.7405335809840535e-07,-4.72092546699401e-07,1.649614988690558e-07,2.134231003730891e-09
1668680473.1364832,17421,1668680473,136351010,,0.00611312750386183,0.005761418647651818,-1.8081687457896895e-07,-4.6908929074622945e-07,1.630382386375083e-07,2.1114081958512054e-09
1668680473.1438973,17422,1668680473,143775908,,0.006282542663963457,0.005921062358152196,-1.8761613245411263e-07,-4.660594471194465e-07,1.6111270560145762e-07,2.0884962943085172e-09
1668680473.1525118,17423,1668680473,152381547,,0.006453102301868313,0.006081781551380166,-1.944430637940601e-07,-4.630037181666425e-07,1.5918520143552327e-07,2.0654989801860424e-09
1668680473.1604924,17424,1668680473,160282867,,0.006624762899990063,0.006243535002567553,-2.0128967532136595e-07,-4.5992279977849596e-07,1.5725602425418431e-07,2.042419933699635e-09
1668680473.168759,17425,1668680473,168558021,,0.006797482035291026,0.0064062825099432865,-2.0814806905206752e-07,-4.5681738147365305e-07,1.5532546863777311e-07,2.0192627934317864e-09
1668680473.1757696,17426,1668680473,175567841,,0.006971218374053033,0.006569984889622753,-2.1501046123544215e-07,-4.5368814646368487e-07,1.533938256678474e-07,1.9960312101080513e-09
1668680473.184706,17427,1668680473,184572411,,0.007145931664913045,0.006734603968858072,-2.2186920019611745e-07,-4.5053577176532944e-07,1.5146138296586917e-07,1.972728791085898e-09
1668680473.1919138,17428,1668680473,191791728,,0.007321582730315042,0.0069001025777925004,-2.2871678274181181e-07,-4.4736092827884566e-07,1.4952842471231383e-07,1.9493591333144544e-09
1668680473.1996624,17429,1668680473,199550707,,0.007498133456520181,0.007066444539853206,-2.3554586960968257e-07,-4.441642808741464e-07,1.4759523171183064e-07,1.925925832008124e-09
1668680473.207939,17430,1668680473,207752158,,0.00767554678230842,0.007233594660907584,-2.4234929922511075e-07,-4.409464885039011e-07,1.4566208139354096e-07,1.902432452891012e-09
1668680473.2154446,17431,1668680473,215306315,,0.007853786686498169,0.0074015187173028536,-2.491201005810336e-07,-4.3770820426622983e-07,1.4372924788256841e-07,1.8788825356663708e-09
1668680473.2237253,17432,1668680473,223568397,,0.008032818174401143,0.0075701834428993945,-2.558515045981726e-07,-4.34450075553354e-07,1.417970020110165e-07,1.8552796139659211e-09
1668680473.2316523,17433,1668680473,231486219,,0.00821260726332402,0.007739556515202803,-2.6253695448276996e-07,-4.3117274411533414e-07,1.3986561137659679e-07,1.8316272023394253e-09
1668680473.2396245,17434,1668680473,239526726,,0.00839312096722064,0.007909606540692829,-2.6917011472437e-07,-4.27876846140321e-07,1.3793534037165843e-07,1.8079287858463466e-09
1668680473.2480814,17435,1668680473,247882193,,0.008574327280591812,0.008080303039441347,-2.757448789161221e-07,-4.2456301239233063e-07,1.3600645022742363e-07,1.784187840872531e-09
1668680473.2565181,17436,1668680473,256267178,,0.00875619516172471,0.008251616429104778,-2.822553767462473e-07,-4.212318683068371e-07,1.3407919903979165e-07,1.7604078195176953e-09
1668680473.2637846,17437,1668680473,263482527,,0.008938694515356534,0.008423518008372587,-2.8869597955086085e-07,-4.178840340500039e-07,1.3215384183360487e-07,1.7365921600037693e-09
1668680473.2726986,17438,1668680473,272455549,,0.009121796174842448,0.00859597993994591,-2.9506130506691943e-07,-4.1452012465448686e-07,1.302306305658201e-07,1.7127442727971065e-09
1668680473.2797172,17439,1668680473,279534980,,0.009305471883902029,0.008768975233117543,-3.0134622106106656e-07,-4.111407500803258e-07,1.2830981419321703e-07,1.6888675596904434e-09
1668680473.2877636,17440,1668680473,287640313,,0.009489694278013756,0.00894247772601849,-3.075458480511025e-07,-4.0774651532611594e-07,1.2639163868210178e-07,1.6649653739042591e-09
1668680473.2956371,17441,1668680473,295462654,,0.009674436865521985,0.009116462067591743,-3.136555611632262e-07,-4.043380205083849e-07,1.2447634707745195e-07,1.6410410721284796e-09
1668680473.304028,17442,1668680473,303886243,,0.009859674008516362,0.009290903699350279,-3.1967099094772774e-07,-4.009158609454965e-07,1.2256417950215763e-07,1.6170979919710726e-09
1668680473.3118944,17443,1668680473,311719716,,0.010045380903539427,0.009465778836972126,-3.2558802358911657e-07,-3.9748062726668084e-07,1.206553732205828e-07,1.5931394259371956e-09
1668680473.3198252,17444,1668680473,319669528,,0.010231533562174247,0.009641064451781044,-3.3140280027557334e-07,-3.94032905447691e-07,1.1875016265846042e-07,1.5691686647972825e-09
1668680473.3277323,17445,1668680473,327581982,,0.010418108791559542,0.009816738252157852,-3.3711171576963987e-07,-3.90573276914019e-07,1.1684877943379216e-07,1.545188976770362e-09
1668680473.335963,17446,1668680473,335676662,,0.010605084174876904,0.009992778664924762,-3.4271141635083684e-07,-3.871023186195413e-07,1.149514524118446e-07,1.5212035953809933e-09
1668680473.3438702,17447,1668680473,343610139,,0.01079243805185034,0.010169164816740808,-3.481987970781415e-07,-3.836206031408848e-07,1.130584076942259e-07,1.4972157402759478e-09
1668680473.3517528,17448,1668680473,351637503,,0.010980149499296316,0.01034587651554389,-3.53570998690745e-07,-3.801286986895565e-07,1.1116986868331446e-07,1.4732286172242093e-09
1668680473.3596554,17449,1668680473,359496313,,0.011168198311757723,0.010522894232072269,-3.5882540371301957e-07,-3.76627169216298e-07,1.0928605611424291e-07,1.4492453920961212e-09
1668680473.3676465,17450,1668680473,367469832,,0.01135656498225453,0.01070019908149489,-3.6395963193822893e-07,-3.731165744756497e-07,1.0740718805045293e-07,1.4252692238231335e-09
1668680473.3754826,17451,1668680473,375346318,,0.011545230683178911,0.01087777280517854,-3.6897153602307e-07,-3.6959747007384535e-07,1.0553347994221498e-07,1.4013032349075027e-09
1668680473.383821,17452,1668680473,383665794,,0.011734177247361657,0.011055597752616036,-3.7385919611134305e-07,-3.6607040751535146e-07,1.0366514464080429e-07,1.3773505183611867e-09
1668680473.3919747,17453,1668680473,391856639,,0.011923387149333643,0.011233656863538465,-3.7862091436189966e-07,-3.625359342829493e-07,1.0180239242644617e-07,1.353414163726696e-09
1668680473.3998244,17454,1668680473,399685446,,0.012112843486803618,0.011411933650231654,-3.832552089274299e-07,-3.589945938881772e-07,9.994543101194808e-08,1.3294972223826251e-09
1668680473.4085581,17455,1668680473,407909479,,0.012302529962372268,0.011590412180075602,-3.877608080179279e-07,-3.554469258529536e-07,9.80944656273487e-08,1.3056027300950568e-09
1668680473.4162195,17456,1668680473,416024235,,0.012492430865499433,0.01176907705832299,-3.92136643333678e-07,-3.5189346587640835e-07,9.624969894884853e-08,1.2817336914050514e-09
1668680473.4238732,17457,1668680473,423622262,,0.01268253105474058,0.01194791341113245,-3.9638184348503025e-07,-3.483347457339166e-07,9.441133120641687e-08,1.2578930848328174e-09
1668680473.43254,17458,1668680473,432375008,,0.01287281594026583,0.012126906868868272,-4.004957271289957e-07,-3.447712934563852e-07,9.257956015549422e-08,1.234083868081881e-09
1668680473.4398363,17459,1668680473,439721592,,0.01306327146667411,0.012306043549679426,-4.044777959890375e-07,-3.4120363322286216e-07,9.075458112252875e-08,1.21030896936547e-09
1668680473.447577,17460,1668680473,447483730,,0.013253884096112726,0.012485310043367386,-4.083277277583586e-07,-3.3763228553444313e-07,8.893658699982631e-08,1.186571299549577e-09
1668680473.4554584,17461,1668680473,455264724,,0.013444640791711803,0.012664693395551669,-4.120453688850847e-07,-3.3405776713479906e-07,8.712576828778015e-08,1.1628737400098954e-09
1668680473.46373,17462,1668680473,463618452,,0.013635529001341013,0.012844181092140118,-4.1563072742089873e-07,-3.304805911013577e-07,8.532231307763205e-08,1.1392191513054373e-09
1668680473.4719617,17463,1668680473,471784492,,0.013826536641695635,0.013023761044111194,-4.190839655354454e-07,-3.2690126682249476e-07,8.352640711191666e-08,1.1156103575660214e-09
1668680473.4798958,17464,1668680473,479740380,,0.014017652082717002,0.013203421572612195,-4.2240539226534995e-07,-3.233203000601193e-07,8.173823376294003e-08,1.0920501673089555e-09
1668680473.4877388,17465,1668680473,487589480,,0.01420886413235186,0.01338315139437859,-4.2559545628332234e-07,-3.197381929304294e-07,7.99579740738709e-08,1.0685413560918011e-09
1668680473.4953067,17466,1668680473,495178717,,0.014400162021653755,0.013562939607477016,-4.286547384884394e-07,-3.161554440024388e-07,7.818580675640965e-08,1.0450866890637789e-09
1668680473.5038323,17467,1668680473,503631876,,0.01459153539022881,0.013742775677374877,-4.3158394482365824e-07,-3.125725481677372e-07,7.642190820656347e-08,1.0216888775976818e-09
1668680473.5119467,17468,1668680473,511792012,,0.014782974272027734,0.013922649423336937,-4.3438389896190836e-07,-3.0898999681928886e-07,7.466645252730613e-08,9.983506348010263e-10
1668680473.5197904,17469,1668680473,519656046,,0.014974469081484327,0.014102551005151053,-4.370555354350118e-07,-3.0540827774107413e-07,7.291961153833588e-08,9.750746356174123e-10
1668680473.5277693,17470,1668680473,527643629,,0.015166010600000706,0.014282470910181743,-4.395998923755949e-07,-3.0182787517867124e-07,7.11815547682149e-08,9.518635185612467e-10
1668680473.5359368,17471,1668680473,535775899,,0.01535758996277833,0.014462399940752137,-4.420181048618825e-07,-2.982492698160407e-07,6.94524494819623e-08,9.287199030649784e-10
1668680473.5435505,17472,1668680473,543394511,,0.015549198645993807,0.014642329201852069,-4.443113979787914e-07,-2.94672938801099e-07,6.77324606896193e-08,9.056463877443743e-10
1668680473.551892,17473,1668680473,551688851,,0.015740828454317173,0.014822250089171532,-4.464810802408715e-07,-2.910993557273954e-07,6.602175117021011e-08,8.826455573374137e-10
1668680473.560062,17474,1668680473,559822073,,0.01593247150877039,0.015002154277456084,-4.4852853711799385e-07,-2.875289906660827e-07,6.432048144664262e-08,8.597199341320305e-10
1668680473.5684042,17475,1668680473,568215409,,0.01612412023492324,0.01518203370918283,-4.5045522470000175e-07,-2.8396231014524923e-07,6.262880984051486e-08,8.368720300078181e-10
1668680473.5759077,17476,1668680473,575801547,,0.01631576735142307,0.015361880583552662,-4.522626634887263e-07,-2.8039977716173695e-07,6.094689243189106e-08,8.141043394971348e-10
1668680473.583374,17477,1668680473,583198473,,0.016507405858854848,0.015541687345796402,-4.5395243243027415e-07,-2.768418511582511e-07,5.927488309453825e-08,7.914193189684227e-10
1668680473.5921533,17478,1668680473,591874136,,0.016699029028927018,0.01572144667678996,-4.5552616306422644e-07,-2.7328898803778007e-07,5.761293352167605e-08,7.68819397034548e-10
1668680473.5996943,17479,1668680473,599582003,,0.016890630393979308,0.015901151482974666,-4.5698553391424614e-07,-2.697416401795062e-07,5.596119317913912e-08,7.463069919000365e-10
1668680473.6077049,17480,1668680473,607585232,,0.017082203736807303,0.016080794886579267,-4.5833226513278196e-07,-2.6620025637304873e-07,5.4319809372814585e-08,7.238844697277091e-10
1668680473.6158407,17481,1668680473,615651733,,0.01727374308079904,0.016260370216137847,-4.5956811300341753e-07,-2.626652818727012e-07,5.2688927206195457e-08,7.015541966803873e-10
1668680473.6235282,17482,1668680473,623358105,,0.017465242680378457,0.016439870997299044,-4.6069486507281434e-07,-2.5913715836020255e-07,5.106868964115021e-08,6.79318483409741e-10
1668680473.6318483,17483,1668680473,631701575,,0.017656697011750187,0.016619290943921877,-4.617143351150178e-07,-2.5561632394289395e-07,4.9459237438454276e-08,6.571796336285463e-10
1668680473.639742,17484,1668680473,639613370,,0.0178481007639402,0.01679862394945308,-4.626283586564487e-07,-2.521032131468884e-07,4.786070921845116e-08,6.351399198245566e-10
1668680473.6478405,17485,1668680473,647658966,,0.018039448830126776,0.016977864078579676,-4.634387882494993e-07,-2.485982569123003e-07,4.62732414464157e-08,6.132015728521623e-10
1668680473.6555367,17486,1668680473,655399740,,0.01823073629925567,0.017157005559152793,-4.6414748939036216e-07,-2.4510188256074623e-07,4.4696968422145746e-08,5.913668131574124e-10
1668680473.6640368,17487,1668680473,663846391,,0.0184219584479338,0.017336042774375802,-4.647563363193041e-07,-2.4161451382003797e-07,4.3132022335690134e-08,5.696378230224397e-10
1668680473.6716037,17488,1668680473,671495037,,0.01861311073259526,0.017514970255251623,-4.652672080524446e-07,-2.3813657078203395e-07,4.157853320983177e-08,5.480167639126954e-10
1668680473.6797273,17489,1668680473,679575054,,0.0188041887819339,0.017693782673284305,-4.6568198485992666e-07,-2.3466846992069128e-07,4.003662894790094e-08,5.26505759129714e-10
1668680473.6877935,17490,1668680473,687648136,,0.018995188389596043,0.017872474833427906,-4.6600254456940544e-07,-2.3121062403633772e-07,3.850643532249962e-08,5.051069180972423e-10
1668680473.695481,17491,1668680473,695281898,,0.01918610550712733,0.018051041667277386,-4.6623075937643104e-07,-2.277634422941609e-07,3.6988076009111717e-08,4.838223155445576e-10
1668680473.7041292,17492,1668680473,703858260,,0.019376936237167578,0.018229478226496103,-4.663684926050981e-07,-2.243273301973743e-07,3.548167253644664e-08,4.6265399497591453e-10
1668680473.7154384,17493,1668680473,714893540,,0.01956767682688749,0.018407779676473824,-4.6641759574013906e-07,-2.2090268953390158e-07,3.398734435615348e-08,4.416040033650148e-10
1668680473.7213447,17494,1668680473,721067810,,0.019758323661660828,0.018585941290209154,-4.663799057654504e-07,-2.1748991843205043e-07,3.2505208783623583e-08,4.2067429054104544e-10
1668680473.7295125,17495,1668680473,729278377,,0.019948873258966444,0.01876395844241121,-4.6625724243455384e-07,-2.140894112705779e-07,3.103538105707956e-08,3.998668410276629e-10
1668680473.7358413,17496,1668680473,735721375,,0.020139322262513495,0.018941826603814542,-4.660514059158231e-07,-2.107015587647762e-07,2.9577974325052745e-08,3.791836046540542e-10
1668680473.7433407,17497,1668680473,743231251,,0.020329667436584094,0.019119541335701477,-4.6576417453720673e-07,-2.073267478544744e-07,2.8133099627843366e-08,3.586264687993612e-10
1668680473.7518666,17498,1668680473,751653227,,0.020519905660587492,0.019297098284626755,-4.6539730248389344e-07,-2.0396536172821635e-07,2.6700865964253157e-08,3.3819733125106666e-10
1668680473.7597528,17499,1668680473,759591282,,0.02071003392381946,0.01947449317733788,-4.649525180850436e-07,-2.0061777984161071e-07,2.5281380210053373e-08,3.1789804469384286e-10
1668680473.7679212,17500,1668680473,767714426,,0.020900049320421367,0.01965172181588684,-4.644315219499505e-07,-1.9728437787656494e-07,2.3874747202823603e-08,2.977304167095518e-10
1668680473.7756186,17501,1668680473,775468587,,0.021089949044533058,0.019828780072926974,-4.638359852700161e-07,-1.9396552772618777e-07,2.248106970525153e-08,2.776962722272902e-10
1668680473.783716,17502,1668680473,783563653,,0.021279730385633494,0.020005663887189815,-4.6316754837782094e-07,-1.9066159747573442e-07,2.1100448429473267e-08,2.577973702566627e-10
1668680473.792173,17503,1668680473,792027219,,0.02146939072406404,0.020182369259136173,-4.6242781934840887e-07,-1.8737295143654207e-07,1.9732982019238232e-08,2.3803545592948616e-10
1668680473.7999392,17504,1668680473,799781896,,0.020675683738041663,0.020358314750295432,0.0011864865108981236,-1.7553686300900888e-07,1.543959136913022e-08,2.1707183620045534e-10
1668680473.8078473,17505,1668680473,807635843,,0.019441359420575715,0.02053394367493149,0.002905453361847002,-1.6070632758197916e-07,1.0124262271745364e-08,1.95697520688487e-10
1668680473.815676,17506,1668680473,815551098,,0.018272859799136943,0.020709572290335727,0.004561944889731395,-1.4742467864230636e-07,5.3459702278055646e-09,1.7463107349069418e-10
1668680473.823597,17507,1668680473,823476946,,0.017744220867884953,0.021490742452062565,0.006029680616718512,-1.3793146220161584e-07,1.873956677821923e-09,1.5426971158860603e-10
1668680473.8319018,17508,1668680473,831704742,,0.01728101376319869,0.022222766155834597,0.007369586898249976,-1.2936083662063184e-07,-1.2747725606772169e-09,1.3416570458779642e-10
1668680473.840012,17509,1668680473,839717862,,0.017157345439016536,0.02322880467391584,0.008563232184010264,-1.2255228717851106e-07,-3.811855318642133e-09,1.144750232107139e-10
1668680473.8478796,17510,1668680473,847713459,,0.017180676588590908,0.024513120934069134,0.00948540247843446,-1.1620224780762309e-07,-6.184510987746264e-09,9.498543791786052e-11
1668680473.856098,17511,1668680473,855807711,,0.01728693605936455,0.02588752751501169,0.010231207663151302,-1.1026360329176625e-07,-8.408861822996327e-09,7.569379151250999e-11
1668680473.8643718,17512,1668680473,864079334,,0.017410798652187424,0.027158479682691174,0.010897938826814642,-1.0469760395890389e-07,-1.0498172554472725e-08,5.65976449734551e-11
1668680473.8716347,17513,1668680473,871517044,,0.01689185130008936,0.027645252295565373,0.011452098753570216,-9.736887601683169e-08,-1.3185557272687174e-08,3.731093212167025e-11
1668680473.8797293,17514,1668680473,879489364,,0.015195720566077379,0.027732361004106434,0.012469639909469952,-8.602201952654113e-08,-1.7245591927786018e-08,1.7407214558673445e-11
1668680473.8877928,17515,1668680473,887635052,,0.013005577043656211,0.027622878206701923,0.013662436597188446,-7.533922097193845e-08,-2.1070874596182138e-08,-2.2571458591080784e-12
1668680473.8956459,17516,1668680473,895491764,,0.010894939993938724,0.027423847012291048,0.016119366999093603,-6.769447383828391e-08,-2.384592755997765e-08,-2.1225570780158964e-11
1668680473.903791,17517,1668680473,903618857,,0.008991375061565134,0.02724451165714454,0.018350454885338242,-6.269000043485167e-08,-2.570701582586915e-08,-3.9559132391283475e-11
1668680473.911956,17518,1668680473,911767019,,0.007308859315079562,0.027030412759369606,0.02111195318802522,-5.960665271115639e-08,-2.69010569374674e-08,-5.738775340352609e-11
1668680473.9200313,17519,1668680473,919890887,,0.005821257465313348,0.02681027988814811,0.024006711787647968,-5.779669689671014e-08,-2.765057525479231e-08,-7.483312407241538e-11
1668680473.927628,17520,1668680473,927529994,,0.004337457397357805,0.026598791492117826,0.027143969246545812,-5.7217598977197083e-08,-2.797001315117415e-08,-9.190601144709598e-11
1668680473.935408,17521,1668680473,935230497,,0.002709982079037837,0.0264031580760357,0.030557081982905288,-5.836954906737778e-08,-2.7687327946177356e-08,-1.0851931159239214e-10
1668680473.9442976,17522,1668680473,944071823,,0.0012693505909905625,0.02623047570931049,0.03364034561689319,-6.023061524685215e-08,-2.7154369206292646e-08,-1.248707665046922e-10
1668680473.9520538,17523,1668680473,951871563,,-0.00016294920501777667,0.026075523104784372,0.036719125850622494,-6.324048554241183e-08,-2.62199474841923e-08,-1.4088839470072223e-10
1668680473.9596639,17524,1668680473,959517255,,-0.0016044426217051693,0.025939654295632733,0.03996938469067389,-6.749474718817546e-08,-2.4851401250064204e-08,-1.5656742222147635e-10
1668680473.967779,17525,1668680473,967657422,,-0.002963143784147255,0.025822799728620633,0.04314174681434766,-7.239480586201615e-08,-2.325497386253565e-08,-1.7202816601780135e-10
1668680473.9755363,17526,1668680473,975363462,,-0.003455992196242858,0.026286647384824117,0.045764841047586526,-7.32854957049417e-08,-2.3032630363183614e-08,-1.8808182788987438e-10
1668680473.983684,17527,1668680473,983554488,,-0.00383774772861372,0.026722846469985156,0.04809044194292395,-7.349570723002197e-08,-2.3038456061017908e-08,-2.0412896720167772e-10
1668680473.9922037,17528,1668680473,992057768,,-0.003208328342121824,0.027592324296423824,0.04927852441622237,-6.704236009416283e-08,-2.5330958325158436e-08,-2.2114764186564884e-10
1668680474.001613,17529,1668680473,999923390,,-0.0020761484594723806,0.028642775040188983,0.04982121970253334,-5.7415649154556395e-08,-2.8707911072921744e-08,-2.385028910478759e-10
1668680474.00806,17530,1668680474,7761858,,2.2169303829318723e-05,0.030085098767603406,0.04915981511644016,-4.2632360256725406e-08,-3.385080427873192e-08,-2.564762256740405e-10
1668680474.0158138,17531,1668680474,15604186,,0.002542590922150832,0.03169945680142635,0.0478450651499029,-2.7545259661428665e-08,-3.9089136521694955e-08,-2.742743029221506e-10
1668680474.0238395,17532,1668680474,23688260,,0.004925986098679553,0.03318651476238966,0.046540005299354655,-1.5347863167069803e-08,-4.3324748316643426e-08,-2.914177649193661e-10
1668680474.031754,17533,1668680474,31546003,,0.0074545801664840355,0.03470357308866052,0.04492432036341423,-4.995346259713653e-09,-4.691780792015162e-08,-3.08091612985506e-10
1668680474.039849,17534,1668680474,39694060,,0.009982466143740678,0.036152202432276605,0.043304787728703394,2.8239531071701696e-09,-4.963219278457127e-08,-3.2420833248961167e-10
1668680474.0478914,17535,1668680474,47736456,,0.012436361017125768,0.03750858160429759,0.04170525170208587,8.00238106197044e-09,-5.143148399706113e-08,-3.397639487465187e-10
1668680474.0560296,17536,1668680474,55823562,,0.014781282832786855,0.03865650743293045,0.04026269372073374,1.0705334488526924e-08,-5.237298425127821e-08,-3.5478814677802895e-10
1668680474.0634139,17537,1668680474,63292667,,0.017002343580258265,0.039617312728590946,0.03895250143089997,1.1123187188819873e-08,-5.252242036806582e-08,-3.6930730782508414e-10
1668680474.0716364,17538,1668680474,71431341,,0.01908369877816444,0.04048858477225468,0.03766915931140943,9.624750838193392e-09,-5.2006712626093176e-08,-3.8336891300394527e-10
1668680474.0798743,17539,1668680474,79714565,,0.021044072187737253,0.04123135679354956,0.03646466006949622,6.451356261569707e-09,-5.090877507182498e-08,-3.969974453343905e-10
1668680474.0879397,17540,1668680474,87741342,,0.022884153270239068,0.04180542835994526,0.035485262738958,1.7826887964672144e-09,-4.9290240442152744e-08,-4.1020520834267327e-10
1668680474.0954573,17541,1668680474,95271953,,0.02460732663636028,0.04227588343790503,0.034702572992777944,-4.068260841324101e-09,-4.725849085153444e-08,-4.2302354674728093e-10
1668680474.1036873,17542,1668680474,103521855,,0.026216542879640654,0.042691401740325825,0.033913384869789474,-1.076256004486193e-08,-4.4929763911086273e-08,-4.3548860004238854e-10
1668680474.1120734,17543,1668680474,111825425,,0.027719692426370613,0.04303377753111249,0.03321998333594481,-1.8145706566833047e-08,-4.2356888986419105e-08,-4.476087070437451e-10
1668680474.1196666,17544,1668680474,119486257,,0.02912176194905262,0.04330330527870904,0.03272710150946598,-2.6045817681167715e-08,-3.959866134235941e-08,-4.5939616347134837e-10
1668680474.127733,17545,1668680474,127567308,,0.030427874411859658,0.04351845967792317,0.032320313637536194,-3.426117360741951e-08,-3.672413323972407e-08,-4.708703774114475e-10
1668680474.1354182,17546,1668680474,135281278,,0.03169646903189862,0.04363499309652159,0.03210752142874753,-4.337247177981841e-08,-3.353355626631218e-08,-4.819153860691205e-10
1668680474.1443903,17547,1668680474,144226638,,0.032874769374659135,0.0437233002487582,0.031848287833168606,-5.251092165955919e-08,-3.032507154545824e-08,-4.926670495175589e-10
1668680474.1515849,17548,1668680474,151484894,,0.033985230390640254,0.043780491200623266,0.03182372817018025,-6.177801126230572e-08,-2.7063620935009053e-08,-5.030966893082578e-10
1668680474.1597834,17549,1668680474,159641132,,0.03502323361046182,0.04381162398160404,0.031884946035671255,-7.097388564190768e-08,-2.381765530352735e-08,-5.132318528500157e-10
1668680474.1679509,17550,1668680474,167796733,,0.03594634762251359,0.04395243901682352,0.032480907297363616,-7.881176840142195e-08,-2.1029019454271193e-08,-5.233212543864774e-10
1668680474.1755912,17551,1668680474,175363051,,0.036779791326949585,0.044217918452446006,0.03367854905572444,-8.531558594760281e-08,-1.8689709088736198e-08,-5.333776822991076e-10
1668680474.1840312,17552,1668680474,183882042,,0.03754898004818544,0.044443670721372924,0.03471526472543543,-9.14378435645422e-08,-1.6472862608479452e-08,-5.432194069565632e-10
1668680474.1921117,17553,1668680474,191968853,,0.03824742619649581,0.04471413404387239,0.035978880268721765,-9.660319331473467e-08,-1.4576137091163593e-08,-5.52974756262703e-10
1668680474.19972,17554,1668680474,199492297,,0.03888471726454691,0.04513328358787071,0.037924759930747294,-1.0033716870409175e-07,-1.3162737586090018e-08,-5.627658547502357e-10
1668680474.2085552,17555,1668680474,208422335,,0.039467290899922194,0.04559923723935018,0.04009372971955676,-1.0315389768826263e-07,-1.2056546543895083e-08,-5.725001653300588e-10
1668680474.2159274,17556,1668680474,215747296,,0.040000032019509045,0.04610456607930179,0.04241602912928963,-1.051116433996302e-07,-1.123787200210842e-08,-5.821809909156705e-10
1668680474.2234883,17557,1668680474,223379645,,0.04048674436598376,0.04650062106549834,0.04430942056301827,-1.0700978520991871e-07,-1.0432510700372072e-08,-5.916284476215061e-10
1668680474.2316444,17558,1668680474,231534863,,0.0409312979957246,0.04684380213346429,0.04596599479713877,-1.086006606240697e-07,-9.725564645833053e-09,-6.009052214150934e-10
1668680474.239756,17559,1668680474,239573591,,0.04133602106470262,0.047112343575301904,0.04731546414103831,-1.100236776768954e-07,-9.069302360433136e-09,-6.099805452408624e-10
1668680474.2476912,17560,1668680474,247571195,,0.0419203592271442,0.04714247284790626,0.047713505477115566,-1.1583192683229521e-07,-6.9002544638438815e-09,-6.176347072672783e-10
