Time,header.seq,header.stamp.secs,header.stamp.nsecs,header.frame_id,pose.position.x,pose.position.y,pose.position.z,pose.orientation.x,pose.orientation.y,pose.orientation.z,pose.orientation.w
1668680471.631809,17233,1668680471,631674014,,-0.09879605235292273,-0.6160097987571022,0.0708820667734288,0.9955612195498161,0.09352316333687959,-0.004347413746094963,0.009611245583494785
1668680471.639668,17234,1668680471,639561840,,-0.0987962991723911,-0.61600979874193,0.07088206677314668,0.9955612195532348,0.09352316334679783,-0.004347414122321447,0.009611244962700272
1668680471.6478407,17235,1668680471,647718953,,-0.09879653020072483,-0.6160097987270398,0.07088206677286829,0.9955612195561313,0.09352316335688238,-0.004347414518763931,0.009611244385214138
1668680471.6556783,17236,1668680471,655502238,,-0.0987967462299103,-0.6160097987124367,0.07088206677259368,0.9955612195585096,0.09352316336713104,-0.004347414935211322,0.009611243850766643
1668680471.6638405,17237,1668680471,663695373,,-0.09879694801894402,-0.6160097986981261,0.07088206677232317,0.9955612195603736,0.093523163377541,-0.0043474153714515235,0.009611243359084492
1668680471.672179,17238,1668680471,671935127,,-0.09879713629494184,-0.616009798684113,0.07088206677205686,0.9955612195617268,0.09352316338810923,-0.004347415827271642,0.009611242909891559
1668680471.6798837,17239,1668680471,679787249,,-0.0987973117542227,-0.6160097986704,0.07088206677179497,0.9955612195625734,0.09352316339883374,-0.004347416302457865,0.009611242502907742
1668680471.6876805,17240,1668680471,687444968,,-0.09879747506336985,-0.6160097986569897,0.07088206677153765,0.9955612195629171,0.09352316340971163,-0.004347416796795788,0.009611242137850416
1668680471.6952648,17241,1668680471,695167886,,-0.0987976268602648,-0.6160097986438845,0.07088206677128499,0.9955612195627619,0.09352316342074025,-0.00434741731007019,0.009611241814433716
1668680471.7038524,17242,1668680471,703695522,,-0.09879776775509652,-0.6160097986310853,0.07088206677103709,0.9955612195621121,0.09352316343191694,-0.004347417842064916,0.009611241532368147
1668680471.7119079,17243,1668680471,711778099,,-0.09879789833134654,-0.616009798618593,0.07088206677079392,0.9955612195609712,0.09352316344323923,-0.0043474183925633425,0.009611241291361955
1668680471.7197793,17244,1668680471,719646831,,-0.09879801914674789,-0.6160097986064069,0.07088206677055582,0.9955612195593436,0.09352316345470463,-0.004347418961348207,0.00961124109112016
1668680471.727894,17245,1668680471,727758685,,-0.09879813073421917,-0.616009798594527,0.07088206677032266,0.9955612195572331,0.09352316346631022,-0.0043474195482015796,0.009611240931344831
1668680471.735477,17246,1668680471,735324547,,-0.09879823360277487,-0.6160097985829518,0.07088206677009447,0.995561219554644,0.09352316347805355,-0.004347420152905047,0.009611240811735198
1668680471.7438772,17247,1668680471,743714486,,-0.09879832823840849,-0.6160097985716806,0.07088206676987156,0.9955612195515804,0.09352316348993224,-0.004347420775239446,0.00961124073198821
1668680471.7518296,17248,1668680471,751661473,,-0.09879841510495434,-0.6160097985607105,0.07088206676965367,0.9955612195480464,0.09352316350194335,-0.004347421414985233,0.009611240691797316
1668680471.759984,17249,1668680471,759734211,,-0.09879849464492303,-0.6160097985500396,0.07088206676944084,0.9955612195440464,0.09352316351408445,-0.0043474220719223735,0.009611240690853902
1668680471.7678778,17250,1668680471,767721990,,-0.09879856728031276,-0.6160097985396644,0.070882066769233,0.9955612195395843,0.09352316352635279,-0.004347422745830176,0.009611240728846381
1668680471.7757835,17251,1668680471,775588934,,-0.09879863341339812,-0.6160097985295825,0.07088206676903057,0.9955612195346644,0.09352316353874632,-0.004347423436487831,0.00961124080546131
1668680471.7839,17252,1668680471,783757790,,-0.09879869342749563,-0.6160097985197904,0.07088206676883316,0.9955612195292911,0.09352316355126183,-0.004347424143674065,0.00961124092038226
1668680471.7926602,17253,1668680471,792380945,,-0.09879874768770436,-0.6160097985102839,0.07088206676864067,0.9955612195234685,0.09352316356389712,-0.0043474248671670395,0.00961124107329012
1668680471.8,17254,1668680471,799691589,,-0.09879879654162617,-0.6160097985010596,0.07088206676845334,0.9955612195172012,0.09352316357664951,-0.004347425606744889,0.009611241263864544
1668680471.8086252,17255,1668680471,808436838,,-0.09879884032006166,-0.6160097984921129,0.07088206676827091,0.9955612195104933,0.09352316358951647,-0.004347426362185167,0.009611241491781667
1668680471.815966,17256,1668680471,815783667,,-0.09879887933768615,-0.6160097984834396,0.07088206676809335,0.9955612195033492,0.09352316360249519,-0.004347427133265295,0.00961124175671601
1668680471.8235338,17257,1668680471,823384705,,-0.0987989138937022,-0.616009798475035,0.07088206676792097,0.9955612194957734,0.09352316361558344,-0.004347427919762637,0.009611242058340245
1668680471.8322558,17258,1668680471,831975918,,-0.0987989442724723,-0.6160097984668946,0.07088206676775334,0.99556121948777,0.0935231636287787,-0.0043474287214540835,0.009611242396324325
1668680471.8397753,17259,1668680471,839650789,,-0.09879897074413056,-0.6160097984590134,0.07088206676759061,0.9955612194793436,0.09352316364207822,-0.0043474295381163725,0.009611242770336504
1668680471.8477376,17260,1668680471,847619342,,-0.098798993565174,-0.6160097984513864,0.07088206676743235,0.9955612194704988,0.09352316365547944,-0.00434743036952622,0.009611243180042925
1668680471.8561423,17261,1668680471,856038683,,-0.09879901297903412,-0.6160097984440084,0.07088206676727893,0.9955612194612398,0.09352316366898024,-0.004347431215460101,0.009611243625107865
1668680471.8635044,17262,1668680471,863387760,,-0.09879902921662914,-0.6160097984368743,0.07088206676712991,0.9955612194515712,0.09352316368257758,-0.004347432075694516,0.009611244105193867
1668680471.8724885,17263,1668680471,872282082,,-0.09879904249689671,-0.6160097984299793,0.07088206676698561,0.9955612194414973,0.09352316369626928,-0.004347432950005971,0.009611244619961653
1668680471.8799415,17264,1668680471,879774619,,-0.09879905302730967,-0.6160097984233174,0.07088206676684566,0.9955612194310229,0.0935231637100527,-0.004347433838170628,0.009611245169069837
1668680471.8876333,17265,1668680471,887497796,,-0.09879906100437162,-0.6160097984168834,0.0708820667667101,0.9955612194201524,0.09352316372392547,-0.004347434739965012,0.009611245752175765
1668680471.8954756,17266,1668680471,895283431,,-0.09879906661409671,-0.6160097984106726,0.0708820667665789,0.9955612194088903,0.09352316373788502,-0.004347435655165516,0.009611246368935025
1668680471.904347,17267,1668680471,904059205,,-0.09879907003247108,-0.6160097984046792,0.07088206676645187,0.9955612193972411,0.09352316375192885,-0.004347436583548492,0.009611247019001394
1668680471.9117346,17268,1668680471,911566199,,-0.09879907142589843,-0.6160097983988972,0.0708820667663288,0.9955612193852095,0.09352316376605459,-0.004347437524890626,0.009611247702027483
1668680471.9198792,17269,1668680471,919685140,,-0.09879907095162845,-0.6160097983933226,0.07088206676620967,0.9955612193728,0.09352316378025978,-0.004347438478968469,0.009611248417664293
1668680471.9276452,17270,1668680471,927550955,,-0.09879906875817031,-0.616009798387949,0.07088206676609458,0.995561219360017,0.09352316379454198,-0.004347439445558819,0.009611249165561234
1668680471.9355974,17271,1668680471,935302444,,-0.09879906498569059,-0.6160097983827714,0.0708820667659832,0.9955612193468655,0.09352316380889847,-0.004347440424438731,0.009611249945366846
1668680471.9437501,17272,1668680471,943619652,,-0.09879905976639511,-0.6160097983777845,0.07088206676587583,0.9955612193333498,0.09352316382332698,-0.004347441415385437,0.009611250756727979
1668680471.952337,17273,1668680471,952089941,,-0.0987990532248977,-0.6160097983729832,0.07088206676577201,0.9955612193194746,0.0935231638378252,-0.004347442418176266,0.009611251599290408
1668680471.9595892,17274,1668680471,959497662,,-0.09879904547857414,-0.6160097983683619,0.07088206676567194,0.9955612193052447,0.09352316385239065,-0.004347443432588819,0.009611252472698647
1668680471.9677596,17275,1668680471,967615833,,-0.09879903663790293,-0.6160097983639159,0.07088206676557532,0.9955612192906644,0.093523163867021,-0.004347444458401165,0.00961125337659609
1668680471.975442,17276,1668680471,975303926,,-0.09879902680679163,-0.6160097983596402,0.07088206676548196,0.9955612192757386,0.09352316388171371,-0.004347445495391373,0.009611254310625046
1668680471.9835567,17277,1668680471,983449523,,-0.09879901608289161,-0.6160097983555297,0.07088206676539194,0.9955612192604719,0.09352316389646667,-0.004347446543338044,0.00961125527442677
1668680471.9934916,17278,1668680471,991670099,,-0.09879900455789928,-0.6160097983515789,0.07088206676530534,0.9955612192448688,0.09352316391127741,-0.0043474476020201715,0.009611256267641685
1668680471.9997199,17279,1668680471,999619873,,-0.09879899231784658,-0.6160097983477837,0.07088206676522166,0.9955612192289343,0.09352316392614321,-0.0043474486712169825,0.00961125728990938
1668680472.0077946,17280,1668680472,7607518,,-0.09879897944337765,-0.616009798344139,0.07088206676514111,0.9955612192126727,0.09352316394106237,-0.004347449750708095,0.009611258340868234
1668680472.0155053,17281,1668680472,15305902,,-0.09879896601001666,-0.61600979834064,0.0708820667650637,0.995561219196089,0.09352316395603198,-0.004347450840273762,0.009611259420156195
1668680472.0241094,17282,1668680472,23912164,,-0.09879895208842222,-0.6160097983372823,0.07088206676498914,0.9955612191791875,0.09352316397105032,-0.004347451939694528,0.00961126052741015
1668680472.0316765,17283,1668680472,31545314,,-0.0987989377446338,-0.6160097983340614,0.0708820667649174,0.9955612191619734,0.09352316398611457,-0.0043474530487515725,0.009611261662266623
1668680472.039784,17284,1668680472,39662985,,-0.09879892304030498,-0.6160097983309726,0.07088206676484826,0.9955612191444508,0.09352316400122236,-0.004347454167226182,0.00961126282436095
1668680472.0476012,17285,1668680472,47509422,,-0.09879890803292937,-0.6160097983280116,0.07088206676478188,0.995561219126625,0.09352316401637184,-0.004347455294900712,0.00961126401332853
1668680472.0554767,17286,1668680472,55362618,,-0.09879889277605543,-0.6160097983251744,0.0708820667647179,0.9955612191085003,0.09352316403156052,-0.004347456431557598,0.009611265228803775
1668680472.0637448,17287,1668680472,63648823,,-0.09879887731949305,-0.6160097983224564,0.07088206676465646,0.9955612190900813,0.09352316404678619,-0.004347457576980176,0.009611266470420687
1668680472.0717287,17288,1668680472,71594666,,-0.09879886170951002,-0.6160097983198539,0.0708820667645975,0.995561219071373,0.09352316406204671,-0.004347458730952366,0.009611267737813149
1668680472.0798101,17289,1668680472,79705866,,-0.0987988459890212,-0.6160097983173626,0.0708820667645409,0.9955612190523799,0.09352316407733965,-0.004347459893258508,0.009611269030614164
1668680472.0879655,17290,1668680472,87645933,,-0.09879883019776832,-0.6160097983149788,0.07088206676448645,0.9955612190331067,0.09352316409266302,-0.004347461063683665,0.009611270348456605
1668680472.0956175,17291,1668680472,95467463,,-0.09879881437249302,-0.6160097983126992,0.07088206676443436,0.9955612190135582,0.09352316410801428,-0.004347462242013626,0.00961127169097303
1668680472.1042063,17292,1668680472,103941545,,-0.09879879854710052,-0.616009798310519,0.07088206676438438,0.995561218993739,0.09352316412339154,-0.004347463428034937,0.00961127305779603
1668680472.1115856,17293,1668680472,111450536,,-0.09879878275281745,-0.6160097983084355,0.07088206676433635,0.9955612189736538,0.09352316413879251,-0.004347464621534467,0.009611274448557468
1668680472.119743,17294,1668680472,119635162,,-0.09879876701834174,-0.616009798306445,0.07088206676429039,0.9955612189533074,0.0935231641542149,-0.004347465822300349,0.00961127586288946
1668680472.1283648,17295,1668680472,128105347,,-0.0987987513699859,-0.6160097983045438,0.07088206676424642,0.9955612189327042,0.09352316416965668,-0.0043474670301211745,0.009611277300423991
1668680472.135989,17296,1668680472,135870711,,-0.09879873583181328,-0.6160097983027287,0.07088206676420408,0.9955612189118491,0.09352316418511586,-0.004347468244786291,0.009611278760792761
1668680472.1433995,17297,1668680472,143257410,,-0.09879872042576861,-0.6160097983009968,0.0708820667641639,0.9955612188907468,0.09352316420059031,-0.004347469466086005,0.00961128024362797
1668680472.152153,17298,1668680472,151968230,,-0.09879870517180248,-0.6160097982993445,0.07088206676412515,0.9955612188694017,0.09352316421607768,-0.004347470693811138,0.009611281748560956
1668680472.160616,17299,1668680472,160509718,,-0.09879869008798842,-0.616009798297769,0.07088206676408809,0.9955612188478188,0.09352316423157603,-0.0043474719277537535,0.009611283275224227
1668680472.1676614,17300,1668680472,167528102,,-0.09879867519063673,-0.6160097982962672,0.07088206676405275,0.9955612188260025,0.09352316424708328,-0.004347473167706492,0.00961128482324961
1668680472.1756027,17301,1668680472,175505081,,-0.09879866049440114,-0.6160097982948367,0.07088206676401901,0.9955612188039575,0.09352316426259726,-0.004347474413462968,0.00961128639226962
1668680472.183339,17302,1668680472,183239157,,-0.09879864601238057,-0.616009798293474,0.07088206676398646,0.9955612187816886,0.09352316427811617,-0.004347475664817592,0.009611287981916631
1668680472.1918154,17303,1668680472,191682065,,-0.09879863175621638,-0.6160097982921771,0.0708820667639556,0.9955612187592,0.09352316429363812,-0.004347476921565877,0.009611289591823705
1668680472.1996539,17304,1668680472,199559554,,-0.09879861773618512,-0.6160097982909428,0.07088206676392626,0.9955612187364968,0.09352316430916063,-0.004347478183504132,0.009611291221623871
1668680472.2077703,17305,1668680472,207604674,,-0.09879860396128463,-0.6160097982897688,0.07088206676389812,0.9955612187135833,0.093523164324682,-0.004347479450429512,0.00961129287095064
1668680472.2153587,17306,1668680472,215234910,,-0.09879859043931925,-0.6160097982886527,0.0708820667638712,0.9955612186904644,0.09352316434020017,-0.004347480722140463,0.009611294539437862
1668680472.2248254,17307,1668680472,224631968,,-0.09879857717697696,-0.6160097982875921,0.07088206676384545,0.9955612186671445,0.09352316435571308,-0.004347481998436047,0.009611296226719898
1668680472.2326682,17308,1668680472,232477221,,-0.09879856417990557,-0.6160097982865846,0.07088206676382108,0.9955612186436281,0.09352316437121906,-0.0043474832791166275,0.009611297932431885
1668680472.2401154,17309,1668680472,239845662,,-0.09879855145278309,-0.6160097982856283,0.07088206676379791,0.9955612186199199,0.09352316438671593,-0.004347484563983392,0.009611299656208968
1668680472.2481496,17310,1668680472,248059179,,-0.09879853899938568,-0.6160097982847207,0.07088206676377552,0.9955612185960244,0.09352316440220178,-0.004347485852838731,0.00961130139768707
1668680472.2560062,17311,1668680472,255859775,,-0.09879852682265093,-0.6160097982838599,0.0708820667637545,0.9955612185719461,0.0935231644176751,-0.00434748714548607,0.009611303156503085
1668680472.2637885,17312,1668680472,263604621,,-0.09879851492473883,-0.6160097982830444,0.07088206676373449,0.9955612185476895,0.09352316443313351,-0.004347488441729807,0.009611304932294305
1668680472.2716606,17313,1668680472,271511374,,-0.09879850330708825,-0.6160097982822706,0.07088206676371525,0.9955612185232595,0.09352316444857532,-0.004347489741375367,0.00961130672469832
1668680472.279593,17314,1668680472,279499834,,-0.09879849197047225,-0.6160097982815385,0.07088206676369706,0.9955612184986602,0.09352316446399875,-0.004347491044229481,0.009611308533354176
1668680472.2878473,17315,1668680472,287737824,,-0.0987984809150476,-0.6160097982808458,0.07088206676367978,0.995561218473896,0.09352316447940193,-0.00434749235009999,0.009611310357901366
1668680472.2954273,17316,1668680472,295320955,,-0.09879847014040459,-0.6160097982801901,0.07088206676366327,0.9955612184489719,0.09352316449478297,-0.0043474936587957575,0.009611312197980197
1668680472.3037622,17317,1668680472,303624699,,-0.09879845964561165,-0.6160097982795703,0.07088206676364767,0.9955612184238919,0.09352316451014035,-0.004347494970126754,0.009611314053231767
1668680472.3117063,17318,1668680472,311610778,,-0.0987984494292593,-0.616009798278985,0.07088206676363291,0.9955612183986606,0.09352316452547181,-0.004347496283904393,0.009611315923298476
1668680472.3199663,17319,1668680472,319771585,,-0.09879843948949947,-0.616009798278432,0.070882066763619,0.9955612183732825,0.09352316454077624,-0.004347497599940906,0.009611317807823254
1668680472.3279276,17320,1668680472,327735746,,-0.09879842982408495,-0.6160097982779104,0.07088206676360577,0.9955612183477617,0.09352316455605154,-0.00434749891805007,0.009611319706450105
1668680472.3356483,17321,1668680472,335543993,,-0.09879842043040489,-0.6160097982774184,0.07088206676359314,0.995561218322103,0.09352316457129597,-0.004347500238046616,0.009611321618823974
1668680472.343343,17322,1668680472,343239860,,-0.09879841130551888,-0.6160097982769546,0.07088206676358115,0.9955612182963106,0.09352316458650749,-0.004347501559746678,0.009611323544591011
1668680472.351898,17323,1668680472,351763628,,-0.09879840244618782,-0.616009798276518,0.07088206676356974,0.9955612182703889,0.09352316460168512,-0.004347502882967479,0.009611325483398533
1668680472.3598523,17324,1668680472,359663619,,-0.09879839384890575,-0.616009798276107,0.070882066763559,0.9955612182443422,0.09352316461682665,-0.004347504207527659,0.009611327434894915
1668680472.3679144,17325,1668680472,367724979,,-0.098798385509926,-0.6160097982757206,0.07088206676354908,0.9955612182181749,0.09352316463193068,-0.004347505533247102,0.009611329398729702
1668680472.3786228,17326,1668680472,378271766,,-0.09879837742528891,-0.6160097982753578,0.07088206676353975,0.9955612181918911,0.09352316464699544,-0.0043475068599468725,0.009611331374553635
1668680472.3836486,17327,1668680472,383492615,,-0.09879836959084552,-0.6160097982750169,0.07088206676353061,0.9955612181654954,0.09352316466201945,-0.0043475081874490805,0.009611333362018127
1668680472.3920953,17328,1668680472,391760274,,-0.09879836200228187,-0.6160097982746972,0.07088206676352223,0.9955612181389918,0.09352316467700093,-0.004347509515577805,0.009611335360777096
1668680472.3997965,17329,1668680472,399603580,,-0.09879835465513911,-0.6160097982743976,0.07088206676351418,0.9955612181123846,0.09352316469193842,-0.0043475108441579135,0.009611337370484729
1668680472.4083714,17330,1668680472,408195038,,-0.09879834754483469,-0.6160097982741171,0.07088206676350671,0.9955612180856783,0.09352316470683049,-0.0043475121730158816,0.009611339390796945
1668680472.4154856,17331,1668680472,415358525,,-0.09879834066668125,-0.6160097982738546,0.07088206676349966,0.9955612180588768,0.09352316472167518,-0.004347513501979294,0.009611341421371041
1668680472.423719,17332,1668680472,423565639,,-0.09879833401590322,-0.6160097982736097,0.070882066763493,0.9955612180319843,0.0935231647364716,-0.004347514830877242,0.009611343461865682
1668680472.4317071,17333,1668680472,431563754,,-0.09879832758765468,-0.6160097982733809,0.07088206676348678,0.9955612180050051,0.09352316475121761,-0.004347516159540102,0.009611345511940728
1668680472.4396946,17334,1668680472,439525413,,-0.09879832137703289,-0.6160097982731674,0.07088206676348094,0.9955612179779433,0.09352316476591205,-0.004347517487799785,0.009611347571257941
1668680472.447762,17335,1668680472,447631005,,-0.09879831537909342,-0.6160097982729688,0.07088206676347532,0.9955612179508029,0.0935231647805537,-0.004347518815489324,0.00961134963948025
1668680472.4557698,17336,1668680472,455560882,,-0.09879830958886356,-0.616009798272784,0.07088206676347024,0.9955612179235882,0.0935231647951405,-0.004347520142443496,0.009611351716272622
1668680472.46387,17337,1668680472,463649510,,-0.09879830400135296,-0.6160097982726126,0.07088206676346527,0.9955612178963031,0.09352316480967138,-0.004347521468498093,0.009611353801300772
1668680472.4719636,17338,1668680472,471824074,,-0.09879829861156594,-0.6160097982724537,0.07088206676346098,0.9955612178689517,0.09352316482414495,-0.0043475227934906885,0.009611355894232674
1668680472.47986,17339,1668680472,479757079,,-0.09879829341451181,-0.6160097982723065,0.0708820667634566,0.9955612178415381,0.09352316483855967,-0.0043475241172600205,0.009611357994737687
1668680472.4876215,17340,1668680472,487530536,,-0.09879828840521365,-0.6160097982721705,0.07088206676345264,0.9955612178140661,0.09352316485291415,-0.004347525439646298,0.00961136010248667
1668680472.4957716,17341,1668680472,495659512,,-0.0987982835787176,-0.6160097982720448,0.07088206676344906,0.99556121778654,0.09352316486720715,-0.004347526760491355,0.009611362217152654
1668680472.503668,17342,1668680472,503458176,,-0.09879827893010067,-0.6160097982719296,0.07088206676344556,0.9955612177589637,0.09352316488143704,-0.0043475280796382255,0.009611364338409823
1668680472.5121384,17343,1668680472,511989445,,-0.09879827445447768,-0.6160097982718234,0.07088206676344244,0.9955612177313408,0.093523164895603,-0.0043475293969315815,0.009611366465934534
1668680472.5198843,17344,1668680472,519706326,,-0.09879827014700862,-0.6160097982717263,0.07088206676343964,0.9955612177036754,0.09352316490970329,-0.004347530712217618,0.009611368599404573
1668680472.5279832,17345,1668680472,527730673,,-0.09879826600290387,-0.6160097982716376,0.07088206676343693,0.9955612176759716,0.0935231649237368,-0.004347532025343801,0.009611370738499773
1668680472.5353708,17346,1668680472,535197177,,-0.09879826201743029,-0.6160097982715569,0.07088206676343446,0.9955612176482329,0.09352316493770234,-0.004347533336159186,0.009611372882901653
1668680472.5438485,17347,1668680472,543722073,,-0.09879825818591548,-0.6160097982714834,0.07088206676343212,0.9955612176204633,0.09352316495159857,-0.00434753464451437,0.009611375032293555
1668680472.5520725,17348,1668680472,551885444,,-0.09879825450375271,-0.6160097982714169,0.0708820667634302,0.9955612175926666,0.09352316496542414,-0.004347535950261452,0.009611377186360882
1668680472.559771,17349,1668680472,559579045,,-0.09879825096640481,-0.6160097982713567,0.0708820667634282,0.9955612175648465,0.09352316497917795,-0.004347537253253939,0.009611379344790685
1668680472.5677705,17350,1668680472,567580349,,-0.09879824756940694,-0.6160097982713031,0.07088206676342634,0.9955612175370069,0.09352316499285887,-0.0043475385533467865,0.009611381507272027
1668680472.57585,17351,1668680472,575692585,,-0.09879824430837068,-0.6160097982712549,0.07088206676342473,0.9955612175091512,0.09352316500646579,-0.004347539850396838,0.009611383673496154
1668680472.5834427,17352,1668680472,583303215,,-0.09879824117898584,-0.6160097982712123,0.07088206676342348,0.9955612174812833,0.09352316501999731,-0.004347541144262087,0.009611385843156075
1668680472.5915964,17353,1668680472,591502498,,-0.09879823817702342,-0.616009798271175,0.07088206676342217,0.9955612174534072,0.09352316503345251,-0.0043475424348021156,0.009611388015946569
1668680472.5996687,17354,1668680472,599543648,,-0.09879823451958095,-0.6160097975371822,0.07088206676342101,0.995561217425526,0.09352316504683014,-0.00434754372187836,0.00961139019156488
1668680472.6076734,17355,1668680472,607568389,,-0.098798227150647,-0.6160097931928388,0.07088206676341972,0.9955612173976435,0.09352316506012913,-0.004347545005353297,0.009611392369709891
1668680472.6156838,17356,1668680472,615563633,,-0.09879821014799972,-0.6160097796603293,0.07088206676341863,0.9955612173697631,0.09352316507334846,-0.004347546285091421,0.009611394550083105
1668680472.6236753,17357,1668680472,623505490,,-0.0987981749613986,-0.6160097488849051,0.07088206676341628,0.9955612173418888,0.09352316508648711,-0.004347547560958309,0.009611396732387483
1668680472.6317165,17358,1668680472,631548824,,-0.09879811063716057,-0.6160096905465416,0.07088206676341047,0.9955612173140238,0.09352316509954403,-0.004347548832821392,0.009611398916328348
1668680472.6397438,17359,1668680472,639593708,,-0.0987980040297516,-0.6160095922593538,0.07088206676339535,0.9955612172861716,0.09352316511251804,-0.004347550100549863,0.009611401101613458
1668680472.6479151,17360,1668680472,647716115,,-0.09879784000100472,-0.6160094397593511,0.07088206676336029,0.9955612172583358,0.09352316512540808,-0.00434755136401408,0.009611403287952396
1668680472.655576,17361,1668680472,655401985,,-0.0987976016075466,-0.6160092170810778,0.0708820667632861,0.9955612172305197,0.09352316513821347,-0.00434755262308619,0.009611405475057153
1668680472.6647568,17362,1668680472,664397845,,-0.09879727027699844,-0.616008906723672,0.0708820667631429,0.9955612172027267,0.09352316515093302,-0.004347553877639744,0.009611407662641711
1668680472.672072,17363,1668680472,671895502,,-0.0987968259734856,-0.6160084898068489,0.07088206676288573,0.9955612171749604,0.09352316516356582,-0.004347555127550225,0.009611409850422603
1668680472.6799948,17364,1668680472,679911571,,-0.09879624735297825,-0.6160079462172979,0.07088206676245094,0.9955612171472238,0.093523165176111,-0.004347556372694543,0.009611412038118864
1668680472.687892,17365,1668680472,687710887,,-0.0987955119089587,-0.6160072547459646,0.0708820667617514,0.9955612171195203,0.0935231651885679,-0.004347557612951272,0.009611414225451417
1668680472.695954,17366,1668680472,695813787,,-0.09879459610889198,-0.6160063932166633,0.07088206676067244,0.9955612170918533,0.0935231652009352,-0.004347558848200623,0.009611416412144053
1668680472.7036324,17367,1668680472,703422544,,-0.09879347552195679,-0.6160053386064543,0.07088206675906683,0.9955612170642261,0.09352316521321202,-0.004347560078324584,0.009611418597922677
1668680472.711792,17368,1668680472,711667444,,-0.09879212493847629,-0.616004067158198,0.07088206675675134,0.9955612170366417,0.09352316522539789,-0.004347561303206877,0.009611420782516159
1668680472.7199163,17369,1668680472,719803825,,-0.0987905184814694,-0.6160025544856826,0.07088206675350087,0.9955612170091034,0.0935231652374916,-0.004347562522732617,0.009611422965655493
1668680472.7285435,17370,1668680472,728196056,,-0.0987886297107224,-0.6160007756717066,0.07088206674904571,0.9955612169816144,0.09352316524949233,-0.004347563736789195,0.00961142514707456
1668680472.7358396,17371,1668680472,735643926,,-0.09878643171976985,-0.6159987053594743,0.07088206674306742,0.9955612169541775,0.09352316526139937,-0.004347564945265275,0.009611427326510012
1668680472.743803,17372,1668680472,743699186,,-0.0987838972261508,-0.6159963178376598,0.07088206673519441,0.9955612169267961,0.09352316527321218,-0.004347566148051449,0.009611429503701013
1668680472.7520757,17373,1668680472,751895269,,-0.09878099865529628,-0.615993587119466,0.07088206672500061,0.9955612168994732,0.09352316528492964,-0.004347567345040363,0.00961143167838994
1668680472.7598562,17374,1668680472,759666734,,-0.09877770821838278,-0.6159904870159992,0.07088206671200102,0.9955612168722116,0.09352316529655132,-0.004347568536126055,0.009611433850321316
1668680472.7679257,17375,1668680472,767789166,,-0.09877399798447756,-0.615986991204268,0.07088206669565116,0.9955612168450143,0.09352316530807625,-0.004347569721204588,0.009611436019243068
1668680472.7754185,17376,1668680472,775261115,,-0.09876983994728249,-0.6159830732900887,0.0708820666753445,0.9955612168178842,0.09352316531950393,-0.004347570900173825,0.009611438184905908
1668680472.7836733,17377,1668680472,783558424,,-0.09876520608677342,-0.6159787068661842,0.07088206665041248,0.9955612167908244,0.09352316533083345,-0.004347572072933683,0.00961144034706358
1668680472.7919092,17378,1668680472,791736255,,-0.0987600684260142,-0.615973865565736,0.07088206662012321,0.9955612167638378,0.09352316534206391,-0.004347573239385783,0.00961144250547291
1668680472.799875,17379,1668680472,799705373,,-0.09875439908341635,-0.6159685231116472,0.07088206658368133,0.9955612167369268,0.09352316535319534,-0.004347574399433392,0.009611444659893428
1668680472.8077128,17380,1668680472,807576731,,-0.09874817032070259,-0.6159626533617542,0.07088206654022966,0.9955612167100943,0.0935231653642264,-0.004347575552982042,0.009611446810088208
1668680472.8158166,17381,1668680472,815664197,,-0.09874135458681425,-0.6159562303502223,0.07088206648884904,0.9955612166833433,0.09352316537515686,-0.004347576699938943,0.009611448955822962
1668680472.8244226,17382,1668680472,824092542,,-0.09873392455800149,-0.6159492283253412,0.07088206642856172,0.9955612166566762,0.09352316538598597,-0.004347577840213413,0.009611451096867191
1668680472.8321087,17383,1668680472,832007716,,-0.09872585317431587,-0.6159416217839351,0.07088206635833122,0.9955612166300958,0.09352316539671317,-0.004347578973716541,0.009611453232993112
1668680472.8399649,17384,1668680472,839817413,,-0.09871711367271864,-0.6159333855025811,0.07088206627706634,0.9955612166036044,0.09352316540733793,-0.00434758010036137,0.00961145536397596
1668680472.8478696,17385,1668680472,847728639,,-0.09870767961700627,-0.615924494565834,0.07088206618362418,0.995561216577205,0.09352316541785971,-0.004347581220062867,0.009611457489594997
1668680472.8556507,17386,1668680472,855509430,,-0.09869752492474648,-0.6159149243916304,0.07088206607681202,0.9955612165508997,0.09352316542827784,-0.004347582332737856,0.009611459609631768
1668680472.8639743,17387,1668680472,863844727,,-0.0986866238914071,-0.6159046507540529,0.07088206595539263,0.9955612165246913,0.09352316543859181,-0.004347583438305314,0.00961146172387178
1668680472.872144,17388,1668680472,871925153,,-0.09867495121185221,-0.6158936498036118,0.07088206581808763,0.9955612164985821,0.09352316544880127,-0.004347584536686018,0.009611463832103671
1668680472.8796806,17389,1668680472,879523454,,-0.09866248199937061,-0.615881898085204,0.07088206566358081,0.9955612164725746,0.09352316545890538,-0.004347585627802524,0.00961146593411899
1668680472.8880918,17390,1668680472,887925732,,-0.09864919180239577,-0.6158693725538971,0.07088206549052388,0.995561216446671,0.09352316546890409,-0.004347586711579677,0.00961146802971315
1668680472.895812,17391,1668680472,895688099,,-0.09863505661906474,-0.6158560505886781,0.0708820652975399,0.9955612164208736,0.09352316547879673,-0.0043475877879438265,0.009611470118684278
1668680472.903328,17392,1668680472,903229143,,-0.0986200529097594,-0.615841910004303,0.07088206508322899,0.9955612163951848,0.09352316548858264,-0.004347588856823501,0.009611472200834284
1668680472.9117587,17393,1668680472,911625386,,-0.09860415760776316,-0.6158269290613695,0.07088206484617232,0.9955612163696066,0.09352316549826176,-0.004347589918149154,0.009611474275968075
1668680472.9197345,17394,1668680472,919615244,,-0.09858734812816358,-0.6158110864747388,0.07088206458493782,0.9955612163441415,0.09352316550783364,-0.004347590971853116,0.009611476343894127
1668680472.9277477,17395,1668680472,927578489,,-0.09856960237511946,-0.6157943614204194,0.07088206429808414,0.9955612163187915,0.09352316551729772,-0.004347592017869306,0.009611478404423715
1668680472.9356244,17396,1668680472,935525737,,-0.09855089874760828,-0.6157767335410156,0.07088206398416662,0.9955612162935586,0.09352316552665381,-0.004347593056134083,0.00961148045737195
1668680472.943589,17397,1668680472,943459023,,-0.09853121614376327,-0.6157581829498509,0.07088206364174149,0.9955612162684451,0.09352316553590136,-0.004347594086585363,0.009611482502556778
1668680472.9517434,17398,1668680472,951563445,,-0.098510533963902,-0.6157386902338605,0.07088206326937091,0.9955612162434528,0.09352316554503994,-0.004347595109162989,0.009611484539800064
1668680472.960076,17399,1668680472,959814533,,-0.09848883211234435,-0.6157182364553394,0.07088206286562754,0.9955612162185838,0.09352316555406945,-0.004347596123808606,0.009611486568925836
1668680472.9678688,17400,1668680472,967687515,,-0.09846609099811274,-0.6156968031526422,0.07088206242909965,0.99556121619384,0.09352316556298965,-0.004347597130465929,0.009611488589762655
1668680472.9765925,17401,1668680472,976459423,,-0.09844229153459981,-0.6156743723399098,0.07088206195839494,0.9955612161692231,0.09352316557180002,-0.004347598129080094,0.00961149060214106
1668680472.9839947,17402,1668680472,983791387,,-0.09841741513828729,-0.6156509265059029,0.07088206145214579,0.9955612161447353,0.09352316558050021,-0.004347599119598437,0.00961149260589574
1668680472.9920628,17403,1668680472,991843466,,-0.0983914437265932,-0.6156264486120135,0.07088206090901226,0.9955612161203783,0.09352316558908998,-0.004347600101969935,0.009611494600864107
1668680472.999568,17404,1668680472,999435319,,-0.09836435971492016,-0.6156009220895277,0.07088206032768735,0.9955612160961538,0.09352316559756921,-0.004347601076145441,0.009611496586886684
1668680473.0078104,17405,1668680473,7668228,,-0.09833614601297373,-0.6155743308361986,0.07088205970689952,0.9955612160720635,0.09352316560593765,-0.004347602042077438,0.009611498563807327
1668680473.0157213,17406,1668680473,15588822,,-0.09830678602041716,-0.615546659212196,0.0708820590454171,0.9955612160481093,0.09352316561419495,-0.004347602999720362,0.009611500531473107
1668680473.0238411,17407,1668680473,23551606,,-0.09827626362192049,-0.6155178920354872,0.07088205834205166,0.9955612160242927,0.0935231656223412,-0.004347603949030151,0.009611502489733735
1668680473.03162,17408,1668680473,31520147,,-0.0982445631816655,-0.6154880145767045,0.07088205759566069,0.9955612160006153,0.09352316563037597,-0.004347604889964742,0.009611504438442704
1668680473.0400965,17409,1668680473,39831346,,-0.09821166953735706,-0.615457012553549,0.07088205680515003,0.9955612159770788,0.09352316563829906,-0.004347605822483632,0.009611506377455885
1668680473.0478435,17410,1668680473,47630984,,-0.09817756799379335,-0.6154248721247815,0.07088205596947815,0.9955612159536846,0.09352316564611042,-0.004347606746548012,0.009611508306632462
1668680473.0560772,17411,1668680473,55961035,,-0.09814224431604263,-0.6153915798838401,0.07088205508765656,0.9955612159304343,0.09352316565380983,-0.004347607662120853,0.009611510225834856
1668680473.063404,17412,1668680473,63272900,,-0.09810568472227017,-0.6153571228521322,0.0708820541587531,0.9955612159073295,0.09352316566139694,-0.004347608569166388,0.0096115121349278
1668680473.0717933,17413,1668680473,71638084,,-0.09806787587625737,-0.6153214884720385,0.07088205318189389,0.9955612158843714,0.09352316566887219,-0.004347609467651309,0.009611514033780029
1668680473.0797389,17414,1668680473,79559217,,-0.09802880487965383,-0.6152846645996595,0.07088205215626381,0.9955612158615615,0.09352316567623481,-0.004347610357543203,0.009611515922262106
1668680473.087936,17415,1668680473,87768222,,-0.09798845926399474,-0.6152466394973537,0.07088205108110927,0.9955612158389011,0.09352316568348551,-0.0043476112388114475,0.009611517800248123
1668680473.0956652,17416,1668680473,95574977,,-0.09794682698252374,-0.6152074018260811,0.07088204995573882,0.9955612158163917,0.0935231656906234,-0.0043476121114271685,0.009611519667614928
1668680473.103697,17417,1668680473,103584234,,-0.09790389640184623,-0.6151669406375976,0.07088204877952387,0.9955612157940342,0.09352316569764892,-0.004347612975363104,0.009611521524242167
1668680473.1118596,17418,1668680473,111700929,,-0.09785965629344849,-0.6151252453665192,0.07088204755189939,0.9955612157718303,0.09352316570456187,-0.004347613830593185,0.009611523370012403
1668680473.1202266,17419,1668680473,120013456,,-0.09781409582510726,-0.6150823058222862,0.07088204627236498,0.995561215749781,0.09352316571136225,-0.004347614677093178,0.009611525204810786
1668680473.1284242,17420,1668680473,128291904,,-0.09776720455221512,-0.6150381121810474,0.07088204494048408,0.9955612157278874,0.09352316571805,-0.004347615514840368,0.009611527028525472
1668680473.1364734,17421,1668680473,136351010,,-0.09771897240904613,-0.6149926549774934,0.07088204355588512,0.9955612157061509,0.09352316572462524,-0.004347616343813599,0.009611528841047311
1668680473.1438873,17422,1668680473,143775908,,-0.09766938969998518,-0.6149459250966509,0.07088204211826112,0.9955612156845723,0.09352316573108771,-0.004347617163993005,0.009611530642269817
1668680473.152501,17423,1668680473,152381547,,-0.0976184470907376,-0.6148979137656665,0.07088204062736825,0.995561215663153,0.09352316573743757,-0.004347617975360271,0.0096115324320892
1668680473.160485,17424,1668680473,160282867,,-0.09756613559954103,-0.6148486125455872,0.07088203908302732,0.9955612156418937,0.09352316574367515,-0.004347618777898499,0.009611534210404405
1668680473.1687267,17425,1668680473,168558021,,-0.09751244658839699,-0.6147980133231676,0.0708820374851215,0.9955612156207959,0.09352316574980006,-0.004347619571592463,0.009611535977117112
1668680473.1757438,17426,1668680473,175567841,,-0.0974573717543337,-0.6147461083027034,0.07088203583359619,0.9955612155998601,0.09352316575581264,-0.00434762035642814,0.009611537732131489
1668680473.1846852,17427,1668680473,184572411,,-0.0974009031207201,-0.6146928899979153,0.07088203412845742,0.9955612155790873,0.09352316576171311,-0.004347621132392814,0.009611539475354107
1668680473.1918955,17428,1668680473,191791728,,-0.09734303302864189,-0.6146383512238948,0.07088203236977203,0.9955612155584788,0.09352316576750118,-0.004347621899475474,0.009611541206694716
1668680473.1996534,17429,1668680473,199550707,,-0.09728375412834933,-0.6145824850891171,0.07088203055766484,0.995561215538035,0.0935231657731772,-0.004347622657666347,0.009611542926064974
1668680473.207935,17430,1668680473,207752158,,-0.09722305937079383,-0.6145252849875407,0.07088202869231866,0.9955612155177571,0.0935231657787413,-0.004347623406956907,0.009611544633379434
1668680473.2154365,17431,1668680473,215306315,,-0.09716094199925607,-0.6144667445907941,0.07088202677397192,0.9955612154976458,0.09352316578419352,-0.004347624147340015,0.009611546328554883
1668680473.2237036,17432,1668680473,223568397,,-0.0970973955410808,-0.6144068578404642,0.07088202480291786,0.9955612154777018,0.09352316578953414,-0.004347624878810063,0.009611548011511109
1668680473.2316494,17433,1668680473,231486219,,-0.09703241379952303,-0.6143456189404918,0.07088202277950217,0.9955612154579259,0.09352316579476315,-0.004347625601362598,0.00961154968217009
1668680473.2396164,17434,1668680473,239526726,,-0.09696599084571225,-0.6142830223496814,0.07088202070412129,0.995561215438319,0.09352316579988078,-0.004347626314994281,0.009611551340455922
1668680473.2480724,17435,1668680473,247882193,,-0.09689812101074506,-0.61421906277433,0.07088201857722164,0.9955612154188815,0.09352316580488729,-0.0043476270197033385,0.009611552986295565
1668680473.2564523,17436,1668680473,256267178,,-0.09682879887790688,-0.6141537351609844,0.07088201639929652,0.9955612153996145,0.09352316580978277,-0.004347627715489211,0.009611554619618393
1668680473.2637765,17437,1668680473,263482527,,-0.09675801927503169,-0.6140870346893239,0.07088201417088502,0.9955612153805182,0.09352316581456738,-0.004347628402352481,0.009611556240355543
1668680473.2726846,17438,1668680473,272455549,,-0.09668577726700078,-0.6140189567651826,0.07088201189256971,0.9955612153615935,0.09352316581924153,-0.0043476290802950904,0.00961155784844141
1668680473.27971,17439,1668680473,279534980,,-0.09661206814838766,-0.6139494970137059,0.07088200956497483,0.9955612153428407,0.09352316582380564,-0.0043476297493202235,0.00961155944381207
1668680473.2877538,17440,1668680473,287640313,,-0.0965368874362495,-0.6138786512726493,0.07088200718876445,0.9955612153242605,0.09352316582825958,-0.004347630409432142,0.009611561026406406
1668680473.2956274,17441,1668680473,295462654,,-0.09646023086306826,-0.6138064155858188,0.07088200476463978,0.9955612153058535,0.09352316583260369,-0.004347631060636487,0.009611562596165111
1668680473.304017,17442,1668680473,303886243,,-0.0963820943698442,-0.6137327861966587,0.07088200229333798,0.9955612152876201,0.09352316583683848,-0.004347631702939837,0.009611564153031507
1668680473.3118908,17443,1668680473,311719716,,-0.09630247409934355,-0.6136577595419843,0.07088199977562987,0.9955612152695608,0.093523165840964,-0.004347632336350233,0.009611565696951343
1668680473.3198166,17444,1668680473,319669528,,-0.09622136638949988,-0.6135813322458616,0.07088199721231761,0.995561215251676,0.09352316584498073,-0.004347632960876712,0.009611567227872172
1668680473.3277168,17445,1668680473,327581982,,-0.09613876776697246,-0.6135035011136382,0.07088199460423288,0.995561215233966,0.09352316584888881,-0.004347633576529451,0.009611568745744148
1668680473.335945,17446,1668680473,335676662,,-0.09605467494085894,-0.61342426312612,0.0708819919522346,0.9955612152164315,0.09352316585268872,-0.0043476341833195145,0.00961157025051896
1668680473.3438501,17447,1668680473,343610139,,-0.09596908479656635,-0.6133436154338988,0.07088198925720796,0.9955612151990726,0.09352316585638047,-0.004347634781259926,0.009611571742151893
1668680473.351744,17448,1668680473,351637503,,-0.0958819943898346,-0.6132615553518281,0.07088198652006143,0.9955612151818898,0.09352316585996476,-0.0043476353703638644,0.009611573220599119
1668680473.359638,17449,1668680473,359496313,,-0.0957934009409191,-0.6131780803536453,0.07088198374172412,0.9955612151648832,0.09352316586344175,-0.004347635950645976,0.009611574685819342
1668680473.3676395,17450,1668680473,367469832,,-0.09570330182892481,-0.6130931880667447,0.07088198092314649,0.9955612151480531,0.09352316586681184,-0.0043476365221222085,0.009611576137773647
1668680473.375475,17451,1668680473,375346318,,-0.09561169458629515,-0.613006876267094,0.0708819780652958,0.9955612151313998,0.09352316587007566,-0.0043476370848092435,0.009611577576425213
1668680473.3838027,17452,1668680473,383665794,,-0.09551857689345307,-0.6129191428742972,0.07088197516915583,0.9955612151149237,0.0935231658732333,-0.004347637638724993,0.009611579001739166
1668680473.3919654,17453,1668680473,391856639,,-0.09542394657359173,-0.6128299859468008,0.0708819722357239,0.9955612150986247,0.0935231658762853,-0.0043476381838883395,0.009611580413682682
1668680473.3998148,17454,1668680473,399685446,,-0.09532780158761592,-0.6127394036772436,0.07088196926601069,0.9955612150825032,0.09352316587923194,-0.0043476387203194,0.009611581812225744
1668680473.4085333,17455,1668680473,407909479,,-0.09523014002922864,-0.6126473943879442,0.07088196626103721,0.9955612150665591,0.09352316588207382,-0.004347639248039002,0.009611583197339095
1668680473.4161887,17456,1668680473,416024235,,-0.09513096012016545,-0.6125539565265324,0.07088196322183384,0.9955612150507928,0.09352316588481137,-0.004347639767069348,0.009611584568996953
1668680473.4238555,17457,1668680473,423622262,,-0.0950302602055692,-0.6124590886617106,0.07088196014943822,0.9955612150352041,0.0935231658874449,-0.00434764027743316,0.009611585927174524
1668680473.432531,17458,1668680473,432375008,,-0.09492803874950849,-0.6123627894791553,0.07088195704489439,0.9955612150197934,0.093523165889975,-0.00434764077915467,0.009611587271849787
1668680473.4398272,17459,1668680473,439721592,,-0.09482429433063246,-0.612265057777549,0.0708819539092505,0.9955612150045604,0.09352316589240217,-0.00434764127225858,0.009611588603002156
1668680473.4475687,17460,1668680473,447483730,,-0.09471902563796389,-0.6121658924647422,0.07088195074355816,0.9955612149895054,0.09352316589472648,-0.004347641756771243,0.009611589920613336
1668680473.455452,17461,1668680473,455264724,,-0.09461223146682379,-0.6120652925540427,0.07088194754887085,0.9955612149746282,0.09352316589694881,-0.004347642232719175,0.009611591224666911
1668680473.4637196,17462,1668680473,463618452,,-0.09450391071488966,-0.6119632571606337,0.07088194432624213,0.995561214959929,0.09352316589906969,-0.004347642700130418,0.009611592515148839
1668680473.4719567,17463,1668680473,471784492,,-0.09439406237838051,-0.611859785498109,0.07088194107672474,0.9955612149454074,0.09352316590108957,-0.0043476431590337575,0.009611593792046525
1668680473.4798863,17464,1668680473,479740380,,-0.0942826855483691,-0.6117548768751346,0.07088193780136987,0.9955612149310635,0.09352316590300871,-0.004347643609458799,0.009611595055349748
1668680473.487728,17465,1668680473,487589480,,-0.09416977940721674,-0.6116485306922247,0.0708819345012252,0.9955612149168974,0.09352316590482775,-0.004347644051436262,0.009611596305049853
1668680473.4952974,17466,1668680473,495178717,,-0.09405534322512812,-0.6115407464386345,0.07088193117733421,0.9955612149029088,0.09352316590654747,-0.004347644484997737,0.009611597541140325
1668680473.5038273,17467,1668680473,503631876,,-0.09393937635682598,-0.6114315236893644,0.07088192783073481,0.9955612148890974,0.09352316590816818,-0.004347644910175413,0.009611598763616471
1668680473.511935,17468,1668680473,511792012,,-0.09382187823833854,-0.6113208621022763,0.07088192446245949,0.9955612148754632,0.09352316590969048,-0.004347645327002639,0.009611599972475716
1668680473.5197833,17469,1668680473,519656046,,-0.0937028483839007,-0.6112087614153148,0.07088192107353253,0.9955612148620061,0.09352316591111488,-0.004347645735513663,0.009611601167716857
1668680473.527752,17470,1668680473,527643629,,-0.09358228638296365,-0.611095221443837,0.07088191766497137,0.9955612148487256,0.09352316591244204,-0.004347646135743567,0.009611602349341091
1668680473.5359268,17471,1668680473,535775899,,-0.09346019189731258,-0.6109802420780401,0.07088191423778371,0.9955612148356217,0.09352316591367255,-0.004347646527728168,0.00961160351735127
1668680473.54354,17472,1668680473,543394511,,-0.09333656465828703,-0.6108638232804935,0.07088191079296832,0.9955612148226941,0.09352316591480687,-0.004347646911504292,0.009611604671752252
1668680473.5518415,17473,1668680473,551688851,,-0.09321140446410293,-0.610745965083762,0.0708819073315134,0.9955612148099423,0.0935231659158459,-0.004347647287109279,0.009611605812550262
1668680473.5600586,17474,1668680473,559822073,,-0.09308471117727359,-0.6106266675881296,0.07088190385439658,0.9955612147973664,0.09352316591678993,-0.0043476476545816385,0.009611606939753882
1668680473.568383,17475,1668680473,568215409,,-0.09295648472212582,-0.6105059309594107,0.0708819003625838,0.9955612147849657,0.0935231659176397,-0.004347648013960373,0.009611608053373192
1668680473.575898,17476,1668680473,575801547,,-0.09282672508241006,-0.6103837554268542,0.07088189685702898,0.9955612147727401,0.09352316591839571,-0.0043476483652858154,0.009611609153420199
1668680473.5833657,17477,1668680473,583198473,,-0.09269543229899917,-0.6102601412811303,0.07088189333867377,0.995561214760689,0.09352316591905875,-0.0043476487085984785,0.009611610239908648
1668680473.5921316,17478,1668680473,591874136,,-0.09256260646767715,-0.6101350888724039,0.07088188980844673,0.9955612147488123,0.09352316591962934,-0.004347649043939946,0.009611611312853787
1668680473.5996814,17479,1668680473,599582003,,-0.09242824773701186,-0.6100085986084919,0.07088188626726372,0.9955612147371095,0.09352316592010802,-0.004347649371352623,0.009611612372273226
1668680473.6076958,17480,1668680473,607585232,,-0.09229235630631018,-0.6098806709530965,0.07088188271602593,0.9955612147255799,0.09352316592049568,-0.004347649690879531,0.009611613418185666
1668680473.6158311,17481,1668680473,615651733,,-0.09215493242365486,-0.6097513064241162,0.07088187915562125,0.9955612147142234,0.09352316592079277,-0.0043476500025644935,0.009611614450612139
1668680473.6235175,17482,1668680473,623358105,,-0.0920159763840168,-0.6096205055920323,0.07088187558692303,0.9955612147030393,0.09352316592099995,-0.0043476503064520155,0.009611615469574689
1668680473.631838,17483,1668680473,631701575,,-0.09187548852744462,-0.6094882690783696,0.07088187201079066,0.9955612146920272,0.09352316592111809,-0.004347650602587523,0.00961161647509783
1668680473.6397295,17484,1668680473,639613370,,-0.09173346923732605,-0.6093545975542217,0.07088186842806805,0.9955612146811865,0.09352316592114762,-0.004347650891016889,0.00961161746720705
1668680473.6478207,17485,1668680473,647658966,,-0.09158991893871984,-0.6092194917388515,0.07088186483958515,0.9955612146705167,0.09352316592108971,-0.0043476511717870205,0.009611618445930064
1668680473.6555266,17486,1668680473,655399740,,-0.09144483809675659,-0.6090829523983506,0.07088186124615657,0.9955612146600173,0.09352316592094448,-0.004347651444945361,0.009611619411296034
1668680473.6640368,17487,1668680473,663846391,,-0.09129822721510401,-0.608944980344366,0.07088185764858149,0.9955612146496878,0.09352316592071294,-0.004347651710539695,0.009611620363335292
1668680473.671595,17488,1668680473,671495037,,-0.09115008683449809,-0.6088055764328888,0.07088185404764485,0.9955612146395275,0.09352316592039563,-0.004347651968619142,0.009611621302080717
1668680473.6797185,17489,1668680473,679575054,,-0.0910004175313343,-0.6086647415631,0.07088185044411599,0.9955612146295357,0.09352316591999349,-0.00434765221923304,0.009611622227566181
1668680473.6877828,17490,1668680473,687648136,,-0.09084921991631859,-0.6085224766762741,0.07088184683874921,0.9955612146197119,0.09352316591950698,-0.00434765246243152,0.009611623139827365
1668680473.6954632,17491,1668680473,695281898,,-0.09069649463317597,-0.6083787827547398,0.0708818432322839,0.9955612146100554,0.09352316591893689,-0.004347652698265309,0.00961162403890133
1668680473.7041156,17492,1668680473,703858260,,-0.09054224235741527,-0.6082336608208928,0.07088183962544417,0.9955612146005658,0.09352316591828393,-0.004347652926786007,0.00961162492482712
1668680473.7152872,17493,1668680473,714893540,,-0.0903864637951451,-0.6080871119362604,0.07088183601893952,0.9955612145912419,0.09352316591754893,-0.004347653148045364,0.009611625797644699
1668680473.7213237,17494,1668680473,721067810,,-0.09022915968194481,-0.6079391372006163,0.0708818324134646,0.9955612145820835,0.09352316591673263,-0.004347653362096266,0.009611626657396356
1668680473.7294967,17495,1668680473,729278377,,-0.09007033078178188,-0.6077897377511435,0.07088182880969927,0.9955612145730895,0.09352316591583562,-0.004347653568991929,0.009611627504125392
1668680473.7358282,17496,1668680473,735721375,,-0.08990997788597886,-0.607638914761643,0.07088182520830913,0.9955612145642593,0.09352316591485896,-0.004347653768786247,0.009611628337876783
1668680473.743331,17497,1668680473,743231251,,-0.08974810181222674,-0.6074866694417883,0.07088182160994472,0.9955612145555921,0.0935231659138031,-0.004347653961533739,0.009611629158697038
1668680473.7518535,17498,1668680473,751653227,,-0.08958470340364147,-0.6073330030364208,0.07088181801524295,0.9955612145470872,0.09352316591266886,-0.004347654147289288,0.009611629966633825
1668680473.759742,17499,1668680473,759591282,,-0.089419783527864,-0.607177916824889,0.07088181442482692,0.9955612145387439,0.09352316591145712,-0.004347654326108573,0.009611630761736928
1668680473.7679033,17500,1668680473,767714426,,-0.08925334307620199,-0.6070214121204264,0.07088181083930543,0.9955612145305612,0.09352316591016845,-0.004347654498047845,0.009611631544057161
1668680473.7756076,17501,1668680473,775468587,,-0.08908538296280945,-0.6068634902695678,0.07088180725927411,0.9955612145225383,0.09352316590880377,-0.004347654663163796,0.009611632313646866
1668680473.7837064,17502,1668680473,783563653,,-0.08891590412390618,-0.6067041526516008,0.07088180368531515,0.9955612145146744,0.09352316590736398,-0.004347654821513677,0.009611633070559754
1668680473.7921658,17503,1668680473,792027219,,-0.08874490751703284,-0.6065434006780595,0.07088180011799763,0.9955612145069687,0.09352316590584955,-0.0043476549731554116,0.009611633814851184
1668680473.7999294,17504,1668680473,799781896,,-0.0885763275810805,-0.6063812373425932,0.07088654474120887,0.9955612144995477,0.09352316590427187,-0.004347655113157447,0.009611634535532923
1668680473.8078244,17505,1668680473,807635843,,-0.08841586002131478,-0.6062176674876041,0.07090291318146881,0.9955612144927087,0.09352316590265525,-0.004347655229903539,0.009611635206823363
1668680473.8156688,17506,1668680473,815551098,,-0.08826500376091204,-0.6060526927771347,0.07093278341354912,0.9955612144865167,0.09352316590100526,-0.004347655320879371,0.009611635823104378
1668680473.823589,17507,1668680473,823476946,,-0.08812093574775777,-0.6058838914476984,0.07097515101598101,0.9955612144808685,0.09352316589931448,-0.004347655390121124,0.009611636393259014
1668680473.8318963,17508,1668680473,831704742,,-0.08798083512540476,-0.6057090374245615,0.07102874913750808,0.9955612144756391,0.09352316589757355,-0.004347655442555524,0.009611636928136548
1668680473.8400066,17509,1668680473,839717862,,-0.08784308185625694,-0.6055272314222787,0.07109248172708736,0.9955612144707747,0.09352316589577878,-0.004347655480305315,0.0096116374323749
1668680473.847862,17510,1668680473,847713459,,-0.08770572989359246,-0.6053362641443523,0.07116467781423452,0.9955612144662163,0.09352316589392629,-0.004347655505698423,0.009611637911064138
1668680473.8560886,17511,1668680473,855807711,,-0.0875678595516407,-0.6051346620418949,0.07124354591618447,0.9955612144619441,0.09352316589201543,-0.00434765551953268,0.009611638365905457
1668680473.864209,17512,1668680473,864079334,,-0.08742906872351813,-0.6049224784986468,0.0713280641114541,0.9955612144579403,0.09352316589004529,-0.004347655522529461,0.009611638798430232
1668680473.8716261,17513,1668680473,871517044,,-0.0872918585918682,-0.6047032635310793,0.07141746494276033,0.9955612144542201,0.09352316588801812,-0.004347655514113731,0.009611639207301063
1668680473.8796554,17514,1668680473,879489364,,-0.08716350959155435,-0.6044817525091626,0.07151315216743424,0.9955612144508965,0.09352316588594327,-0.00434765548987691,0.009611639582695881
1668680473.8877823,17515,1668680473,887635052,,-0.08705070601506178,-0.6042603309039677,0.07161768050694343,0.9955612144480781,0.09352316588383006,-0.0043476554456011,0.00961163991521721
1668680473.8956292,17516,1668680473,895491764,,-0.08695510560922076,-0.604040143953678,0.07173680812090494,0.9955612144456982,0.09352316588167421,-0.004347655383909229,0.009611640210606407
1668680473.903782,17517,1668680473,903618857,,-0.08687556188654674,-0.6038214707758631,0.07187468769604272,0.9955612144436273,0.0935231658794664,-0.004347655309892412,0.009611640480063976
1668680473.91195,17518,1668680473,911767019,,-0.08681036245144434,-0.6036043719309366,0.07203253770285974,0.9955612144417587,0.09352316587719926,-0.00434765522775511,0.009611640732827022
1668680473.9200213,17519,1668680473,919890887,,-0.08675784345123415,-0.6033890104840861,0.0722130126920258,0.9955612144400166,0.0935231658748677,-0.004347655140486021,0.009611640975441782
1668680473.92762,17520,1668680473,927529994,,-0.08671721019927629,-0.6031753760647471,0.07241761569920047,0.9955612144383451,0.0935231658724684,-0.0043476550502867485,0.009611641212712919
1668680473.9354022,17521,1668680473,935230497,,-0.08668902232472478,-0.6029633707699159,0.07264842010398083,0.9955612144366824,0.0935231658699973,-0.004347654959605196,0.009611641449988606
1668680473.9442976,17522,1668680473,944071823,,-0.08667310678025224,-0.6027528389206057,0.07290520987118519,0.995561214434966,0.09352316586745024,-0.004347654870916856,0.009611641692678967
1668680473.9520366,17523,1668680473,951871563,,-0.08666868305970257,-0.6025436180057997,0.07318664771250989,0.9955612144331579,0.09352316586482555,-0.004347654785722073,0.00961164194404117
1668680473.959647,17524,1668680473,959517255,,-0.08667575469276402,-0.6023355609752921,0.07349340162711848,0.9955612144312055,0.09352316586211942,-0.004347654706100493,0.009611642208613413
1668680473.9677682,17525,1668680473,967657422,,-0.08669402714108068,-0.602128515165518,0.07382584592967881,0.995561214429062,0.09352316585932928,-0.004347654633902,0.009611642490429588
1668680473.9755256,17526,1668680473,975363462,,-0.08671970541863672,-0.6019200809161506,0.07418147300195399,0.995561214426767,0.09352316585645858,-0.004347654567600879,0.009611642786066741
1668680473.983675,17527,1668680473,983554488,,-0.0867488819713136,-0.601708046267207,0.0745568947980189,0.99556121442445,0.09352316585351822,-0.004347654502135335,0.009611643084290833
1668680473.992194,17528,1668680473,992057768,,-0.08677706694474081,-0.6014907872481293,0.07494637223510389,0.9955612144222294,0.09352316585051826,-0.004347654432866428,0.009611643374797921
1668680474.001613,17529,1668680473,999923390,,-0.08679820494900335,-0.6012658475548658,0.0753427732328389,0.9955612144203505,0.09352316584747884,-0.004347654350222001,0.009611643636381501
1668680474.0080411,17530,1668680474,7761858,,-0.08680641983333531,-0.6010309350040256,0.07573870028455777,0.9955612144189843,0.09352316584441442,-0.004347654247507588,0.009611643854180773
1668680474.0158098,17531,1668680474,15604186,,-0.0867961591027487,-0.6007837950068549,0.07612672309431007,0.995561214418287,0.09352316584133884,-0.004347654118616602,0.00961164401462702
1668680474.02383,17532,1668680474,23688260,,-0.08676628302982403,-0.6005242496349497,0.07650426641358693,0.9955612144182234,0.09352316583825034,-0.0043476539649618395,0.0096116441207602
1668680474.0317492,17533,1668680474,31546003,,-0.08671675863920206,-0.6002526877027928,0.07687012678374316,0.9955612144186812,0.09352316583514113,-0.004347653790976418,0.009611644182298677
1668680474.039838,17534,1668680474,39694060,,-0.0866470081814876,-0.5999692633409935,0.07722304613650113,0.9955612144195676,0.09352316583200475,-0.004347653600317585,0.009611644207253198
1668680474.0478806,17535,1668680474,47736456,,-0.086557330527533,-0.5996746192588434,0.07756308900483481,0.995561214420768,0.09352316582883309,-0.004347653397496111,0.00961164420552609
1668680474.056025,17536,1668680474,55823562,,-0.08644845758884762,-0.5993699583601495,0.07789096309947034,0.9955612144221673,0.09352316582561797,-0.004347653187040774,0.009611644187065027
1668680474.0634048,17537,1668680474,63292667,,-0.08632132073543508,-0.5990568628467984,0.07820782582733311,0.9955612144236582,0.09352316582235154,-0.004347652973179308,0.00961164416115545
1668680474.0716155,17538,1668680474,71431341,,-0.08617697426693786,-0.5987364391830842,0.07851431419645077,0.9955612144251443,0.09352316581902696,-0.004347652759706435,0.00961164413612725
1668680474.0798645,17539,1668680474,79714565,,-0.08601646093549514,-0.5984095595201805,0.07881085092911318,0.9955612144265442,0.0935231658156387,-0.004347652549839004,0.00961164411903382
1668680474.0879169,17540,1668680474,87741342,,-0.08584074588690327,-0.5980774127461883,0.07909865179489903,0.9955612144277858,0.09352316581218165,-0.004347652346412117,0.009611644116083977
1668680474.0954335,17541,1668680474,95271953,,-0.08565077793806955,-0.5977410880703923,0.07937940415663808,0.9955612144288071,0.09352316580865239,-0.004347652151874886,0.009611644132631126
1668680474.1036823,17542,1668680474,103521855,,-0.08544748050606561,-0.5974012195083869,0.07965386885550657,0.9955612144295606,0.09352316580504776,-0.004347651968116065,0.009611644172788533
1668680474.1120687,17543,1668680474,111825425,,-0.08523173371251651,-0.5970583194464277,0.07992240306079978,0.9955612144300107,0.09352316580136641,-0.004347651796540731,0.009611644239596748
1668680474.1196606,17544,1668680474,119486257,,-0.08500436617484973,-0.5967129719123141,0.08018619205661648,0.9955612144301292,0.09352316579760735,-0.00434765163827663,0.00961164433548102
1668680474.1277227,17545,1668680474,127567308,,-0.08476616601315497,-0.5963656856859105,0.0804463822804847,0.995561214429896,0.09352316579377029,-0.00434765149413657,0.009611644462167574
1668680474.1354089,17546,1668680474,135281278,,-0.08451766708881313,-0.5960170728538373,0.08070409407766946,0.9955612144292885,0.09352316578985473,-0.004347651365032722,0.009611644621599521
1668680474.1443813,17547,1668680474,144226638,,-0.08425938066199648,-0.5956676405790029,0.08095991766357037,0.995561214428279,0.09352316578586002,-0.004347651252057514,0.009611644816117235
