Time,header.seq,header.stamp.secs,header.stamp.nsecs,header.frame_id,wrench.force.x,wrench.force.y,wrench.force.z,wrench.torque.x,wrench.torque.y,wrench.torque.z
1668680471.7355897,17246,1668680471,735324547,,-6.899721867568663e-206,-5e-324,5e-324,5e-324,-5e-324,0.0
1668680471.7439327,17247,1668680471,743714486,,-3.6504897233501934e-206,-5e-324,5e-324,5e-324,-5e-324,0.0
1668680471.751914,17248,1668680471,751661473,,-1.9313931019340118e-206,-5e-324,5e-324,5e-324,-5e-324,0.0
1668680471.760051,17249,1668680471,759734211,,-1.0218572292746697e-206,-5e-324,5e-324,5e-324,-5e-324,0.0
1668680471.768027,17250,1668680471,767721990,,-5.406419832271829e-207,-5e-324,5e-324,5e-324,-5e-324,0.0
1668680471.7758508,17251,1668680471,775588934,,-5.406419832271829e-207,-5e-324,5e-324,5e-324,-5e-324,0.0
1668680471.7839713,17252,1668680471,783757790,,-2.8604167554335967e-207,-5e-324,5e-324,5e-324,-5e-324,0.0
1668680471.7927802,17253,1668680471,792380945,,-1.513383027697114e-207,-5e-324,5e-324,5e-324,-5e-324,0.0
1668680471.8000565,17254,1668680471,799691589,,-8.006973753635785e-208,-5e-324,5e-324,5e-324,-5e-324,0.0
1668680471.808713,17255,1668680471,808436838,,-4.2363121244309025e-208,-5e-324,5e-324,5e-324,-5e-324,0.0
1668680471.8160243,17256,1668680471,815783667,,-2.2413387339319357e-208,-5e-324,5e-324,5e-324,-5e-324,0.0
1668680471.823628,17257,1668680471,823384705,,-2.2413387339319357e-208,-5e-324,5e-324,5e-324,-5e-324,0.0
1668680471.8323274,17258,1668680471,831975918,,-1.1858425849342892e-208,-5e-324,5e-324,5e-324,-5e-324,0.0
1668680471.8398898,17259,1668680471,839650789,,-6.274029957875795e-209,-5e-324,5e-324,5e-324,-5e-324,0.0
1668680471.847836,17260,1668680471,847619342,,-3.319450019119037e-209,-5e-324,5e-324,5e-324,-5e-324,0.0
1668680471.8562572,17261,1668680471,856038683,,-1.7562473407697922e-209,-5e-324,5e-324,5e-324,-5e-324,0.0
1668680471.8635921,17262,1668680471,863387760,,-1.7562473407697922e-209,-5e-324,5e-324,5e-324,-5e-324,0.0
1668680471.8725498,17263,1668680471,872282082,,-9.291914938305201e-210,-5e-324,5e-324,5e-324,-5e-324,0.0
1668680471.8800461,17264,1668680471,879774619,,-4.9161459901687446e-210,-5e-324,5e-324,5e-324,-5e-324,0.0
1668680471.887693,17265,1668680471,887497796,,-2.601023745602695e-210,-5e-324,5e-324,5e-324,-5e-324,0.0
1668680471.8955362,17266,1668680471,895283431,,-2.601023745602695e-210,-5e-324,5e-324,5e-324,-5e-324,0.0
1668680471.904435,17267,1668680471,904059205,,-1.3761439425758094e-210,-5e-324,5e-324,5e-324,-5e-324,0.0
1668680471.9117796,17268,1668680471,911566199,,-7.280872209989295e-211,-5e-324,5e-324,5e-324,-5e-324,0.0
1668680471.919954,17269,1668680471,919685140,,-3.852147911138598e-211,-5e-324,5e-324,5e-324,-5e-324,0.0
1668680471.9277554,17270,1668680471,927550955,,-2.0380859739483443e-211,-5e-324,5e-324,5e-324,-5e-324,0.0
1668680471.9356823,17271,1668680471,935302444,,-2.0380859739483443e-211,-5e-324,5e-324,5e-324,-5e-324,0.0
1668680471.9438667,17272,1668680471,943619652,,-1.0783060601578027e-211,-5e-324,5e-324,5e-324,-5e-324,0.0
1668680471.952393,17273,1668680471,952089941,,-5.705078069501071e-212,-5e-324,5e-324,5e-324,-5e-324,0.0
1668680471.9597018,17274,1668680471,959497662,,-3.018430201007949e-212,-5e-324,5e-324,5e-324,-5e-324,0.0
1668680471.9678688,17275,1668680471,967615833,,-1.5969844351584253e-212,-5e-324,5e-324,5e-324,-5e-324,0.0
1668680471.9755073,17276,1668680471,975303926,,-1.5969844351584253e-212,-5e-324,5e-324,5e-324,-5e-324,0.0
1668680471.9836025,17277,1668680471,983449523,,-8.449290247913069e-213,-5e-324,5e-324,5e-324,-5e-324,0.0
1668680471.9936323,17278,1668680471,991670099,,-4.470331965783796e-213,-5e-324,5e-324,5e-324,-5e-324,0.0
1668680471.999823,17279,1668680471,999619873,,-2.3651534386860875e-213,-5e-324,5e-324,5e-324,-5e-324,0.0
1668680472.0078669,17280,1668680472,7607518,,-1.2513501975569327e-213,-5e-324,5e-324,5e-324,-5e-324,0.0
1668680472.0156016,17281,1668680472,15305902,,-1.2513501975569327e-213,-5e-324,5e-324,5e-324,-5e-324,0.0
1668680472.0241594,17282,1668680472,23912164,,-6.620616198988195e-214,-5e-324,5e-324,5e-324,-5e-324,0.0
1668680472.031796,17283,1668680472,31545314,,-3.502821107942539e-214,-5e-324,5e-324,5e-324,-5e-324,0.0
1668680472.0398903,17284,1668680472,39662985,,-1.853264914544199e-214,-5e-324,5e-324,5e-324,-5e-324,0.0
1668680472.047713,17285,1668680472,47509422,,-9.805213391265367e-215,-5e-324,5e-324,5e-324,-5e-324,0.0
1668680472.0555704,17286,1668680472,55362618,,-9.805213391265367e-215,-5e-324,5e-324,5e-324,-5e-324,0.0
1668680472.0638468,17287,1668680472,63648823,,-5.187720810648129e-215,-5e-324,5e-324,5e-324,-5e-324,0.0
1668680472.071833,17288,1668680472,71594666,,-2.744707956402631e-215,-5e-324,5e-324,5e-324,-5e-324,0.0
1668680472.0799313,17289,1668680472,79705866,,-1.452164069908519e-215,-5e-324,5e-324,5e-324,-5e-324,0.0
1668680472.0880618,17290,1668680472,87645933,,-7.683077833523536e-216,-5e-324,5e-324,5e-324,-5e-324,0.0
1668680472.0957384,17291,1668680472,95467463,,-7.683077833523536e-216,-5e-324,5e-324,5e-324,-5e-324,0.0
1668680472.1042743,17292,1668680472,103941545,,-4.0649459809110524e-216,-5e-324,5e-324,5e-324,-5e-324,0.0
1668680472.1116865,17293,1668680472,111450536,,-2.1506727103071592e-216,-5e-324,5e-324,5e-324,-5e-324,0.0
1668680472.1206336,17294,1668680472,119635162,,-1.1378732038705418e-216,-5e-324,5e-324,5e-324,-5e-324,0.0
1668680472.1284342,17295,1668680472,128105347,,-6.020234607904122e-217,-5e-324,5e-324,5e-324,-5e-324,0.0
1668680472.136088,17296,1668680472,135870711,,-3.1851725316074816e-217,-5e-324,5e-324,5e-324,-5e-324,0.0
1668680472.1435063,17297,1668680472,143257410,,-3.1851725316074816e-217,-5e-324,5e-324,5e-324,-5e-324,0.0
1668680472.1523004,17298,1668680472,151968230,,-1.6852041019774802e-217,-5e-324,5e-324,5e-324,-5e-324,0.0
1668680472.160744,17299,1668680472,160509718,,-8.916040927580423e-218,-5e-324,5e-324,5e-324,-5e-324,0.0
1668680472.1677508,17300,1668680472,167528102,,-4.717279392389676e-218,-5e-324,5e-324,5e-324,-5e-324,0.0
1668680472.1757278,17301,1668680472,175505081,,-2.495807841912084e-218,-5e-324,5e-324,5e-324,-5e-324,0.0
1668680472.1835055,17302,1668680472,183239157,,-2.495807841912084e-218,-5e-324,5e-324,5e-324,-5e-324,0.0
1668680472.1919231,17303,1668680472,191682065,,-1.3204765428562717e-218,-5e-324,5e-324,5e-324,-5e-324,0.0
1668680472.199768,17304,1668680472,199559554,,-6.986348351633525e-219,-5e-324,5e-324,5e-324,-5e-324,0.0
1668680472.2078388,17305,1668680472,207604674,,-3.696321873677171e-219,-5e-324,5e-324,5e-324,-5e-324,0.0
1668680472.2154942,17306,1668680472,215234910,,-3.696321873677171e-219,-5e-324,5e-324,5e-324,-5e-324,0.0
1668680472.224911,17307,1668680472,224631968,,-1.9556418755772064e-219,-5e-324,5e-324,5e-324,-5e-324,0.0
1668680472.2327805,17308,1668680472,232477221,,-1.0346867172869915e-219,-5e-324,5e-324,5e-324,-5e-324,0.0
1668680472.2401693,17309,1668680472,239845662,,-5.474297806259393e-220,-5e-324,5e-324,5e-324,-5e-324,0.0
1668680472.2482643,17310,1668680472,248059179,,-2.896329485140591e-220,-5e-324,5e-324,5e-324,-5e-324,0.0
1668680472.2560954,17311,1668680472,255859775,,-2.896329485140591e-220,-5e-324,5e-324,5e-324,-5e-324,0.0
1668680472.2638443,17312,1668680472,263604621,,-1.5323836560194022e-220,-5e-324,5e-324,5e-324,-5e-324,0.0
1668680472.2717211,17313,1668680472,271511374,,-8.107501861520446e-221,-5e-324,5e-324,5e-324,-5e-324,0.0
1668680472.2797,17314,1668680472,279499834,,-4.289499315419822e-221,-5e-324,5e-324,5e-324,-5e-324,0.0
1668680472.2879446,17315,1668680472,287737824,,-2.2694788963682706e-221,-5e-324,5e-324,5e-324,-5e-324,0.0
1668680472.2955317,17316,1668680472,295320955,,-2.2694788963682706e-221,-5e-324,5e-324,5e-324,-5e-324,0.0
1668680472.303897,17317,1668680472,303624699,,-1.2007309204004034e-221,-5e-324,5e-324,5e-324,-5e-324,0.0
1668680472.3118184,17318,1668680472,311610778,,-6.35280083684746e-222,-5e-324,5e-324,5e-324,-5e-324,0.0
1668680472.3200314,17319,1668680472,319771585,,-3.3611259431206887e-222,-5e-324,5e-324,5e-324,-5e-324,0.0
1668680472.3280153,17320,1668680472,327735746,,-1.7782971472981187e-222,-5e-324,5e-324,5e-324,-5e-324,0.0
1668680472.3357496,17321,1668680472,335543993,,-9.408575571412547e-223,-5e-324,5e-324,5e-324,-5e-324,0.0
1668680472.3434606,17322,1668680472,343239860,,-9.408575571412547e-223,-5e-324,5e-324,5e-324,-5e-324,0.0
1668680472.3519917,17323,1668680472,351763628,,-4.977868542244305e-223,-5e-324,5e-324,5e-324,-5e-324,0.0
1668680472.359942,17324,1668680472,359663619,,-2.6336797781755236e-223,-5e-324,5e-324,5e-324,-5e-324,0.0
1668680472.36802,17325,1668680472,367724979,,-1.3934215247161614e-223,-5e-324,5e-324,5e-324,-5e-324,0.0
1668680472.378766,17326,1668680472,378271766,,-7.372284062899126e-224,-5e-324,5e-324,5e-324,-5e-324,0.0
1668680472.3837037,17327,1668680472,383492615,,-7.372284062899126e-224,-5e-324,5e-324,5e-324,-5e-324,0.0
1668680472.3921926,17328,1668680472,391760274,,-3.9005118939258247e-224,-5e-324,5e-324,5e-324,-5e-324,0.0
1668680472.3998685,17329,1668680472,399603580,,-2.0636742839605086e-224,-5e-324,5e-324,5e-324,-5e-324,0.0
1668680472.4084406,17330,1668680472,408195038,,-1.091844267136314e-224,-5e-324,5e-324,5e-324,-5e-324,0.0
1668680472.415586,17331,1668680472,415358525,,-1.091844267136314e-224,-5e-324,5e-324,5e-324,-5e-324,0.0
1668680472.4238238,17332,1668680472,423565639,,-5.776705718261727e-225,-5e-324,5e-324,5e-324,-5e-324,0.0
1668680472.4317856,17333,1668680472,431563754,,-3.0563268004256086e-225,-5e-324,5e-324,5e-324,-5e-324,0.0
1668680472.4397666,17334,1668680472,439525413,,-1.6170346849191212e-225,-5e-324,5e-324,5e-324,-5e-324,0.0
1668680472.4478688,17335,1668680472,447631005,,-8.555371669899166e-226,-5e-324,5e-324,5e-324,-5e-324,0.0
1668680472.4558506,17336,1668680472,455560882,,-8.555371669899166e-226,-5e-324,5e-324,5e-324,-5e-324,0.0
1668680472.4639113,17337,1668680472,463649510,,-4.526457292026125e-226,-5e-324,5e-324,5e-324,-5e-324,0.0
1668680472.472015,17338,1668680472,471824074,,-2.3948481032826906e-226,-5e-324,5e-324,5e-324,-5e-324,0.0
1668680472.4799752,17339,1668680472,479757079,,-1.267060985618949e-226,-5e-324,5e-324,5e-324,-5e-324,0.0
1668680472.4877157,17340,1668680472,487530536,,-6.7037384921283e-227,-5e-324,5e-324,5e-324,-5e-324,0.0
1668680472.49586,17341,1668680472,495659512,,-3.546799268615294e-227,-5e-324,5e-324,5e-324,-5e-324,0.0
1668680472.5037353,17342,1668680472,503458176,,-3.546799268615294e-227,-5e-324,5e-324,5e-324,-5e-324,0.0
1668680472.5122542,17343,1668680472,511989445,,-1.8765327834045864e-227,-5e-324,5e-324,5e-324,-5e-324,0.0
1668680472.5202649,17344,1668680472,519706326,,-9.928318521862514e-228,-5e-324,5e-324,5e-324,-5e-324,0.0
1668680472.5280755,17345,1668680472,527730673,,-5.25285300333098e-228,-5e-324,5e-324,5e-324,-5e-324,0.0
1668680472.5354588,17346,1668680472,535197177,,-5.25285300333098e-228,-5e-324,5e-324,5e-324,-5e-324,0.0
1668680472.5439281,17347,1668680472,543722073,,-2.779167954154946e-228,-5e-324,5e-324,5e-324,-5e-324,0.0
1668680472.5521462,17348,1668680472,551885444,,-1.4703960899922245e-228,-5e-324,5e-324,5e-324,-5e-324,0.0
1668680472.5598347,17349,1668680472,559579045,,-7.779539405785338e-229,-5e-324,5e-324,5e-324,-5e-324,0.0
1668680472.56783,17350,1668680472,567580349,,-4.1159816581453866e-229,-5e-324,5e-324,5e-324,-5e-324,0.0
1668680472.575888,17351,1668680472,575692585,,-2.1776745545617602e-229,-5e-324,5e-324,5e-324,-5e-324,0.0
1668680472.583542,17352,1668680472,583303215,,-2.1776745545617602e-229,-5e-324,5e-324,5e-324,-5e-324,0.0
1668680472.591701,17353,1668680472,591502498,,-1.152159280447953e-229,-5e-324,5e-324,5e-324,-5e-324,0.0
1668680472.599738,17354,1668680472,599543648,,-6.09581906874734e-230,-5e-324,5e-324,5e-324,-5e-324,0.0
1668680472.6077929,17355,1668680472,607568389,,-3.22516259248951e-230,-5e-324,5e-324,5e-324,-5e-324,0.0
1668680472.615823,17356,1668680472,615563633,,-1.7063619557414371e-230,-5e-324,5e-324,5e-324,-5e-324,0.0
1668680472.623726,17357,1668680472,623505490,,-1.7063619557414371e-230,-5e-324,5e-324,5e-324,-5e-324,0.0
1668680472.631777,17358,1668680472,631548824,,-9.02798243655126e-231,-5e-324,5e-324,5e-324,-5e-324,0.0
1668680472.6398387,17359,1668680472,639593708,,-4.776505160610149e-231,-5e-324,5e-324,5e-324,-5e-324,0.0
1668680472.647979,17360,1668680472,647716115,,-2.5271428815551446e-231,-5e-324,5e-324,5e-324,-5e-324,0.0
1668680472.6556385,17361,1668680472,655401985,,-2.5271428815551446e-231,-5e-324,5e-324,5e-324,-5e-324,0.0
1668680472.664839,17362,1668680472,664397845,,-1.337055216952605e-231,-5e-324,5e-324,5e-324,-5e-324,0.0
1668680472.6721623,17363,1668680472,671895502,,-7.074062437182256e-232,-5e-324,5e-324,5e-324,-5e-324,0.0
1668680472.6801062,17364,1668680472,679911571,,-3.742729449813502e-232,-5e-324,5e-324,5e-324,-5e-324,0.0
1668680472.6879654,17365,1668680472,687710887,,-1.9801950942464346e-232,-5e-324,5e-324,5e-324,-5e-324,0.0
1668680472.6960573,17366,1668680472,695813787,,-1.0476772804064252e-232,-5e-324,5e-324,5e-324,-5e-324,0.0
1668680472.7037253,17367,1668680472,703422544,,-1.0476772804064252e-232,-5e-324,5e-324,5e-324,-5e-324,0.0
1668680472.7119048,17368,1668680472,711667444,,-5.54302799289333e-233,-5e-324,5e-324,5e-324,-5e-324,0.0
1668680472.7200167,17369,1668680472,719803825,,-2.9326931016467067e-233,-5e-324,5e-324,5e-324,-5e-324,0.0
1668680472.7286334,17370,1668680472,728196056,,-1.5516228385411463e-233,-5e-324,5e-324,5e-324,-5e-324,0.0
1668680472.7360063,17371,1668680472,735643926,,-1.5516228385411463e-233,-5e-324,5e-324,5e-324,-5e-324,0.0
1668680472.7439256,17372,1668680472,743699186,,-8.209292106735118e-234,-5e-324,5e-324,5e-324,-5e-324,0.0
1668680472.7522087,17373,1668680472,751895269,,-4.343354275261036e-234,-5e-324,5e-324,5e-324,-5e-324,0.0
1668680472.7599113,17374,1668680472,759666734,,-2.2979723604854068e-234,-5e-324,5e-324,5e-324,-5e-324,0.0
1668680472.7679975,17375,1668680472,767789166,,-1.2158061799454531e-234,-5e-324,5e-324,5e-324,-5e-324,0.0
1668680472.7755036,17376,1668680472,775261115,,-1.2158061799454531e-234,-5e-324,5e-324,5e-324,-5e-324,0.0
1668680472.7837796,17377,1668680472,783558424,,-6.432560689639081e-235,-5e-324,5e-324,5e-324,-5e-324,0.0
1668680472.7919824,17378,1668680472,791736255,,-3.403325111223437e-235,-5e-324,5e-324,5e-324,-5e-324,0.0
1668680472.79999,17379,1668680472,799705373,,-1.8006237906686424e-235,-5e-324,5e-324,5e-324,-5e-324,0.0
1668680472.8078825,17380,1668680472,807576731,,-9.526700886817067e-236,-5e-324,5e-324,5e-324,-5e-324,0.0
1668680472.8159606,17381,1668680472,815664197,,-9.526700886817067e-236,-5e-324,5e-324,5e-324,-5e-324,0.0
1668680472.824608,17382,1668680472,824092542,,-5.040366025219464e-236,-5e-324,5e-324,5e-324,-5e-324,0.0
1668680472.8322325,17383,1668680472,832007716,,-2.666745809490271e-236,-5e-324,5e-324,5e-324,-5e-324,0.0
1668680472.8400679,17384,1668680472,839817413,,-1.4109160280922802e-236,-5e-324,5e-324,5e-324,-5e-324,0.0
1668680472.8479645,17385,1668680472,847728639,,-7.464843597928821e-237,-5e-324,5e-324,5e-324,-5e-324,0.0
1668680472.8557549,17386,1668680472,855509430,,-7.464843597928821e-237,-5e-324,5e-324,5e-324,-5e-324,0.0
1668680472.864046,17387,1668680472,863844727,,-3.949483089853616e-237,-5e-324,5e-324,5e-324,-5e-324,0.0
1668680472.8722258,17388,1668680472,871925153,,-2.0895838569702343e-237,-5e-324,5e-324,5e-324,-5e-324,0.0
1668680472.8797367,17389,1668680472,879523454,,-1.1055524472374525e-237,-5e-324,5e-324,5e-324,-5e-324,0.0
1668680472.888146,17390,1668680472,887925732,,-5.849232657094225e-238,-5e-324,5e-324,5e-324,-5e-324,0.0
1668680472.895916,17391,1668680472,895688099,,-3.094699194263474e-238,-5e-324,5e-324,5e-324,-5e-324,0.0
1668680472.9034102,17392,1668680472,903229143,,-3.094699194263474e-238,-5e-324,5e-324,5e-324,-5e-324,0.0
1668680472.9118574,17393,1668680472,911625386,,-1.6373366669488455e-238,-5e-324,5e-324,5e-324,-5e-324,0.0
1668680472.9197822,17394,1668680472,919615244,,-8.66278495145694e-239,-5e-324,5e-324,5e-324,-5e-324,0.0
1668680472.9278183,17395,1668680472,927578489,,-4.583287275611558e-239,-5e-324,5e-324,5e-324,-5e-324,0.0
1668680472.9357233,17396,1668680472,935525737,,-2.424915586441963e-239,-5e-324,5e-324,5e-324,-5e-324,0.0
1668680472.9438255,17397,1668680472,943459023,,-2.424915586441963e-239,-5e-324,5e-324,5e-324,-5e-324,0.0
1668680472.951796,17398,1668680472,951563445,,-1.2829690237089839e-239,-5e-324,5e-324,5e-324,-5e-324,0.0
1668680472.960129,17399,1668680472,959814533,,-6.787904391393454e-240,-5e-324,5e-324,5e-324,-5e-324,0.0
1668680472.967925,17400,1668680472,967687515,,-3.591329578129384e-240,-5e-324,5e-324,5e-324,-5e-324,0.0
1668680472.9766831,17401,1668680472,976459423,,-1.900092781963785e-240,-5e-324,5e-324,5e-324,-5e-324,0.0
1668680472.9840527,17402,1668680472,983791387,,-1.900092781963785e-240,-5e-324,5e-324,5e-324,-5e-324,0.0
1668680472.9921534,17403,1668680472,991843466,,-1.0052969245867433e-240,-5e-324,5e-324,5e-324,-5e-324,0.0
1668680472.999636,17404,1668680472,999435319,,-5.3188029351864895e-241,-5e-324,5e-324,5e-324,-5e-324,0.0
1668680473.007873,17405,1668680473,7668228,,-2.8140605995564653e-241,-5e-324,5e-324,5e-324,-5e-324,0.0
1668680473.0158074,17406,1668680473,15588822,,-1.4888570143459238e-241,-5e-324,5e-324,5e-324,-5e-324,0.0
1668680473.023985,17407,1668680473,23551606,,-1.4888570143459238e-241,-5e-324,5e-324,5e-324,-5e-324,0.0
1668680473.031717,17408,1668680473,31520147,,-7.877212059741855e-242,-5e-324,5e-324,5e-324,-5e-324,0.0
1668680473.0401754,17409,1668680473,39831346,,-4.167658091828394e-242,-5e-324,5e-324,5e-324,-5e-324,0.0
1668680473.0479162,17410,1668680473,47630984,,-2.2050154088338585e-242,-5e-324,5e-324,5e-324,-5e-324,0.0
1668680473.056183,17411,1668680473,55961035,,-1.166624719702402e-242,-5e-324,5e-324,5e-324,-5e-324,0.0
1668680473.063499,17412,1668680473,63272900,,-1.166624719702402e-242,-5e-324,5e-324,5e-324,-5e-324,0.0
1668680473.0718722,17413,1668680473,71638084,,-6.17235249771108e-243,-5e-324,5e-324,5e-324,-5e-324,0.0
1668680473.0799105,17414,1668680473,79559217,,-3.2656547313448597e-243,-5e-324,5e-324,5e-324,-5e-324,0.0
1668680473.088009,17415,1668680473,87768222,,-1.7277854478190983e-243,-5e-324,5e-324,5e-324,-5e-324,0.0
1668680473.0957553,17416,1668680473,95574977,,-9.141329378890162e-244,-5e-324,5e-324,5e-324,-5e-324,0.0
1668680473.1037564,17417,1668680473,103584234,,-9.141329378890162e-244,-5e-324,5e-324,5e-324,-5e-324,0.0
1668680473.1120198,17418,1668680473,111700929,,-4.836474512436665e-244,-5e-324,5e-324,5e-324,-5e-324,0.0
1668680473.1203334,17419,1668680473,120013456,,-2.5588713347827545e-244,-5e-324,5e-324,5e-324,-5e-324,0.0
1668680473.128534,17420,1668680473,128291904,,-1.3538420374459941e-244,-5e-324,5e-324,5e-324,-5e-324,0.0
1668680473.1366537,17421,1668680473,136351010,,-7.1628777791265185e-245,-5e-324,5e-324,5e-324,-5e-324,0.0
1668680473.1439948,17422,1668680473,143775908,,-7.1628777791265185e-245,-5e-324,5e-324,5e-324,-5e-324,0.0
1668680473.1526132,17423,1668680473,152381547,,-3.7897196762699215e-245,-5e-324,5e-324,5e-324,-5e-324,0.0
1668680473.160542,17424,1668680473,160282867,,-2.0050565802700015e-245,-5e-324,5e-324,5e-324,-5e-324,0.0
1668680473.1687996,17425,1668680473,168558021,,-1.060830940942053e-245,-5e-324,5e-324,5e-324,-5e-324,0.0
1668680473.1758177,17426,1668680473,175567841,,-1.060830940942053e-245,-5e-324,5e-324,5e-324,-5e-324,0.0
1668680473.1847634,17427,1668680473,184572411,,-5.612621091762207e-246,-5e-324,5e-324,5e-324,-5e-324,0.0
1668680473.1919975,17428,1668680473,191791728,,-2.969513265866812e-246,-5e-324,5e-324,5e-324,-5e-324,0.0
1668680473.1997402,17429,1668680473,199550707,,-1.5711035703267776e-246,-5e-324,5e-324,5e-324,-5e-324,0.0
1668680473.2079942,17430,1668680473,207752158,,-8.312360335501053e-247,-5e-324,5e-324,5e-324,-5e-324,0.0
1668680473.2155502,17431,1668680473,215306315,,-8.312360335501053e-247,-5e-324,5e-324,5e-324,-5e-324,0.0
1668680473.2237697,17432,1668680473,223568397,,-4.397885387838554e-247,-5e-324,5e-324,5e-324,-5e-324,0.0
1668680473.231724,17433,1668680473,231486219,,-2.326823562010321e-247,-5e-324,5e-324,5e-324,-5e-324,0.0
1668680473.2397346,17434,1668680473,239526726,,-1.2310707104141456e-247,-5e-324,5e-324,5e-324,-5e-324,0.0
1668680473.2481427,17435,1668680473,247882193,,-6.5133219328852e-248,-5e-324,5e-324,5e-324,-5e-324,0.0
1668680473.2565286,17436,1668680473,256267178,,-3.446054092793071e-248,-5e-324,5e-324,5e-324,-5e-324,0.0
1668680473.2638924,17437,1668680473,263482527,,-3.446054092793071e-248,-5e-324,5e-324,5e-324,-5e-324,0.0
1668680473.2727768,17438,1668680473,272455549,,-1.823230746587017e-248,-5e-324,5e-324,5e-324,-5e-324,0.0
1668680473.2797635,17439,1668680473,279534980,,-9.646309273706056e-249,-5e-324,5e-324,5e-324,-5e-324,0.0
1668680473.2878654,17440,1668680473,287640313,,-5.10364816840513e-249,-5e-324,5e-324,5e-324,-5e-324,0.0
1668680473.2957313,17441,1668680473,295462654,,-5.10364816840513e-249,-5e-324,5e-324,5e-324,-5e-324,0.0
1668680473.3041375,17442,1668680473,303886243,,-2.7002269871094277e-249,-5e-324,5e-324,5e-324,-5e-324,0.0
1668680473.3119462,17443,1668680473,311719716,,-1.4286301761652463e-249,-5e-324,5e-324,5e-324,-5e-324,0.0
1668680473.3199148,17444,1668680473,319669528,,-7.55856522430657e-250,-5e-324,5e-324,5e-324,-5e-324,0.0
1668680473.327812,17445,1668680473,327581982,,-3.999069122524844e-250,-5e-324,5e-324,5e-324,-5e-324,0.0
1668680473.336032,17446,1668680473,335676662,,-2.11581872645662e-250,-5e-324,5e-324,5e-324,-5e-324,0.0
1668680473.3439412,17447,1668680473,343610139,,-2.11581872645662e-250,-5e-324,5e-324,5e-324,-5e-324,0.0
1668680473.3518574,17448,1668680473,351637503,,-1.1194327344854995e-250,-5e-324,5e-324,5e-324,-5e-324,0.0
1668680473.359726,17449,1668680473,359496313,,-5.9226701766474576e-251,-5e-324,5e-324,5e-324,-5e-324,0.0
1668680473.3677082,17450,1668680473,367469832,,-3.1335533561533177e-251,-5e-324,5e-324,5e-324,-5e-324,0.0
1668680473.3755863,17451,1668680473,375346318,,-3.1335533561533177e-251,-5e-324,5e-324,5e-324,-5e-324,0.0
1668680473.3838727,17452,1668680473,383665794,,-1.6578935417636035e-251,-5e-324,5e-324,5e-324,-5e-324,0.0
1668680473.3920777,17453,1668680473,391856639,,-8.771546814175205e-252,-5e-324,5e-324,5e-324,-5e-324,0.0
1668680473.3999257,17454,1668680473,399685446,,-4.640830763561654e-252,-5e-324,5e-324,5e-324,-5e-324,0.0
1668680473.4086003,17455,1668680473,407909479,,-2.4553605689266805e-252,-5e-324,5e-324,5e-324,-5e-324,0.0
1668680473.4162688,17456,1668680473,416024235,,-1.2990767883147478e-252,-5e-324,5e-324,5e-324,-5e-324,0.0
1668680473.4239535,17457,1668680473,423622262,,-1.2990767883147478e-252,-5e-324,5e-324,5e-324,-5e-324,0.0
1668680473.4326043,17458,1668680473,432375008,,-6.873126999330555e-253,-5e-324,5e-324,5e-324,-5e-324,0.0
1668680473.439928,17459,1668680473,439721592,,-3.636418968751606e-253,-5e-324,5e-324,5e-324,-5e-324,0.0
1668680473.4476655,17460,1668680473,447483730,,-1.9239485779303182e-253,-5e-324,5e-324,5e-324,-5e-324,0.0
1668680473.4555311,17461,1668680473,455264724,,-1.9239485779303182e-253,-5e-324,5e-324,5e-324,-5e-324,0.0
1668680473.4638135,17462,1668680473,463618452,,-1.0179184968311989e-253,-5e-324,5e-324,5e-324,-5e-324,0.0
1668680473.472018,17463,1668680473,471784492,,-5.385580872986384e-254,-5e-324,5e-324,5e-324,-5e-324,0.0
1668680473.4799438,17464,1668680473,479740380,,-2.8493913245282727e-254,-5e-324,5e-324,5e-324,-5e-324,0.0
1668680473.4878016,17465,1668680473,487589480,,-1.5075497168785179e-254,-5e-324,5e-324,5e-324,-5e-324,0.0
1668680473.4954247,17466,1668680473,495178717,,-1.5075497168785179e-254,-5e-324,5e-324,5e-324,-5e-324,0.0
1668680473.5039752,17467,1668680473,503631876,,-7.976111000607312e-255,-5e-324,5e-324,5e-324,-5e-324,0.0
1668680473.5120375,17468,1668680473,511792012,,-4.2199833267014895e-255,-5e-324,5e-324,5e-324,-5e-324,0.0
1668680473.5198724,17469,1668680473,519656046,,-2.2326995294176105e-255,-5e-324,5e-324,5e-324,-5e-324,0.0
1668680473.527856,17470,1668680473,527643629,,-1.1812717735446735e-255,-5e-324,5e-324,5e-324,-5e-324,0.0
1668680473.5359962,17471,1668680473,535775899,,-6.249846809155563e-256,-5e-324,5e-324,5e-324,-5e-324,0.0
1668680473.543642,17472,1668680473,543394511,,-6.249846809155563e-256,-5e-324,5e-324,5e-324,-5e-324,0.0
1668680473.5519629,17473,1668680473,551688851,,-3.306655251797124e-256,-5e-324,5e-324,5e-324,-5e-324,0.0
1668680473.5602117,17474,1668680473,559822073,,-1.749477913317819e-256,-5e-324,5e-324,5e-324,-5e-324,0.0
1668680473.5689611,17475,1668680473,568215409,,-9.256099399910028e-257,-5e-324,5e-324,5e-324,-5e-324,0.0
1668680473.5759723,17476,1668680473,575801547,,-4.897196783612697e-257,-5e-324,5e-324,5e-324,-5e-324,0.0
1668680473.5834322,17477,1668680473,583198473,,-4.897196783612697e-257,-5e-324,5e-324,5e-324,-5e-324,0.0
1668680473.5922096,17478,1668680473,591874136,,-2.5909981409296086e-257,-5e-324,5e-324,5e-324,-5e-324,0.0
1668680473.599803,17479,1668680473,599582003,,-1.3708396176288141e-257,-5e-324,5e-324,5e-324,-5e-324,0.0
1668680473.6077847,17480,1668680473,607585232,,-7.252808203816333e-258,-5e-324,5e-324,5e-324,-5e-324,0.0
1668680473.615889,17481,1668680473,615651733,,-3.8372998682613956e-258,-5e-324,5e-324,5e-324,-5e-324,0.0
1668680473.6235754,17482,1668680473,623358105,,-3.8372998682613956e-258,-5e-324,5e-324,5e-324,-5e-324,0.0
1668680473.6319468,17483,1668680473,631701575,,-2.0302302039658086e-258,-5e-324,5e-324,5e-324,-5e-324,0.0
1668680473.6398127,17484,1668680473,639613370,,-1.0741497465931873e-258,-5e-324,5e-324,5e-324,-5e-324,0.0
1668680473.64795,17485,1668680473,647658966,,-5.683087936788668e-259,-5e-324,5e-324,5e-324,-5e-324,0.0
1668680473.6555717,17486,1668680473,655399740,,-5.683087936788668e-259,-5e-324,5e-324,5e-324,-5e-324,0.0
1668680473.6641107,17487,1668680473,663846391,,-3.0067957097889547e-259,-5e-324,5e-324,5e-324,-5e-324,0.0
1668680473.6716797,17488,1668680473,671495037,,-1.5908288840439698e-259,-5e-324,5e-324,5e-324,-5e-324,0.0
1668680473.6797855,17489,1668680473,679575054,,-8.416722592989908e-260,-5e-324,5e-324,5e-324,-5e-324,0.0
1668680473.6878996,17490,1668680473,687648136,,-4.45310114229663e-260,-5e-324,5e-324,5e-324,-5e-324,0.0
1668680473.695533,17491,1668680473,695281898,,-4.45310114229663e-260,-5e-324,5e-324,5e-324,-5e-324,0.0
1668680473.7045445,17492,1668680473,703858260,,-2.3560369923608495e-260,-5e-324,5e-324,5e-324,-5e-324,0.0
1668680473.71601,17493,1668680473,714893540,,-1.2465268881159854e-260,-5e-324,5e-324,5e-324,-5e-324,0.0
1668680473.723059,17494,1668680473,721067810,,-6.595097139112061e-261,-5e-324,5e-324,5e-324,-5e-324,0.0
1668680473.7295747,17495,1668680473,729278377,,-3.4893195396742205e-261,-5e-324,5e-324,5e-324,-5e-324,0.0
1668680473.735983,17496,1668680473,735721375,,-1.8461215343966197e-261,-5e-324,5e-324,5e-324,-5e-324,0.0
1668680473.7433987,17497,1668680473,743231251,,-1.8461215343966197e-261,-5e-324,5e-324,5e-324,-5e-324,0.0
1668680473.7519133,17498,1668680473,751653227,,-9.76741935214432e-262,-5e-324,5e-324,5e-324,-5e-324,0.0
1668680473.759832,17499,1668680473,759591282,,-5.16772482326438e-262,-5e-324,5e-324,5e-324,-5e-324,0.0
1668680473.7679992,17500,1668680473,767714426,,-2.734128523223488e-262,-5e-324,5e-324,5e-324,-5e-324,0.0
1668680473.7757626,17501,1668680473,775468587,,-2.734128523223488e-262,-5e-324,5e-324,5e-324,-5e-324,0.0
1668680473.7837956,17502,1668680473,783563653,,-1.446566726589383e-262,-5e-324,5e-324,5e-324,-5e-324,0.0
1668680473.7922316,17503,1668680473,792027219,,-1.2295065185024643,-5e-324,1.4840532914287037,5e-324,-5e-324,0.0
1668680473.7999775,17504,1668680473,799781896,,-1.8798910283577583,-5e-324,2.26937982281498,5e-324,-5e-324,0.0
1668680473.807899,17505,1668680473,807635843,,-1.944008156597524,-5e-324,2.368187974852783,5e-324,-5e-324,0.0
1668680473.8157957,17506,1668680473,815551098,,-1.2871176893227445,0.756565857287848,2.307522720435048,5e-324,-5e-324,0.0
1668680473.823684,17507,1668680473,823476946,,-1.2871176893227445,0.756565857287848,2.307522720435048,5e-324,-5e-324,0.0
1668680473.8319426,17508,1668680473,831704742,,-0.9394679428069481,1.1568823466343638,2.2754480222574465,5e-324,-5e-324,0.0
1668680473.840109,17509,1668680473,839717862,,-0.7998106751298729,1.5917822344235257,2.0753291035611183,5e-324,-5e-324,0.0
1668680473.8479118,17510,1668680473,847713459,,-0.7261396600360888,1.8217648171753118,1.9694470754175506,5e-324,-5e-324,0.0
1668680473.8561573,17511,1668680473,855807711,,-0.7261396600360888,1.8217648171753118,1.9694470754175506,5e-324,-5e-324,0.0
1668680473.8644083,17512,1668680473,864079334,,-1.5503937797312828,0.9638553366503855,1.9205962338996263,5e-324,-5e-324,0.0
1668680473.8717337,17513,1668680473,871517044,,-3.1082634111732412,0.5099544690021461,2.5824125699143123,5e-324,-5e-324,0.0
1668680473.8797634,17514,1668680473,879489364,,-3.932606943864176,0.26980559277599225,2.932508918791756,5e-324,-5e-324,0.0
1668680473.8878875,17515,1668680473,887635052,,-4.094419439452031,0.1427481516842991,4.664526872546618,5e-324,-5e-324,0.0
1668680473.895685,17516,1668680473,895491764,,-4.094419439452031,0.1427481516842991,4.664526872546618,5e-324,-5e-324,0.0
1668680473.9038465,17517,1668680473,903618857,,-4.061713610309858,0.0755248792273992,5.593232537411965,5e-324,-5e-324,0.0
1668680473.9121723,17518,1668680473,911767019,,-4.044441599461955,0.03995853757131778,6.08456903880789,5e-324,-5e-324,0.0
1668680473.9220657,17519,1668680473,919890887,,-4.251085914411468,0.021141175479816768,6.732753710976763,5e-324,-5e-324,0.0
1668680473.9277174,17520,1668680473,927529994,,-4.645930790700417,0.011185326787065042,7.45428662220547,5e-324,-5e-324,0.0
1668680473.9354622,17521,1668680473,935230497,,-4.645930790700417,0.011185326787065042,7.45428662220547,5e-324,-5e-324,0.0
1668680473.9443486,17522,1668680473,944071823,,-4.854792986451967,0.005917908181258763,7.836061265871943,5e-324,-5e-324,0.0
1668680473.9520874,17523,1668680473,951871563,,-5.088788465505118,0.003131033890070086,8.444956185565067,5e-324,-5e-324,0.0
1668680473.9597592,17524,1668680473,959517255,,-5.212574400759657,0.0016565605481702822,8.767067798135319,5e-324,-5e-324,0.0
1668680473.9678712,17525,1668680473,967657422,,-4.352771413866095,0.7042083311838073,8.501054936068638,5e-324,-5e-324,0.0
1668680473.9756186,17526,1668680473,975363462,,-4.352771413866095,0.7042083311838073,8.501054936068638,5e-324,-5e-324,0.0
1668680473.9854016,17527,1668680473,983554488,,-3.217352666204389,1.2796675441778136,7.428270356614466,5e-324,-5e-324,0.0
1668680473.9922636,17528,1668680473,992057768,,-2.6167937679763105,1.5836523228871395,6.860809825941495,5e-324,-5e-324,0.0
1668680474.0016906,17529,1668680473,999923390,,-1.384487511449575,2.1721068188044175,5.532972032888285,5e-324,-5e-324,0.0
1668680474.0081453,17530,1668680474,7761858,,-0.7325016181317923,2.5266593674722415,4.772541098658537,5e-324,-5e-324,0.0
1668680474.017817,17531,1668680474,15604186,,-0.7325016181317923,2.5266593674722415,4.772541098658537,5e-324,-5e-324,0.0
1668680474.0239549,17532,1668680474,23688260,,-0.3875503506737383,2.7143655593002087,4.370152317820967,5e-324,-5e-324,0.0
1668680474.031813,17533,1668680474,31546003,,-0.2050442901278537,2.78495305500509,4.3164024606754285,5e-324,-5e-324,0.0
1668680474.03994,17534,1668680474,39694060,,-0.10848438361865846,2.8221972989927453,4.288025682962484,5e-324,-5e-324,0.0
1668680474.0479794,17535,1668680474,47736456,,-0.05739667991623603,2.707948854928684,4.428729432570423,5e-324,-5e-324,0.0
1668680474.0560787,17536,1668680474,55823562,,-0.0303673096119269,2.602314659683985,4.55064505362658,5e-324,-5e-324,0.0
1668680474.06346,17537,1668680474,63292667,,-0.0303673096119269,2.602314659683985,4.55064505362658,5e-324,-5e-324,0.0
1668680474.0716825,17538,1668680474,71431341,,-0.016066669612466018,2.5465138898873403,4.615076177236212,5e-324,-5e-324,0.0
1668680474.0799274,17539,1668680474,79714565,,-0.008500518344725344,2.4291407920458727,4.86713808758258,5e-324,-5e-324,0.0
1668680474.08797,17540,1668680474,87741342,,-0.004497435614966962,2.377554317875607,5.10364204186506,5e-324,-5e-324,0.0
1668680474.095564,17541,1668680474,95271953,,-0.004497435614966962,2.377554317875607,5.10364204186506,5e-324,-5e-324,0.0
1668680474.1037405,17542,1668680474,103521855,,-0.0023794933779919744,2.349954566182931,5.228925315275518,5e-324,-5e-324,0.0
1668680474.11211,17543,1668680474,111825425,,-0.0012589371412155836,2.3159066584185863,5.492930621700815,5e-324,-5e-324,0.0
1668680474.119747,17544,1668680474,119486257,,-0.0006660757034211894,2.2981485911122332,5.632477612151408,5e-324,-5e-324,0.0
1668680474.1277857,17545,1668680474,127567308,,0.06632372790788837,2.219767026554825,5.914389402090817,5e-324,-5e-324,0.0
1668680474.135502,17546,1668680474,135281278,,0.06632372790788837,2.219767026554825,5.914389402090817,5e-324,-5e-324,0.0
1668680474.1444356,17547,1668680474,144226638,,0.08790240467299879,2.2130001995500344,6.260699268901458,5e-324,-5e-324,0.0
1668680474.1516898,17548,1668680474,151484894,,0.09934421769795385,2.209373352819157,6.443940052244553,5e-324,-5e-324,0.0
1668680474.1598666,17549,1668680474,159641132,,0.052560820963706185,2.3722388622306614,7.19748469620605,5e-324,-5e-324,0.0
1668680474.1681712,17550,1668680474,167796733,,0.027808763956230505,2.564548029643437,8.089056539665556,5e-324,-5e-324,0.0
1668680474.175675,17551,1668680474,175363051,,0.027808763956230505,2.564548029643437,8.089056539665556,5e-324,-5e-324,0.0
1668680474.1841342,17552,1668680474,183882042,,0.014712999884597231,2.6660455099294564,8.560855856963563,5e-324,-5e-324,0.0
1668680474.1922193,17553,1668680474,191968853,,0.007784321731986146,2.9017698762906994,9.627818459346672,5e-324,-5e-324,0.0
1668680474.1997614,17554,1668680474,199492297,,0.0041185118808101315,3.0258448582831248,10.192569155301678,5e-324,-5e-324,0.0
1668680474.2086809,17555,1668680474,208422335,,0.0021790132392236526,3.146072169887752,10.697452549160834,5e-324,-5e-324,0.0
1668680474.215989,17556,1668680474,215747296,,0.0011528675487948285,3.085903698098977,10.494824136635405,5e-324,-5e-324,0.0
1668680474.2235715,17557,1668680474,223379645,,0.0011528675487948285,3.085903698098977,10.494824136635405,5e-324,-5e-324,0.0
1668680474.2317545,17558,1668680474,231534863,,0.0006099566359393643,3.054089526724005,10.387580799492127,5e-324,-5e-324,0.0
1668680474.2398632,17559,1668680474,239573591,,0.27153757975999215,2.811123499759965,9.447350874965558,5e-324,-5e-324,0.0
1668680474.2478292,17560,1668680474,247571195,,0.53710344721631,2.5742376694824167,8.588573905780923,5e-324,-5e-324,0.0
1668680474.2560978,17561,1668680474,255842711,,0.6776101270154543,2.4488285907310283,8.134243649773262,5e-324,-5e-324,0.0
1668680474.2635655,17562,1668680474,263332381,,0.6776101270154543,2.4488285907310283,8.134243649773262,5e-324,-5e-324,0.0
1668680474.2718377,17563,1668680474,271561418,,0.8381784403421393,2.316854836564473,7.602459245630378,5e-324,-5e-324,0.0
1668680474.2799299,17564,1668680474,279662538,,0.9230909208650687,2.246750036010985,7.321225152432921,5e-324,-5e-324,0.0
1668680474.2878122,17565,1668680474,287528452,,1.056592752076796,2.2132655278687894,6.997587951719343,5e-324,-5e-324,0.0
1668680474.295513,17566,1668680474,295276340,,1.056592752076796,2.2132655278687894,6.997587951719343,5e-324,-5e-324,0.0
1668680474.3039377,17567,1668680474,303697241,,1.2154313546437439,2.229486420599893,6.697724430463103,5e-324,-5e-324,0.0
1668680474.3119373,17568,1668680474,311726622,,1.299567755844004,2.2377820424051063,6.539167677643799,5e-324,-5e-324,0.0
1668680474.3202102,17569,1668680474,319998689,,1.4932484924317024,2.3061816725892545,6.321276927957976,5e-324,-5e-324,0.0
1668680474.3294709,17570,1668680474,327781052,,1.5222288375916322,2.3762358932554104,6.186801686190147,5e-324,-5e-324,0.0
1668680474.3354523,17571,1668680474,335219279,,1.5222288375916322,2.3762358932554104,6.186801686190147,5e-324,-5e-324,0.0
1668680474.3437958,17572,1668680474,343560814,,1.5371723248232931,2.412868946322927,6.1160068223664315,5e-324,-5e-324,0.0
1668680474.3517118,17573,1668680474,351502437,,1.636157791754811,2.3591376773185493,6.097949644816181,5e-324,-5e-324,0.0
1668680474.3597066,17574,1668680474,359513237,,1.688059206906051,2.3310628642692333,6.088413602906863,5e-324,-5e-324,0.0
1668680474.368036,17575,1668680474,367689117,,1.8681765716657743,2.1972393141651283,6.136558580983157,5e-324,-5e-324,0.0
1668680474.375916,17576,1668680474,375678416,,1.9543305610029393,2.1017207660796076,6.200106288906467,5e-324,-5e-324,0.0
1668680474.3835063,17577,1668680474,383232939,,1.9543305610029393,2.1017207660796076,6.200106288906467,5e-324,-5e-324,0.0
1668680474.3919919,17578,1668680474,391775743,,2.0001208807019237,2.0511801080009717,6.233642233075988,5e-324,-5e-324,0.0
1668680474.3999727,17579,1668680474,399710258,,2.0485370892658423,1.9558675407018946,6.4031164967515855,5e-324,-5e-324,0.0
1668680474.4079595,17580,1668680474,407726547,,2.1289385124535514,1.8677184483688167,6.479087303348788,5e-324,-5e-324,0.0
1668680474.4154463,17581,1668680474,415226032,,2.1289385124535514,1.8677184483688167,6.479087303348788,5e-324,-5e-324,0.0
1668680474.4238145,17582,1668680474,423607804,,2.171620005082749,1.82124444125742,6.519161029920244,5e-324,-5e-324,0.0
1668680474.4319909,17583,1668680474,431732661,,2.0921824312957886,1.8369294651388395,6.6817052754575625,5e-324,-5e-324,0.0
1668680474.440008,17584,1668680474,439721354,,2.049854654851947,1.8454683839042272,6.767730794717267,5e-324,-5e-324,0.0
1668680474.4478588,17585,1668680474,447601354,,1.8767356880763941,1.7792778227378556,7.14068653684513,5e-324,-5e-324,0.0
1668680474.4559262,17586,1668680474,455606969,,1.8767356880763941,1.7792778227378556,7.14068653684513,5e-324,-5e-324,0.0
1668680474.4640584,17587,1668680474,463776301,,1.6625305441828264,1.7739860562661964,7.61146547732235,5e-324,-5e-324,0.0
1668680474.4719334,17588,1668680474,471722233,,1.549360361207765,1.7715187499661669,7.860400810593765,5e-324,-5e-324,0.0
1668680474.4798007,17589,1668680474,479558552,,1.4582389413639327,1.951728333400879,8.266488838580532,5e-324,-5e-324,0.0
1668680474.4877973,17590,1668680474,487529662,,1.4165867182928595,1.9792655970735717,8.374407384331048,5e-324,-5e-324,0.0
1668680474.4957156,17591,1668680474,495441092,,1.4165867182928595,1.9792655970735717,8.374407384331048,5e-324,-5e-324,0.0
1668680474.5038881,17592,1668680474,503600874,,1.3948776651934987,1.994008419041514,8.43136777304589,5e-324,-5e-324,0.0
1668680474.51169,17593,1668680474,511493795,,1.2554991431184876,1.9743025004677945,8.5429430580261,5e-324,-5e-324,0.0
1668680474.5199306,17594,1668680474,519717508,,1.1819046401879527,1.9634351413881586,8.602077779464231,5e-324,-5e-324,0.0
1668680474.5280638,17595,1668680474,527798430,,0.767840974907025,2.1976837452209947,9.615497106608268,5e-324,-5e-324,0.0
1668680474.535637,17596,1668680474,535333807,,0.767840974907025,2.1976837452209947,9.615497106608268,5e-324,-5e-324,0.0
1668680474.5438056,17597,1668680474,543550893,,0.41484052665490007,2.281171751401941,10.36062569365832,5e-324,-5e-324,0.0
1668680474.551716,17598,1668680474,551504281,,0.2280519858457867,2.3260119666742725,10.754673658175788,5e-324,-5e-324,0.0
1668680474.5600433,17599,1668680474,559761913,,0.12065724484239343,2.3721389147687626,11.288305682420678,5e-324,-5e-324,0.0
1668680474.5679173,17600,1668680474,567653514,,0.06383707065283703,2.4013230597283224,11.60793538055805,5e-324,-5e-324,0.0
1668680474.5755124,17601,1668680474,575277156,,0.06383707065283703,2.4013230597283224,11.60793538055805,5e-324,-5e-324,0.0
1668680474.5841572,17602,1668680474,583899254,,0.033774777427235586,2.4169687258083443,11.776999575057914,5e-324,-5e-324,0.0
1668680474.5926287,17603,1668680474,592347412,,0.0784017884065477,2.4485042122221006,11.87945802919695,5e-324,-5e-324,0.0
1668680474.5999844,17604,1668680474,599691497,,0.10208204575296459,2.465248626339247,11.933644519242343,5e-324,-5e-324,0.0
1668680474.6085055,17605,1668680474,607941971,,0.054009345030465186,2.491283011748514,11.976629723837624,5e-324,-5e-324,0.0
1668680474.6161053,17606,1668680474,615864819,,0.054009345030465186,2.491283011748514,11.976629723837624,5e-324,-5e-324,0.0
1668680474.624927,17607,1668680474,624548120,,0.035042600364337116,2.4676575241894714,11.990712832936754,5e-324,-5e-324,0.0
1668680474.6326013,17608,1668680474,632315817,,0.02458033852615893,2.4557675038287794,11.998035849435773,5e-324,-5e-324,0.0
1668680474.6405725,17609,1668680474,640381122,,0.0983167466919184,2.350977565261953,11.833806632040524,5e-324,-5e-324,0.0
1668680474.6477597,17610,1668680474,647545968,,0.27096614464052654,2.265798011927682,11.586270977025702,5e-324,-5e-324,0.0
1668680474.6561544,17611,1668680474,655878306,,0.27096614464052654,2.265798011927682,11.586270977025702,5e-324,-5e-324,0.0
1668680474.6642246,17612,1668680474,663947309,,0.3622598399483414,2.220567488249466,11.4553536720172,5e-324,-5e-324,0.0
1668680474.6732311,17613,1668680474,671549848,,0.5787872792241481,2.151013378275352,11.074936613522743,5e-324,-5e-324,0.0
1668680474.6797886,17614,1668680474,679538822,,0.6935975144459735,2.114307701154468,10.87360245474353,5e-324,-5e-324,0.0
1668680474.6882308,17615,1668680474,687990311,,0.67567446181403,2.0868449885072655,10.904524316953376,5e-324,-5e-324,0.0
1668680474.6955752,17616,1668680474,695371076,,0.67567446181403,2.0868449885072655,10.904524316953376,5e-324,-5e-324,0.0
1668680474.7039354,17617,1668680474,703736012,,0.603897012407672,2.0768236880631368,11.048570655742546,5e-324,-5e-324,0.0
1668680474.7120156,17618,1668680474,711755274,,0.5658810142948909,2.0707434657095445,11.124982698306885,5e-324,-5e-324,0.0
1668680474.719914,17619,1668680474,719712093,,0.41678999421503843,2.106212897912418,11.433859601264999,5e-324,-5e-324,0.0
1668680474.7280557,17620,1668680474,727706383,,0.3198919455139815,2.1224113595107283,11.663480672916462,5e-324,-5e-324,0.0
1668680474.7355125,17621,1668680474,735287485,,0.3198919455139815,2.1224113595107283,11.663480672916462,5e-324,-5e-324,0.0
1668680474.7441082,17622,1668680474,743802314,,0.2686028873614961,2.131459923127545,11.78485391367309,5e-324,-5e-324,0.0
1668680474.7519727,17623,1668680474,751774374,,0.2578294311168434,2.0998343358305664,11.812068945910681,5e-324,-5e-324,0.0
1668680474.7599492,17624,1668680474,759717529,,0.2519098269970484,2.0829455055826025,11.826526436663439,5e-324,-5e-324,0.0
1668680474.7677462,17625,1668680474,767539191,,0.34516463130650654,2.0200701169221875,11.811014732145019,5e-324,-5e-324,0.0
1668680474.7756016,17626,1668680474,775349707,,0.34516463130650654,2.0200701169221875,11.811014732145019,5e-324,-5e-324,0.0
1668680474.7848487,17627,1668680474,784558236,,0.3611687147257921,1.931355762093674,11.752402460185003,5e-324,-5e-324,0.0
1668680474.7918122,17628,1668680474,791572416,,0.36971396693908487,1.8847119252222828,11.721318147294372,5e-324,-5e-324,0.0
1668680474.7998188,17629,1668680474,799587161,,0.4126535835691054,1.7561129383627219,11.683270865027566,5e-324,-5e-324,0.0
1668680474.807756,17630,1668680474,807561307,,0.5410313356559693,1.6051688126458243,11.565249172171118,5e-324,-5e-324,0.0
1668680474.8156006,17631,1668680474,815361218,,0.5410313356559693,1.6051688126458243,11.565249172171118,5e-324,-5e-324,0.0
1668680474.823866,17632,1668680474,823681151,,0.6084769040365281,1.5251453207049184,11.502902843540953,5e-324,-5e-324,0.0
1668680474.8322153,17633,1668680474,831989940,,0.5962870415464241,1.4212766540289627,11.254826270840368,5e-324,-5e-324,0.0
1668680474.8397336,17634,1668680474,839525980,,0.5898148162052623,1.3668349876302466,11.123478749637414,5e-324,-5e-324,0.0
1668680474.8478425,17635,1668680474,847630058,,0.5934437985512612,1.3558998489775234,11.133558974051063,5e-324,-5e-324,0.0
1668680474.8557036,17636,1668680474,855533664,,0.5934437985512612,1.3558998489775234,11.133558974051063,5e-324,-5e-324,0.0
1668680474.8638854,17637,1668680474,863672378,,0.6295013501285504,1.376816008426097,11.208800655056098,5e-324,-5e-324,0.0
1668680474.871832,17638,1668680474,871629651,,0.6481898622154558,1.3874560833308485,11.2487453544671,5e-324,-5e-324,0.0
1668680474.880703,17639,1668680474,880068146,,0.6917993666364737,1.4795359764070342,11.432665635718365,5e-324,-5e-324,0.0
1668680474.8883955,17640,1668680474,887799676,,0.5868296009904819,1.578066127903703,11.64760195513086,5e-324,-5e-324,0.0
1668680474.8954268,17641,1668680474,895230331,,0.5868296009904819,1.578066127903703,11.64760195513086,5e-324,-5e-324,0.0
1668680474.9039254,17642,1668680474,903746148,,0.5313085974323357,1.630335729323761,11.76128904978319,5e-324,-5e-324,0.0
1668680474.9118717,17643,1668680474,911640578,,0.5616026660958382,1.568463596853087,11.785081123815054,5e-324,-5e-324,0.0
1668680474.9196665,17644,1668680474,919455339,,0.5778029026286517,1.5364623904422334,11.797504311309787,5e-324,-5e-324,0.0
1668680474.9278119,17645,1668680474,927608246,,0.6929506768501047,1.376294949973666,11.561318142788833,5e-324,-5e-324,0.0
1668680474.935566,17646,1668680474,935356760,,0.6929506768501047,1.376294949973666,11.561318142788833,5e-324,-5e-324,0.0
1668680474.9438198,17647,1668680474,943616711,,0.6552826659954556,1.1761884285328161,11.411185703162353,5e-324,-5e-324,0.0
1668680474.951873,17648,1668680474,951624443,,0.6354789726862415,1.0709540077680715,11.331635760446014,5e-324,-5e-324,0.0
1668680474.9604437,17649,1668680474,960108354,,0.5949864262657585,1.0323976600089404,11.468359405544117,5e-324,-5e-324,0.0
1668680474.9676764,17650,1668680474,967442545,,0.49821172828636895,1.0860055647346387,11.662256220425839,5e-324,-5e-324,0.0
1668680474.9757226,17651,1668680474,975437307,,0.49821172828636895,1.0860055647346387,11.662256220425839,5e-324,-5e-324,0.0
1668680474.9837334,17652,1668680474,983518033,,0.4471176294108292,1.1143299657359254,11.764837542254918,5e-324,-5e-324,0.0
1668680474.991768,17653,1668680474,991576308,,0.5590465883616429,1.186208421378395,11.859171098538763,5e-324,-5e-324,0.0
1668680474.9998806,17654,1668680474,999676764,,0.6180351527783581,1.2240921200369723,11.909136302478656,5e-324,-5e-324,0.0
1668680475.0079849,17655,1668680475,7745626,,0.606751275960343,1.3017934513682832,12.118401596790143,5e-324,-5e-324,0.0
1668680475.0159743,17656,1668680475,15766812,,0.6145238976533922,1.4070147813451765,12.382978998991696,5e-324,-5e-324,0.0
1668680475.0238488,17657,1668680475,23621397,,0.6145238976533922,1.4070147813451765,12.382978998991696,5e-324,-5e-324,0.0
1668680475.0320055,17658,1668680475,31793889,,0.6185338941702476,1.4617565709964278,12.523144490412001,5e-324,-5e-324,0.0
1668680475.0416484,17659,1668680475,40992902,,0.4314438270336584,1.5951313791428015,12.94518771157167,5e-324,-5e-324,0.0
1668680475.0476792,17660,1668680475,47503551,,0.2282673543976119,1.8051057738051537,13.38365694048711,5e-324,-5e-324,0.0
1668680475.055537,17661,1668680475,55270112,,0.2282673543976119,1.8051057738051537,13.38365694048711,5e-324,-5e-324,0.0
1668680475.0637133,17662,1668680475,63501307,,0.1207711915637629,1.9157996632183854,13.615709853021304,5e-324,-5e-324,0.0
1668680475.0721803,17663,1668680475,71952848,,0.25620250978061193,1.920251034443087,13.346621891656511,5e-324,-5e-324,0.0
1668680475.0797682,17664,1668680475,79576005,,0.32749224422919887,1.9211448605188814,13.20459411100656,5e-324,-5e-324,0.0
1668680475.087788,17665,1668680475,87570383,,0.6454656265010256,2.041362019216207,12.833174862210107,5e-324,-5e-324,0.0
1668680475.0955129,17666,1668680475,95254606,,0.6454656265010256,2.041362019216207,12.833174862210107,5e-324,-5e-324,0.0
1668680475.1040945,17667,1668680475,103848927,,1.3477197488092365,1.9842490038857332,11.54266103991685,5e-324,-5e-324,0.0
1668680475.1117988,17668,1668680475,111580280,,1.7194150273057573,1.9537314216190804,10.859915961668015,5e-324,-5e-324,0.0
1668680475.1197672,17669,1668680475,119546903,,1.8854227864423807,2.13867783550711,10.306610263900026,5e-324,-5e-324,0.0
1668680475.1276407,17670,1668680475,127467554,,1.5633305098338217,2.404422811913364,10.046090565221707,5e-324,-5e-324,0.0
1668680475.1355708,17671,1668680475,135366697,,1.5633305098338217,2.404422811913364,10.046090565221707,5e-324,-5e-324,0.0
1668680475.1439676,17672,1668680475,143726807,,1.3927818703796553,2.5455429121980764,9.90810416340056,5e-324,-5e-324,0.0
1668680475.1519086,17673,1668680475,151655403,,1.2803879732440415,2.6646910188763115,9.8767079355956,5e-324,-5e-324,0.0
1668680475.1599555,17674,1668680475,159711533,,1.2210189510149405,2.7272530356178724,9.860244758551906,5e-324,-5e-324,0.0
1668680475.1683738,17675,1668680475,168114390,,1.336223388977918,2.798128925714924,9.878040290167277,5e-324,-5e-324,0.0
1668680475.1762893,17676,1668680475,175970550,,1.6905918074426134,3.036580953627011,9.96147475683739,5e-324,-5e-324,0.0
1668680475.183494,17677,1668680475,183291261,,1.6905918074426134,3.036580953627011,9.96147475683739,5e-324,-5e-324,0.0
1668680475.1918905,17678,1668680475,191672212,,1.8776789890134866,3.1621755003207377,10.005950180014576,5e-324,-5e-324,0.0
1668680475.199888,17679,1668680475,199628027,,1.82778151624405,3.437711778579804,10.125043899773555,5e-324,-5e-324,0.0
1668680475.2079873,17680,1668680475,207726988,,1.7424214091030619,3.614151375103671,10.13610671046099,5e-324,-5e-324,0.0
1668680475.2159398,17681,1668680475,215651160,,1.696917481458236,3.707583866279435,10.14200543307614,5e-324,-5e-324,0.0
1668680475.2234008,17682,1668680475,223214005,,1.696917481458236,3.707583866279435,10.14200543307614,5e-324,-5e-324,0.0
1668680475.2318726,17683,1668680475,231648696,,1.2199802194425033,3.943449939927866,10.125920218517681,5e-324,-5e-324,0.0
1668680475.239852,17684,1668680475,239614519,,0.9677874362189655,4.068608282807165,10.117216006883584,5e-324,-5e-324,0.0
1668680475.2477138,17685,1668680475,247506594,,0.7494105689607858,4.129472113052628,10.165072470460412,5e-324,-5e-324,0.0
1668680475.2554166,17686,1668680475,255248075,,0.7494105689607858,4.129472113052628,10.165072470460412,5e-324,-5e-324,0.0
1668680475.264018,17687,1668680475,263785378,,0.9311674178250111,3.919364305459857,10.372193258846398,5e-324,-5e-324,0.0
1668680475.271942,17688,1668680475,271698493,,1.0277004981368227,3.808491108099199,10.481591139656357,5e-324,-5e-324,0.0
1668680475.2798438,17689,1668680475,279614180,,0.668724847637377,3.8000867492088863,10.734455583338214,5e-324,-5e-324,0.0
1668680475.2880244,17690,1668680475,287764768,,0.3538074767221587,4.147968122689331,10.908642769454069,5e-324,-5e-324,0.0
1668680475.29584,17691,1668680475,295475737,,0.3538074767221587,4.147968122689331,10.908642769454069,5e-324,-5e-324,0.0
1668680475.303879,17692,1668680475,303597531,,0.18719168433289748,4.332493247377628,11.000581784921359,5e-324,-5e-324,0.0
1668680475.3121603,17693,1668680475,311839966,,0.09903896607279516,4.509996515674466,11.135484355623806,5e-324,-5e-324,0.0
1668680475.3200824,17694,1668680475,319842273,,0.052399319102897066,4.60412508317971,11.206756075867471,5e-324,-5e-324,0.0
1668680475.3278294,17695,1668680475,327600189,,0.027723316905682454,4.691089498550838,11.233381796594252,5e-324,-5e-324,0.0
1668680475.3359349,17696,1668680475,335675718,,0.014667791746370326,5.229384772413957,11.22932906380271,5e-324,0.0018868051577806734,0.0
1668680475.3434203,17697,1668680475,343223965,,0.014667791746370326,5.229384772413957,11.22932906380271,5e-324,0.0018868051577806734,0.0
1668680475.351786,17698,1668680475,351586252,,0.00776040310929719,5.5148883070043535,11.226789446512704,5e-324,0.002872537786744343,0.0
1668680475.36025,17699,1668680475,359831034,,0.004105857068341076,5.88210994602474,11.250762760326865,5e-324,0.04951171975673782,0.0
1668680475.3678532,17700,1668680475,367612377,,0.0021723178587784854,6.068027509853289,11.254359752381056,5e-324,0.07056526152800101,0.0
1668680475.3754854,17701,1668680475,375268004,,0.0021723178587784854,6.068027509853289,11.254359752381056,5e-324,0.07056526152800101,0.0
1668680475.384073,17702,1668680475,383850298,,0.0011493251715833808,6.166153933437492,11.256395434498764,5e-324,0.08173154633305013,0.0
1668680475.3919337,17703,1668680475,391681592,,-0.21429460927619187,6.657994306983213,11.280759993336153,5e-324,0.1540966650099781,0.0
1668680475.3997712,17704,1668680475,399565277,,-0.3280484734167446,6.918832369746536,11.293267147476428,5e-324,0.1923733356972978,0.0
1668680475.4080477,17705,1668680475,407794044,,-0.24884488217093562,7.060952548370831,11.407425872350984,5e-324,0.24110327945599447,0.0
1668680475.4154942,17706,1668680475,415309526,,-0.24884488217093562,7.060952548370831,11.407425872350984,5e-324,0.24110327945599447,0.0
1668680475.4240205,17707,1668680475,423793006,,-0.5323544941316846,7.183091216487796,11.883498768766302,5e-324,0.31874539986738426,0.0
1668680475.4319065,17708,1668680475,431669807,,-0.6827522571883613,7.247389750778164,12.135523161522144,5e-324,0.3598415681470624,0.0
1668680475.4400933,17709,1668680475,439801314,,-1.6680427280672503,8.216020439566213,12.72251821609135,5e-324,0.5508205738202665,0.0
1668680475.4484327,17710,1668680475,448070548,,-2.360525882164918,8.780552686448026,13.159969691350568,5e-324,0.6510777798496715,0.0
1668680475.4561858,17711,1668680475,455968377,,-2.72704247217177,9.078662733914008,13.391782426173862,5e-324,0.7041310030623567,0.0
1668680475.4635262,17712,1668680475,463312112,,-2.72704247217177,9.078662733914008,13.391782426173862,5e-324,0.7041310030623567,0.0
1668680475.4718351,17713,1668680475,471623799,,-3.0838294339282166,9.751388512630117,13.716819548715954,5e-324,0.8166532953384521,0.0
1668680475.4797919,17714,1668680475,479574189,,-3.272157585365271,10.107706837620643,13.888619613607775,5e-324,0.8761817197646692,0.0
1668680475.48858,17715,1668680475,488363790,,-3.2817682728320077,10.578058278831358,14.015184211935768,5e-324,0.9378579117284098,0.0
1668680475.4959512,17716,1668680475,495689526,,-3.2817682728320077,10.578058278831358,14.015184211935768,5e-324,0.9378579117284098,0.0
1668680475.5044224,17717,1668680475,504168778,,-3.433869784696804,10.706189712704951,14.250678965402864,5e-324,0.9674522926975686,0.0
1668680475.512219,17718,1668680475,511969937,,-3.5152541302221954,10.773629206991245,14.375272480976147,5e-324,0.9831174897672841,0.0
1668680475.520684,17719,1668680475,520431302,,-3.4244409117420647,10.914217958591856,14.39201872507547,5e-324,0.9906909721949101,0.0
1668680475.528622,17720,1668680475,528385317,,-3.7391228929884446,11.153605717372633,14.329193353053466,5e-324,1.0151425729551544,0.0
1668680475.5365307,17721,1668680475,536277898,,-3.906304177875805,11.27939723765931,14.296426224956623,5e-324,1.0280888758116764,0.0
1668680475.5435221,17722,1668680475,543272348,,-3.906304177875805,11.27939723765931,14.296426224956623,5e-324,1.0280888758116764,0.0
1668680475.5522292,17723,1668680475,551941883,,-3.7463322442099365,11.385929473370528,14.389476001408934,5e-324,1.0497346861191295,0.0
1668680475.5598369,17724,1668680475,559612794,,-3.662428434247268,11.44158276549488,14.43906372330266,5e-324,1.0611957250107062,0.0
1668680475.5678024,17725,1668680475,567594450,,-3.596202167179082,11.284192483921842,14.54955080351354,5e-324,1.059206348879834,0.0
1668680475.5760884,17726,1668680475,575877354,,-4.506013677101153,11.720905710789552,14.830118131729439,5e-324,1.1777485330339024,0.0
1668680475.5835752,17727,1668680475,583314419,,-4.506013677101153,11.720905710789552,14.830118131729439,5e-324,1.1777485330339024,0.0
1668680475.591943,17728,1668680475,591698821,,-4.987231740964318,11.951964590549924,14.978614955875205,5e-324,1.2404690177419566,0.0
1668680475.5998745,17729,1668680475,599634537,,-5.38967718747697,12.23870899115018,15.351585080221057,5e-324,1.3377486607006515,0.0
1668680475.608144,17730,1668680475,607744052,,-6.368706938486069,12.74623743527787,15.688226743554027,5e-324,1.4467130208077226,0.0
1668680475.6157925,17731,1668680475,615377353,,-6.368706938486069,12.74623743527787,15.688226743554027,5e-324,1.4467130208077226,0.0
1668680475.6246004,17732,1668680475,624157239,,-6.886213058745039,13.014738986403028,15.86659013664152,5e-324,1.5043817513411812,0.0
1668680475.6317222,17733,1668680475,631525958,,-6.890301985978507,13.511742272786247,16.055850073042635,5e-324,1.5807741077451278,0.0
1668680475.639604,17734,1668680475,639413667,,-6.892381999546794,13.774838264705888,16.155896977283913,5e-324,1.6211939748844073,0.0
1668680475.6481667,17735,1668680475,647921207,,-6.909014663034071,13.795473759517465,16.188061340909613,5e-324,1.635429795662163,0.0
1668680475.6559522,17736,1668680475,655685025,,-6.6502199506006185,13.927723398520804,16.039084357047926,5e-324,1.6452195388074833,0.0
1668680475.663606,17737,1668680475,663331581,,-6.6502199506006185,13.927723398520804,16.039084357047926,5e-324,1.6452195388074833,0.0
1668680475.6719167,17738,1668680475,671683454,,-6.512521999449897,13.997790006146232,15.960516119272356,5e-324,1.6503956477958874,0.0
1668680475.6797316,17739,1668680475,679517403,,-6.529681178036663,13.894930535753225,15.75757009810729,5e-324,1.6160951205945444,0.0
1668680475.6878638,17740,1668680475,687618357,,-6.2266978525113785,13.730607245131623,15.541227714949809,5e-324,1.5831277315879553,0.0
1668680475.69547,17741,1668680475,695223759,,-6.2266978525113785,13.730607245131623,15.541227714949809,5e-324,1.5831277315879553,0.0
1668680475.7039316,17742,1668680475,703726464,,-6.065833325379682,13.642556129208845,15.427995179559435,5e-324,1.5657017564526163,0.0
1668680475.7119806,17743,1668680475,711733295,,-6.190526622467233,13.536476039177407,15.35199498684633,5e-324,1.5519519051915873,0.0
1668680475.7200463,17744,1668680475,719810903,,-6.257610801987147,13.480505592565358,15.311147212635941,5e-324,1.5446688185513386,0.0
1668680475.727956,17745,1668680475,727559411,,-6.638463679970427,13.326866461911507,15.25244869158117,5e-324,1.497590702359231,0.0
1668680475.735518,17746,1668680475,735269968,,-6.638463679970427,13.326866461911507,15.25244869158117,5e-324,1.497590702359231,0.0
1668680475.7436361,17747,1668680475,743410142,,-6.638463679970427,13.326866461911507,15.25244869158117,5e-324,1.497590702359231,0.0
1668680475.7523057,17748,1668680475,752057865,,-6.259030049551306,12.555483921126047,15.188015071997313,5e-324,1.3606623847528034,0.0
1668680475.7603514,17749,1668680475,760003355,,-6.2238340398924485,11.537569832725218,15.219107887567771,5e-324,1.1945583011080851,0.0
1668680475.7682474,17750,1668680475,767953900,,-6.259100209747305,11.00889546881184,15.263831134779192,5e-324,1.117410662575173,0.0
1668680475.7760735,17751,1668680475,775783580,,-6.278389006379923,10.729598845277682,15.286922037986578,5e-324,1.0765872228776336,0.0
1668680475.7835355,17752,1668680475,783326816,,-6.278389006379923,10.729598845277682,15.286922037986578,5e-324,1.0765872228776336,0.0
1668680475.7917407,17753,1668680475,791553967,,-6.170869803722857,10.49123293331522,15.21164932721185,5e-324,1.06207896385287,0.0
1668680475.7996593,17754,1668680475,799437669,,-6.115567547558413,10.363261005220174,15.172424355595675,5e-324,1.0544025691073828,0.0
1668680475.8079839,17755,1668680475,807764827,,-6.318824022804394,10.302716925570408,15.077730498629128,5e-324,1.0205479497796128,0.0
1668680475.8159463,17756,1668680475,815766537,,-6.466302085215233,8.969346953962887,15.068285442446392,5e-324,0.7925497999687074,0.0
1668680475.823489,17757,1668680475,823273087,,-6.466302085215233,8.969346953962887,15.068285442446392,5e-324,0.7925497999687074,0.0
1668680475.8319314,17758,1668680475,831694992,,-6.544931956666597,8.262448187650062,15.063762631262723,5e-324,0.6719167242014745,0.0
1668680475.8403003,17759,1668680475,840013071,,-7.119857411928967,4.371477978047617,15.081503831047346,-0.006305947652661363,0.3554962277789525,0.0
1668680475.848021,17760,1668680475,847702360,,-5.299867520676655,1.9512884592083475,15.225619489809144,-0.003336336963121144,0.1880851650407358,0.0
