Time,header.seq,header.stamp.secs,header.stamp.nsecs,header.frame_id,twist.linear.x,twist.linear.y,twist.linear.z,twist.angular.x,twist.angular.y,twist.angular.z
1668680560.2563672,28311,1668680560,255989359,,-1.2330298782367656e-05,1.4511565755162659e-09,-6.874978678411393e-11,9.905596148677221e-08,-5.482078750717735e-07,-5.2045939473381706e-09
1668680560.2636635,28312,1668680560,263518936,,-1.1330747623653312e-05,1.4125929417299881e-09,-6.658058223539572e-11,1.314488386907533e-07,-5.587498150837498e-07,-5.3451495844916545e-09
1668680560.271935,28313,1668680560,271771005,,-1.038782352435677e-05,1.374321451572929e-09,-6.444879153604234e-11,1.6356781947013677e-07,-5.691365728659665e-07,-5.483905525541325e-09
1668680560.2799082,28314,1668680560,279799494,,-9.498912194641833e-06,1.336390742332477e-09,-6.235571081591789e-11,1.954109663334645e-07,-5.793680505809982e-07,-5.620858290088094e-09
1668680560.2880704,28315,1668680560,287930960,,-8.661499363229123e-06,1.298845504486439e-09,-6.030238723532555e-11,2.2697639246178063e-07,-5.894441710370155e-07,-5.756004662471327e-09
1668680560.2959569,28316,1668680560,295729293,,-7.873167834135359e-06,1.2617263511023288e-09,-5.828972613467789e-11,2.5826226154186294e-07,-5.99364877526985e-07,-5.8893416839270125e-09
1668680560.303561,28317,1668680560,303412931,,-7.131594584586628e-06,1.2250701934541942e-09,-5.631849735431287e-11,2.8926678762331856e-07,-6.091301336775713e-07,-6.02086663517107e-09
1668680560.3128884,28318,1668680560,312582185,,-6.434547906512587e-06,1.1889103430024936e-09,-5.438934118070317e-11,3.199882349245632e-07,-6.187399232947166e-07,-6.150577070800745e-09
1668680560.3202014,28319,1668680560,320050031,,-5.7798845937539074e-06,1.1532768815429434e-09,-5.2502801312445576e-11,3.5042491767034995e-07,-6.281942502032448e-07,-6.2784707888742714e-09
1668680560.3280847,28320,1668680560,327775174,,-5.16554717683183e-06,1.1181966482284962e-09,-5.065927317246173e-11,3.805751999064284e-07,-6.374931380879681e-07,-6.404545833885647e-09
1668680560.335574,28321,1668680560,335431479,,-4.5895612071243915e-06,1.083693476201445e-09,-4.8859024899277266e-11,4.1043749531833603e-07,-6.46636630335965e-07,-6.528800498877135e-09
1668680560.3442128,28322,1668680560,344048745,,-4.050032592064288e-06,1.049788412320055e-09,-4.710229546591999e-11,4.4001026704135776e-07,-6.55624789873794e-07,-6.651233327317138e-09
1668680560.3522184,28323,1668680560,352040141,,-3.5451449820673375e-06,1.0164996747751296e-09,-4.538921735541517e-11,4.6929202745836117e-07,-6.644576990046204e-07,-6.7718431053828785e-09
1668680560.3600435,28324,1668680560,359895984,,-3.0731572108874572e-06,9.838431633267628e-10,-4.3719738673259435e-11,4.982813379987816e-07,-6.73135459239863e-07,-6.890628870821212e-09
1668680560.3677547,28325,1668680560,367584354,,-2.6324007894938403e-06,9.518322732662672e-10,-4.2093804786472107e-11,5.269768089475513e-07,-6.816581911432619e-07,-7.007589886997229e-09
1668680560.3755345,28326,1668680560,375334032,,-2.2212774550845393e-06,9.204782458497023e-10,-4.0511210687521595e-11,5.553770992144909e-07,-6.900260341588565e-07,-7.122725666036894e-09
1668680560.3841362,28327,1668680560,383893358,,-1.8382567749249921e-06,8.897902456317877e-10,-3.897179716590217e-11,5.834809161528677e-07,-6.982391464498001e-07,-7.236035959901008e-09
1668680560.3923209,28328,1668680560,392207932,,-1.481873805772098e-06,8.597755423290313e-10,-3.747521044853319e-11,6.112870153028799e-07,-7.062977047201053e-07,-7.3475207516239236e-09
1668680560.400601,28329,1668680560,400373995,,-1.1507268090736832e-06,8.304395149871445e-10,-3.602113282513132e-11,6.387942001945478e-07,-7.142019040533036e-07,-7.457180258476792e-09
1668680560.4086485,28330,1668680560,408467485,,-8.434750220975257e-07,8.017858758372813e-10,-3.460918347814764e-11,6.660013221149266e-07,-7.219519577379058e-07,-7.565014930895217e-09
1668680560.4160833,28331,1668680560,415881893,,-5.588364846560919e-07,7.738167676616616e-10,-3.323882045447832e-11,6.929072798621582e-07,-7.295480970956745e-07,-7.671025442442976e-09
1668680560.424896,28332,1668680560,424726026,,-2.955859219069192e-07,7.4653293634921e-10,-3.190962693639343e-11,7.195110195342326e-07,-7.369905713106032e-07,-7.775212705772445e-09
1668680560.432099,28333,1668680560,431936503,,-5.2552682198727864e-08,7.199336440327498e-10,-3.0621040832662176e-11,7.458115342734699e-07,-7.442796472578305e-07,-7.877577849417226e-09
1668680560.440398,28334,1668680560,440231286,,1.7138126943752702e-07,6.94017082639771e-10,-2.937248587465391e-11,7.718078640191554e-07,-7.514156093239574e-07,-7.978122239324182e-09
1668680560.4487019,28335,1668680560,448541883,,3.772833034595097e-07,6.687800979846185e-10,-2.8163314320603082e-11,7.97499095262724e-07,-7.583987592372638e-07,-8.07684744860522e-09
1668680560.4555888,28336,1668680560,455437901,,5.661720233292179e-07,6.442185661516272e-10,-2.6992891154279886e-11,8.22884360799474e-07,-7.652294158864358e-07,-8.173755286938938e-09
1668680560.4636452,28337,1668680560,463540069,,7.390191097038744e-07,6.203274665408337e-10,-2.5860551808789657e-11,8.479628394750131e-07,-7.71907915149315e-07,-8.268847762089261e-09
1668680560.4717762,28338,1668680560,471638451,,8.967511109278441e-07,5.971007305421899e-10,-2.4765604365411137e-11,8.727337559132482e-07,-7.784346097106327e-07,-8.362127117113042e-09
1668680560.479767,28339,1668680560,479645415,,1.0402511816474348e-06,5.74531568136745e-10,-2.3707307645707692e-11,8.971963802567251e-07,-7.848098688863265e-07,-8.453595798384157e-09
1668680560.487824,28340,1668680560,487641652,,1.170360769222866e-06,5.526124676281467e-10,-2.268490583256199e-11,9.213500279093037e-07,-7.910340784422574e-07,-8.543256472798334e-09
1668680560.4958003,28341,1668680560,495627508,,1.2878812494479505e-06,5.313352778801582e-10,-2.169766718444597e-11,9.451940592524642e-07,-7.971076404166857e-07,-8.631112003860778e-09
1668680560.5035744,28342,1668680560,503316038,,1.3935755117763534e-06,5.106910652877938e-10,-2.0744827282533725e-11,9.687278793712968e-07,-8.030309729394365e-07,-8.717165483342332e-09
1668680560.5120413,28343,1668680560,511773322,,1.4881694956301002e-06,4.906705573707393e-10,-1.982560184678581e-11,9.919509377777628e-07,-8.088045100508599e-07,-8.801420184057601e-09
1668680560.5198717,28344,1668680560,519717024,,1.5723536776693178e-06,4.712638667443912e-10,-1.8939219080962415e-11,1.0148627281345486e-06,-8.14428701518161e-07,-8.883879611675208e-09
1668680560.528017,28345,1668680560,527897541,,1.646784512118974e-06,4.5246075755211664e-10,-1.8084925484516246e-11,1.0374627879667964e-06,-8.199040126540646e-07,-8.964547446539755e-09
1668680560.535407,28346,1668680560,535286835,,1.712085823719621e-06,4.3425064440075216e-10,-1.7261912511966343e-11,1.0597506983647892e-06,-8.252309241335305e-07,-9.043427588804283e-09
1668680560.5439427,28347,1668680560,543786323,,1.768850155658438e-06,4.16622564207901e-10,-1.646935176665406e-11,1.0817260836975363e-06,-8.304099318138353e-07,-9.120524123701075e-09
1668680560.551767,28348,1668680560,551615782,,1.8176400721708616e-06,3.995653147118278e-10,-1.5706482141672097e-11,1.1033886113253335e-06,-8.354415465461068e-07,-9.19584134669006e-09
1668680560.5597336,28349,1668680560,559609280,,1.8589894177247887e-06,3.8306739043255296e-10,-1.4972525745223384e-11,1.1247379912842288e-06,-8.403262939933126e-07,-9.26938373162054e-09
1668680560.567847,28350,1668680560,567744029,,1.8934045330817478e-06,3.6711714288873343e-10,-1.4266689264901792e-11,1.1457739760019358e-06,-8.450647144487221e-07,-9.341155950124438e-09
1668680560.5757892,28351,1668680560,575601291,,1.9213654296522753e-06,3.5170279123991996e-10,-1.358814811978843e-11,1.1664963599810147e-06,-8.496573626397728e-07,-9.411162862911754e-09
1668680560.583831,28352,1668680560,583702733,,1.9433269231481757e-06,3.36812404816449e-10,-1.2936161921777359e-11,1.1869049794939354e-06,-8.541048075544372e-07,-9.479409518475461e-09
1668680560.5917714,28353,1668680560,591653884,,1.959719726978536e-06,3.224339418803815e-10,-1.230995485515992e-11,1.2069997122819238e-06,-8.584076322502645e-07,-9.545901155387807e-09
1668680560.6001184,28354,1668680560,599950245,,1.9709515072651427e-06,3.0855531275852193e-10,-1.1708742511420004e-11,1.2267804772244405e-06,-8.62566433667415e-07,-9.610643187966823e-09
1668680560.6079438,28355,1668680560,607747748,,1.977407899567265e-06,2.951644927405038e-10,-1.113181132891078e-11,1.246247234045441e-06,-8.665818224499618e-07,-9.67364121966114e-09
1668680560.6157167,28356,1668680560,615586569,,1.979453488993168e-06,2.822493522607127e-10,-1.0578362413580705e-11,1.2653999829664544e-06,-8.704544227439863e-07,-9.734901023058737e-09
1668680560.6234846,28357,1668680560,623372044,,1.9774327542560084e-06,2.6979766497647217e-10,-1.0047675832329334e-11,1.2842387644037528e-06,-8.741848720236574e-07,-9.794428550154258e-09
1668680560.6317704,28358,1668680560,631574607,,1.971670976700457e-06,2.577975532547512e-10,-9.53904617750096e-12,1.302763658646237e-06,-8.777738208967256e-07,-9.852229931133086e-09
1668680560.6402116,28359,1668680560,639973357,,1.962475115713087e-06,2.462368578000181e-10,-9.051726719041944e-12,1.3209747855151757e-06,-8.812219329201483e-07,-9.90831146608356e-09
1668680560.6489537,28360,1668680560,648735404,,1.9501346507899284e-06,2.3510381702254896e-10,-8.585100442913142e-12,1.3388723040583963e-06,-8.845298844153967e-07,-9.962679627178923e-09
1668680560.6558015,28361,1668680560,655690531,,1.9349223916488276e-06,2.2438656969360867e-10,-8.13844389111368e-12,1.3564564121876416e-06,-8.876983642734083e-07,-1.0015341051824407e-08
1668680560.6641688,28362,1668680560,663557153,,1.9170952572354683e-06,2.1407340918279848e-10,-7.711065774773796e-12,1.3737273463670697e-06,-8.90728073772089e-07,-1.0066302545490557e-08
1668680560.6728387,28363,1668680560,672468160,,1.8968950245511643e-06,2.0415277100211292e-10,-7.302314730175268e-12,1.3906853812646443e-06,-8.936197263862467e-07,-1.0115571076022016e-08
1668680560.6809313,28364,1668680560,680631118,,1.8745490480501995e-06,1.946132487400728e-10,-6.911562500624421e-12,1.40733082943249e-06,-8.963740475988395e-07,-1.0163153774992777e-08
1668680560.688433,28365,1668680560,688124767,,1.8502709508524425e-06,1.8544344449365584e-10,-6.538140560178624e-12,1.4236640409341812e-06,-8.989917747151019e-07,-1.0209057925483925e-08
1668680560.696387,28366,1668680560,696138495,,1.8242612882363377e-06,1.7663237878481496e-10,-6.181493960928478e-12,1.4396854030391046e-06,-9.014736566720556e-07,-1.0253290978037497e-08
1668680560.7036564,28367,1668680560,703518718,,1.7967081845177236e-06,1.681690738109002e-10,-5.840994371948971e-12,1.4553953398532847e-06,-9.038204538538144e-07,-1.029586053376792e-08
1668680560.7119336,28368,1668680560,711743363,,1.767787944324631e-06,1.6004263542958746e-10,-5.5160555156394926e-12,1.470794311977475e-06,-9.060329378990728e-07,-1.0336774342009798e-08
1668680560.7198935,28369,1668680560,719679402,,1.7376656385643473e-06,1.522425749720799e-10,-5.206102488038246e-12,1.4858828161607475e-06,-9.081118915159121e-07,-1.0376040306545723e-08
1668680560.7281935,28370,1668680560,728056838,,1.706495666563291e-06,1.447585304380673e-10,-4.9105401128439014e-12,1.5006613849485873e-06,-9.100581082898521e-07,-1.0413666476759862e-08
1668680560.7356002,28371,1668680560,735415388,,1.6744222944927646e-06,1.3758022899628177e-10,-4.628888080880181e-12,1.5151305863381697e-06,-9.11872392501094e-07,-1.044966105499571e-08
1668680560.7439625,28372,1668680560,743828554,,1.6415801716971247e-06,1.3069775363093916e-10,-4.360484374166603e-12,1.5292910234071123e-06,-9.135555589334822e-07,-1.0484032379426966e-08
1668680560.7516713,28373,1668680560,751506425,,1.6080948248066796e-06,1.2410126831978867e-10,-4.1049344479325405e-12,1.5431433339834278e-06,-9.151084326894301e-07,-1.0516788932691337e-08
1668680560.7598834,28374,1668680560,759775343,,1.5740831309369018e-06,1.177812305844485e-10,-3.861723740519479e-12,1.556688190260818e-06,-9.165318490005988e-07,-1.0547939338774732e-08
1668680560.7684536,28375,1668680560,768246375,,1.5396537705964961e-06,1.1172823115925355e-10,-3.6303402536626606e-12,1.5699262984622906e-06,-9.178266530398707e-07,-1.057749235674406e-08
1668680560.7757382,28376,1668680560,775530412,,1.504907660983181e-06,1.0593309286703604e-10,-3.41032573017391e-12,1.5828583984602061e-06,-9.189936997399469e-07,-1.0605456879185307e-08
1668680560.783461,28377,1668680560,783297657,,1.4699383701958823e-06,1.0038693420974548e-10,-3.2011858568969843e-12,1.5954852634268735e-06,-9.200338535922809e-07,-1.0631841932328892e-08
1668680560.7919843,28378,1668680560,791821624,,1.4348325134349104e-06,9.508098149124985e-11,-3.002533498233801e-12,1.6078076994741891e-06,-9.209479884779103e-07,-1.0656656678021138e-08
1668680560.799679,28379,1668680560,799577720,,1.3996701315702938e-06,9.000672448153509e-11,-2.8139193417080817e-12,1.6198265452767763e-06,-9.217369874722199e-07,-1.0679910402114417e-08
1668680560.808309,28380,1668680560,808022282,,1.364525052595675e-06,8.515589536617672e-11,-2.6348506024996196e-12,1.6315426717154418e-06,-9.224017426578562e-07,-1.0701612518724334e-08
1668680560.8165789,28381,1668680560,816262530,,1.3294652369605195e-06,8.052036726095678e-11,-2.4649930228328754e-12,1.6429569815101134e-06,-9.22943154940603e-07,-1.0721772558851535e-08
1668680560.8240273,28382,1668680560,823858746,,1.2945531071704043e-06,7.60923345946517e-11,-2.303928960824148e-12,1.6540704088449954e-06,-9.233621338692462e-07,-1.0740400182095961e-08
1668680560.8326547,28383,1668680560,832516817,,1.2598458620858249e-06,7.186409580334108e-11,-2.1513420449656447e-12,1.6648839190106834e-06,-9.236595974413639e-07,-1.0757505165662148e-08
1668680560.8403575,28384,1668680560,840223427,,1.2253957769451732e-06,6.782823666654237e-11,-2.006810638639751e-12,1.6753985080224546e-06,-9.238364719257767e-07,-1.0773097408702391e-08
1668680560.8486452,28385,1668680560,848472959,,1.1912504892410537e-06,6.397747046826799e-11,-1.8699702899831394e-12,1.6856152022425075e-06,-9.238936916734268e-07,-1.0787186918791106e-08
1668680560.8560717,28386,1668680560,855922892,,1.1574532712429067e-06,6.0304764700251e-11,-1.7405365672494403e-12,1.6955350580371416e-06,-9.238321989398529e-07,-1.0799783818507125e-08
1668680560.8647723,28387,1668680560,864520169,,1.1240432895327231e-06,5.680340287416302e-11,-1.6181207511494484e-12,1.7051591613697976e-06,-9.23652943694388e-07,-1.0810898333662693e-08
1668680560.872522,28388,1668680560,872367044,,1.0910558520384697e-06,5.346665813184335e-11,-1.502457219274721e-12,1.7144886274522057e-06,-9.233568834459859e-07,-1.0820540816093944e-08
1668680560.880512,28389,1668680560,880293498,,-0.000462361326161036,-0.0002228861624979228,7.815597247476807e-05,1.723489579469164e-06,-9.229475864230368e-07,-1.0828724292147145e-08
1668680560.8885632,28390,1668680560,888357745,,-0.001817018614000348,-0.0003226934636946842,0.0020528662674285936,1.7315832197589702e-06,-9.22247594673519e-07,-1.0835508064150484e-08
1668680560.8954625,28391,1668680560,895353113,,-0.0035523401779749084,-0.0003582029200842561,0.004874374675654513,1.7377481403582585e-06,-9.208860948251436e-07,-1.0840991729321736e-08
1668680560.9037173,28392,1668680560,903601290,,-0.0051434897312315105,-0.00038998776642861367,0.00746338655616597,1.7423063563370793e-06,-9.189534022634757e-07,-1.084516411831854e-08
1668680560.9117723,28393,1668680560,911564886,,-0.0057116147146618135,0.0002878560858341217,0.010668265132631692,1.7477752079887932e-06,-9.172913413685562e-07,-1.084782274424212e-08
1668680560.91976,28394,1668680560,919640319,,-0.005754117385976128,0.0017402064123579514,0.0140007336323645,1.753531790181696e-06,-9.157063147734201e-07,-1.0849030028514672e-08
1668680560.9276707,28395,1668680560,927562993,,-0.005533494664478996,0.0035128992249449406,0.017254727693880628,1.7594290309580935e-06,-9.141523159933668e-07,-1.0848808277078015e-08
1668680560.935526,28396,1668680560,935405187,,-0.0062460797921438955,0.004239159066864315,0.020262360638525084,1.7625887080905376e-06,-9.116680579306492e-07,-1.0847434606803263e-08
1668680560.94415,28397,1668680560,943965638,,-0.006890009199977594,0.004899738956306474,0.022992375765772274,1.7653999039842974e-06,-9.090501518874724e-07,-1.0844709477653147e-08
1668680560.951812,28398,1668680560,951619905,,-0.00795957572781037,0.005022585573814644,0.025485244397351788,1.7662454439948503e-06,-9.05755874222472e-07,-1.0840804882256139e-08
1668680560.9622595,28399,1668680560,961852620,,-0.00882552604547776,0.004873453001904289,0.0269249923701296,1.7679298878228283e-06,-9.027295375215925e-07,-1.083546671484803e-08
1668680560.9684718,28400,1668680560,968360906,,-0.009109590270342065,0.004592416090030759,0.027166972091418305,1.7729331482721635e-06,-9.008116964756259e-07,-1.0828443169907942e-08
1668680560.9758964,28401,1668680560,975748923,,-0.009090757070036676,0.004253571219245329,0.026790816555252096,1.7796537580766703e-06,-8.994636022606993e-07,-1.0819885078172664e-08
1668680560.983533,28402,1668680560,983318448,,-0.008663336913056024,0.0038953633517232198,0.0258330958934201,1.7885671785654702e-06,-8.988453794962683e-07,-1.0809734824271389e-08
1668680560.9918013,28403,1668680560,991685139,,-0.008252576694503745,0.0035578139649094062,0.024900082322157912,1.7968728328435663e-06,-8.980113093032564e-07,-1.0798297526981582e-08
1668680560.999815,28404,1668680560,999639069,,-0.007650449744176845,0.00322012872398401,0.023894243771304897,1.8057273513052708e-06,-8.973512704263495e-07,-1.0785456264206239e-08
1668680561.0078204,28405,1668680561,7705791,,-0.0069709856026616505,0.002892337115965601,0.022869222038472872,1.8143359284158962e-06,-8.965970258307501e-07,-1.07713111572455e-08
1668680561.015631,28406,1668680561,15491264,,-0.006273326754537681,0.002579285042222923,0.02191982099231945,1.8223375336097832e-06,-8.956274166626481e-07,-1.0755918763288852e-08
1668680561.0234542,28407,1668680561,23318255,,-0.0055876524861525,0.002283014592816816,0.021023200462030066,1.8295988745407773e-06,-8.943984653375842e-07,-1.0739311108801108e-08
1668680561.0317466,28408,1668680561,31625672,,-0.004945112484986876,0.002005695048073327,0.02015595419617653,1.8360404337089737e-06,-8.928847350731309e-07,-1.0721514223308026e-08
1668680561.039713,28409,1668680561,39591841,,-0.004375821915493126,0.0017449334766600165,0.01953341024417893,1.8416436771168476e-06,-8.91081645603976e-07,-1.0702546563400028e-08
1668680561.0486937,28410,1668680561,48423732,,-0.003981711018382894,0.0015040015894879843,0.0192169987955284,1.8462289670888825e-06,-8.889321609155366e-07,-1.0682446304269289e-08
1668680561.0564983,28411,1668680561,56379955,,-0.0036843632583850442,0.001280448715537875,0.01904401997718661,1.8501577494069117e-06,-8.865579462000563e-07,-1.0661183461220525e-08
1668680561.0635026,28412,1668680561,63377626,,-0.003447528625607649,0.0014729963168170945,0.01905366101351819,1.853264311815189e-06,-8.839067093006296e-07,-1.0638793282100045e-08
1668680561.071747,28413,1668680561,71576297,,-0.0032226144189841763,0.0016474107534883663,0.019024954947713994,1.8560799510314085e-06,-8.811535528578955e-07,-1.0615221861243196e-08
1668680561.079827,28414,1668680561,79660784,,-0.0030626520636503306,0.0018366051695123478,0.019168328617947802,1.8584689229379499e-06,-8.782549005413625e-07,-1.059049958840319e-08
1668680561.0879438,28415,1668680561,87735886,,-0.0029376099301752943,0.002024016608329967,0.019372272618080843,1.8605231522001212e-06,-8.752413990347618e-07,-1.0564627658804504e-08
1668680561.0958397,28416,1668680561,95643433,,-0.002949432607674213,0.002076074045993006,0.019598368696918767,1.8621319720319931e-06,-8.720777011225148e-07,-1.0537633650213596e-08
1668680561.1036048,28417,1668680561,103416329,,-0.003024781478026715,0.002058080570372213,0.019808437305210903,1.8634051853369483e-06,-8.687999911132633e-07,-1.0509516360467097e-08
1668680561.1121044,28418,1668680561,111907673,,-0.0030882196505669056,0.0020374226819841875,0.01996282800394887,1.8644552804734043e-06,-8.654453258413741e-07,-1.0480273856215694e-08
1668680561.1200197,28419,1668680561,119802406,,-0.0029888204120174767,0.001884301385420474,0.019934291976761685,1.8657146348592947e-06,-8.621549287124843e-07,-1.044986065994874e-08
1668680561.1291552,28420,1668680561,128778007,,-0.002692691975523382,0.0016711486647113867,0.019731748484451552,1.8671513267770582e-06,-8.589179950044187e-07,-1.0418292710305532e-08
1668680561.1363888,28421,1668680561,136180369,,-0.0023088949337373467,0.0014359739610148065,0.019433818304805124,1.8684248598751115e-06,-8.556229056861427e-07,-1.0385628504763766e-08
1668680561.1433244,28422,1668680561,143168127,,-0.0018770070951032647,0.0011984761531215586,0.018964959481570728,1.8693947225603508e-06,-8.522237259477185e-07,-1.0351900414130866e-08
1668680561.152321,28423,1668680561,152163414,,-0.0014737834534240574,0.0009790389205200807,0.018495731607289245,1.8699244810612996e-06,-8.486774216463346e-07,-1.0317140650920736e-08
1668680561.1608062,28424,1668680561,160606280,,-0.0010590139385070277,0.0007667823795633464,0.017910669624708657,1.8700857137840868e-06,-8.450072939886378e-07,-1.028135293394683e-08
1668680561.168593,28425,1668680561,168492066,,-0.000652097751455192,0.0005667613052261287,0.017274911547941127,1.8698611091203176e-06,-8.41208714217849e-07,-1.0244553088440897e-08
1668680561.1759155,28426,1668680561,175777355,,-0.0002623790727223741,0.00038133800379607706,0.016646361119826304,1.8692604347195218e-06,-8.372859062702441e-07,-1.0206753135169264e-08
1668680561.184892,28427,1668680561,184731192,,0.00010038138243005164,0.0002129500929038868,0.016034637070903378,1.8683035376847706e-06,-8.332465648447583e-07,-1.0167963601958642e-08
1668680561.1929176,28428,1668680561,192737428,,0.00044366867035641223,5.943701218429214e-05,0.015434883632946263,1.867016352789195e-06,-8.290997084453577e-07,-1.0128194153475288e-08
1668680561.2005663,28429,1668680561,200460576,,0.0007660642864995347,-7.897489686744254e-05,0.014904392027218263,1.8654192917487548e-06,-8.248528438898061e-07,-1.0087455168264828e-08
1668680561.2081447,28430,1668680561,207866959,,0.0010675537914215274,-0.00020246901452481079,0.014433582901415783,1.86353191987466e-06,-8.205131178414384e-07,-1.0045757135434402e-08
1668680561.2154949,28431,1668680561,215383877,,0.0013488301440942668,-0.0003114259453670245,0.01399645767698209,1.8613718699178356e-06,-8.16086975593923e-07,-1.0003110821436845e-08
1668680561.2237406,28432,1668680561,223589224,,0.0016104792728845866,-0.00040619932233570505,0.013566260856199568,1.8589550265067549e-06,-8.115802609403336e-07,-9.959527258462941e-09
1668680561.2317955,28433,1668680561,231651658,,0.0018543707935236773,-0.00048747251339085015,0.013150082504265363,1.8562940828508317e-06,-8.069976600779012e-07,-9.915017936453635e-09
1668680561.2398932,28434,1668680561,239723613,,0.002081612614014849,-0.0005557104167940277,0.012808719730319065,1.8534004249481506e-06,-8.023434393232554e-07,-9.869594572598644e-09
1668680561.2477977,28435,1668680561,247678282,,0.0022933452061489777,-0.000611425927661276,0.012504972909649885,1.8502837467505703e-06,-7.976212773413261e-07,-9.8232691399594e-09
1668680561.2560992,28436,1668680561,255810455,,0.0024907070864166356,-0.0006551148351980415,0.012246675841412594,1.846952269738062e-06,-7.928343430541881e-07,-9.776053850989175e-09
1668680561.2634523,28437,1668680561,263306671,,0.002674799304410108,-0.0006872747853258468,0.012009024318981158,1.8434129524418704e-06,-7.879853689338998e-07,-9.72796111373131e-09
1668680561.2720861,28438,1668680561,271817054,,0.002846658386123339,-0.0007083854143702331,0.01176646001722864,1.83967171479811e-06,-7.83076729504026e-07,-9.679003499726835e-09
1668680561.2803795,28439,1668680561,280060899,,0.0030073333877072305,-0.0007188760423089278,0.011657809892679921,1.8357334831358061e-06,-7.781104542375921e-07,-9.629193747917597e-09
1668680561.28781,28440,1668680561,287675785,,0.0031577626408217196,-0.0007192206261572441,0.011603841401191521,1.8316024812334105e-06,-7.730883311481829e-07,-9.578544708267744e-09
1668680561.2956471,28441,1668680561,295449180,,0.003298839302058799,-0.0007098634163408862,0.011567812450516203,1.827282294797599e-06,-7.680119273769498e-07,-9.52706933829428e-09
1668680561.3035076,28442,1668680561,303385971,,0.003431404764537114,-0.0006912383609526731,0.011494566846643925,1.8227759815548546e-06,-7.62882626984023e-07,-9.474780657096893e-09
1668680561.3117952,28443,1668680561,311619419,,0.0035562580694235603,-0.0006637414299041562,0.011404432084933316,1.8180861691599238e-06,-7.577016645830776e-07,-9.421691772246166e-09
1668680561.3200185,28444,1668680561,319836897,,0.0036741486696277898,-0.0006277725147994278,0.011259555825661896,1.8132151243790422e-06,-7.524701487925735e-07,-9.367815827741877e-09
1668680561.3276432,28445,1668680561,327526930,,0.003785784507516861,-0.000583698540128013,0.011083068577837252,1.8081648368625369e-06,-7.471890911644368e-07,-9.313166013553975e-09
1668680561.3355136,28446,1668680561,335384297,,0.003891824996854324,-0.000503373832283802,0.010873432416925611,1.8029602152615516e-06,-7.418677623032693e-07,-9.25775258016348e-09
1668680561.3440256,28447,1668680561,343872586,,0.0039928968933639715,-0.00041795333426055244,0.010658910989805044,1.797578488966497e-06,-7.364982400322e-07,-9.20159192504405e-09
1668680561.3517678,28448,1668680561,351630327,,0.004089579456522517,-0.0003125670627876825,0.010426975269484183,1.7920336738728052e-06,-7.310858665517605e-07,-9.144695695996463e-09
1668680561.3596592,28449,1668680561,359485197,,0.004182409424958011,-7.131343621526595e-05,0.010213784724752798,1.7864257497855914e-06,-7.256668683439701e-07,-9.087064954671487e-09
1668680561.367909,28450,1668680561,367732385,,0.00427190306368103,0.0002764713577022428,0.010057012588439575,1.7807312972507015e-06,-7.202330996385292e-07,-9.028716353547128e-09
1668680561.3754735,28451,1668680561,375366462,,0.004358539150271825,0.0006684028312785548,0.009924388904147256,1.7748968983687593e-06,-7.147656722383605e-07,-8.96967008046784e-09
1668680561.3836045,28452,1668680561,383486863,,0.004442763491428684,0.0010403281526544339,0.009782668089099594,1.7688692537948738e-06,-7.092457285705713e-07,-8.909946028375082e-09
1668680561.391873,28453,1668680561,391720988,,0.004525009415160643,0.0013909269403577001,0.009891475693106251,1.762648971287653e-06,-7.036737757837384e-07,-8.84955737509574e-09
1668680561.4000828,28454,1668680561,399985651,,0.00419460802749363,0.0015604917378267077,0.010380059120548757,1.7570317143811656e-06,-6.983368535436608e-07,-8.788423142870594e-09
1668680561.4079118,28455,1668680561,407599161,,0.0036788390596887103,0.001640403636800557,0.011025414229145412,1.751441353032562e-06,-6.930297898130334e-07,-8.726626511690316e-09
1668680561.4160447,28456,1668680561,415789160,,0.0030982702900249877,0.001678737341574865,0.011780969415660375,1.7455794092390742e-06,-6.876463552488393e-07,-8.664215737658881e-09
1668680561.4238422,28457,1668680561,423642230,,0.002572424357209427,0.0017248361336039643,0.012453583232969578,1.7392740418083987e-06,-6.821239670134306e-07,-8.601223431842914e-09
1668680561.4316792,28458,1668680561,431539970,,0.0020387596651249853,0.0017541464120891435,0.01314531578462679,1.7326286838946499e-06,-6.765004778534265e-07,-8.537650087771242e-09
1668680561.4398506,28459,1668680561,439651225,,0.00147154240249798,0.0017797094385600728,0.013834170463990415,1.725662998286542e-06,-6.707840353533154e-07,-8.47350615194864e-09
1668680561.4475853,28460,1668680561,447478729,,0.0009109514413062524,0.001808163122945132,0.014482339927337214,1.7183389236493536e-06,-6.649604366702873e-07,-8.40880886861066e-09
1668680561.4555988,28461,1668680561,455439128,,0.00038228226274654594,0.0018427742565035317,0.015072491321926014,1.7106672882089689e-06,-6.590328148805498e-07,-8.343569961994333e-09
1668680561.4637327,28462,1668680561,463630352,,-8.847374390661895e-05,0.001886931469293339,0.015586273401599503,1.7026886288202147e-06,-6.530145168388981e-07,-8.277797887683985e-09
1668680561.4718227,28463,1668680561,471698342,,-0.0005898360057685344,0.001938285370269344,0.01610032189492296,1.6943979069441148e-06,-6.469072731729244e-07,-8.21150623799699e-09
1668680561.479749,28464,1668680561,479623800,,-0.0011015899305908713,0.0019974459550610455,0.016666544066211174,1.6857881131042083e-06,-6.407082100609631e-07,-8.144709059531435e-09
1668680561.4876707,28465,1668680561,487526178,,-0.0015891513462099503,0.002064491872442819,0.017221026112073063,1.6768941213087327e-06,-6.344283568051262e-07,-8.077415685966982e-09
1668680561.4956172,28466,1668680561,495458704,,-0.0020744005880707754,0.0021392839289927313,0.017767533687966904,1.6677047705316033e-06,-6.280649354321074e-07,-8.00964072410898e-09
1668680561.503448,28467,1668680561,503322888,,-0.002529038071675896,0.0022215423262339075,0.018272706939743807,1.6582752282013916e-06,-6.216361894869211e-07,-7.941391180939228e-09
1668680561.511938,28468,1668680561,511779632,,-0.0029235504488593807,0.002311007564991743,0.018701909498315267,1.6486940121420075e-06,-6.151718158244057e-07,-7.872670019365424e-09
1668680561.5196583,28469,1668680561,519518854,,-0.0033593312053331673,0.0024072730757309546,0.019163992904770492,1.6387710818485592e-06,-6.086102860594048e-07,-7.803512762187548e-09
1668680561.5277622,28470,1668680561,527628512,,-0.003793158421484865,0.0025099951103429246,0.019625480855362854,1.6285890644895953e-06,-6.019787452029158e-07,-7.733923276104226e-09
1668680561.535804,28471,1668680561,535645667,,-0.004195941348853073,0.002618824103052979,0.020050863917408554,1.618235249511952e-06,-5.953064686143922e-07,-7.663904526625243e-09
1668680561.5436106,28472,1668680561,543507133,,-0.004511911851328392,0.0027171978685513053,0.020398717112717943,1.6079258950672882e-06,-5.886660080564729e-07,-7.593443209288897e-09
1668680561.5523844,28473,1668680561,552144234,,-0.004772872899588874,0.002822338837241614,0.02067883507212044,1.5975946713383274e-06,-5.820361495543537e-07,-7.522559656789052e-09
1668680561.5605297,28474,1668680561,560207911,,-0.00486776311230098,0.002897628252523378,0.020848443002573908,1.5876927284435064e-06,-5.755681611923562e-07,-7.45120952438949e-09
1668680561.5680997,28475,1668680561,567907201,,-0.004863158192621471,0.0029623104250890275,0.020938235653732,1.5780118621879668e-06,-5.691932432333327e-07,-7.379429223935974e-09
1668680561.575518,28476,1668680561,575401994,,-0.0047864037130012594,0.003020322468045803,0.02095494697415942,1.5684595169435214e-06,-5.628808131158435e-07,-7.307241527143571e-09
1668680561.5837655,28477,1668680561,583632442,,-0.004683583481772731,0.0030891553600616273,0.02092899277876084,1.5588551407940332e-06,-5.565707700016555e-07,-7.234681241238827e-09
1668680561.591897,28478,1668680561,591739948,,-0.0045350359170545805,0.0031593379038773587,0.02085075935161399,1.5492731632840066e-06,-5.502881921072903e-07,-7.161750664730349e-09
1668680561.5999079,28479,1668680561,599696860,,-0.004499626514783989,0.0032406536521111962,0.0208485144857379,1.5391806090595548e-06,-5.438553087463657e-07,-7.088532710461393e-09
1668680561.6078987,28480,1668680561,607763412,,-0.004510979446074617,0.0033241524973540433,0.02090560351563474,1.5288156501961232e-06,-5.373519147546869e-07,-7.0150093962884075e-09
1668680561.6154907,28481,1668680561,615336238,,-0.004528941961999304,0.003413353514657353,0.02096996880156982,1.5183077830319182e-06,-5.308214689253772e-07,-6.941176074887201e-09
1668680561.6237721,28482,1668680561,623636718,,-0.0045119397300808885,0.003511945006072474,0.020987873214604876,1.5077928765762952e-06,-5.243096104378298e-07,-6.867026353801764e-09
1668680561.632005,28483,1668680561,631854474,,-0.004503186052942694,0.0036226301856764434,0.021062682794199976,1.4971264992462072e-06,-5.177682810702275e-07,-6.79259213980099e-09
1668680561.6397247,28484,1668680561,639587417,,-0.004646819980525126,0.0037865763132483485,0.021237282346220354,1.4857729828428849e-06,-5.110184126204365e-07,-6.7179615603069065e-09
1668680561.6481986,28485,1668680561,647959409,,-0.004842655165695645,0.0039780577297027515,0.02143402013806586,1.4740762434356031e-06,-5.041749502996838e-07,-6.6431003926947785e-09
1668680561.6557488,28486,1668680561,655612790,,-0.005050058813536657,0.004188257905887252,0.021636524622862086,1.4621759591253023e-06,-4.972847244895558e-07,-6.5680017900110466e-09
1668680561.6640785,28487,1668680561,663864993,,-0.005204584005065078,0.004398559927549891,0.021780338421138568,1.450341509522953e-06,-4.904383792625954e-07,-6.4926389091446435e-09
1668680561.6720831,28488,1668680561,671835806,,-0.005342794980419275,0.004617942562690098,0.02190351377777242,1.4384372035410796e-06,-4.835906683902183e-07,-6.41704305144597e-09
1668680561.6797101,28489,1668680561,679537702,,-0.0054580799926258845,0.004841386826970617,0.022040052273331456,1.4265044000666324e-06,-4.767557466778174e-07,-6.341219795785724e-09
1668680561.6879447,28490,1668680561,687767162,,-0.005463771246843365,0.005066219198792748,0.02216134113485324,1.414919407124283e-06,-4.7006060463112317e-07,-6.2651232309723914e-09
1668680561.6956022,28491,1668680561,695449986,,-0.005397524766239955,0.005291053271028611,0.022249856882606573,1.4035436401580099e-06,-4.6345890747159237e-07,-6.188783914160001e-09
1668680561.704028,28492,1668680561,703772204,,-0.005297420865724728,0.005514465150649588,0.02228748102198873,1.3922223416267074e-06,-4.5689873088498433e-07,-6.112235951746814e-09
1668680561.7119558,28493,1668680561,711659604,,-0.0051617550254261435,0.005737200944387798,0.02228900930315319,1.380961541976348e-06,-4.503822791245991e-07,-6.035489136246852e-09
1668680561.7198906,28494,1668680561,719779261,,-0.004997415849295469,0.005958524871735503,0.02224644336932076,1.3697316485672455e-06,-4.438997346487461e-07,-5.9585588945559875e-09
1668680561.727851,28495,1668680561,727676697,,-0.004793960514218884,0.006136036038804829,0.022173816825725463,1.3586326305983076e-06,-4.3748491603787546e-07,-5.881439798724464e-09
1668680561.7355695,28496,1668680561,735393883,,-0.004554583236523366,0.0062828454656431955,0.022068927279244067,1.3476214521244468e-06,-4.3112341605773823e-07,-5.804149128332825e-09
1668680561.7439044,28497,1668680561,743721326,,-0.004294776081761635,0.006434250731100823,0.021928786305372875,1.336577190108143e-06,-4.247745968308041e-07,-5.7267174509434415e-09
1668680561.7517505,28498,1668680561,751643915,,-0.004009784167617123,0.006572576825999709,0.021759430570657535,1.3255356455140735e-06,-4.1845061373420116e-07,-5.6491498701127796e-09
1668680561.7598767,28499,1668680561,759722482,,-0.0037580184899623104,0.006747817032873251,0.02160314388954438,1.314214492396495e-06,-4.120566167235254e-07,-5.57150521551808e-09
1668680561.7679358,28500,1668680561,767789689,,-0.003465053566763206,0.006927574894528208,0.02140520007195822,1.30293177429945e-06,-4.056997422070287e-07,-5.4937412275607445e-09
1668680561.7758672,28501,1668680561,775693161,,-0.0031448371090340693,0.0071103510192281226,0.021174592966544538,1.2916287104874512e-06,-3.9936028844083987e-07,-5.415878696901633e-09
1668680561.7835221,28502,1668680561,783301733,,-0.002799485930042556,0.007285171086042989,0.020909904132087754,1.2803010456567747e-06,-3.9303688484468736e-07,-5.3379292461880334e-09
1668680561.7917814,28503,1668680561,791651537,,-0.0024432497761667765,0.007462559869721057,0.02062488021715161,1.2688831283457906e-06,-3.867075679348593e-07,-5.2599152984555975e-09
1668680561.799865,28504,1668680561,799651242,,-0.0020645187115851094,0.007641644079564891,0.020297065942116395,1.2574057330719076e-06,-3.803827312043068e-07,-5.181842505433409e-09
1668680561.8078046,28505,1668680561,807614441,,-0.0016715086419397823,0.007822779119451182,0.019942089062362337,1.2458370044382176e-06,-3.740517644730589e-07,-5.103727467557773e-09
1668680561.8157737,28506,1668680561,815630467,,-0.0012619303722919768,0.008011507915302021,0.019595179626884167,1.2341722756243983e-06,-3.6771317295545636e-07,-5.02558199916292e-09
1668680561.8235867,28507,1668680561,823434171,,-0.0008424668236804429,0.008204578076360047,0.019247268138021422,1.222393208254405e-06,-3.613609062290749e-07,-4.947420349267484e-09
1668680561.8319466,28508,1668680561,831794481,,-0.00041993174610397755,0.008398754968633198,0.01888887947336759,1.2104856055889266e-06,-3.5499033148091456e-07,-4.869255987999255e-09
1668680561.839732,28509,1668680561,839569786,,3.195601352278689e-05,0.008550115031828233,0.01852027011839589,1.1985263766532068e-06,-3.4862695581037843e-07,-4.791085706119802e-09
1668680561.8480008,28510,1668680561,847726220,,0.0005216234026745809,0.008675323546313536,0.018120863549752154,1.1864910976267017e-06,-3.4226245025313076e-07,-4.71292455235528e-09
1668680561.8555944,28511,1668680561,855391356,,0.0010275487715013473,0.008790885164964311,0.017704904418531196,1.1743106134475461e-06,-3.358738312878761e-07,-4.634795822307247e-09
1668680561.864731,28512,1668680561,864313756,,0.0015275454821438927,0.008913950302143576,0.017286886197453655,1.161942746293782e-06,-3.2944737663959594e-07,-4.5567178892994e-09
1668680561.871913,28513,1668680561,871729151,,0.002131656555044963,0.00903433717892349,0.016804163910847398,1.1494824425631653e-06,-3.2301311445008795e-07,-4.478683758276161e-09
1668680561.8797503,28514,1668680561,879621314,,0.0028717820345524887,0.009108267666234135,0.016236537433832444,1.1368482460932568e-06,-3.165421137622636e-07,-4.400718928588426e-09
1668680561.8876808,28515,1668680561,887564461,,0.0036650758604129586,0.009165136831660644,0.01563425065791727,1.1238685990443494e-06,-3.099777747620218e-07,-4.322865414696682e-09
1668680561.895346,28516,1668680561,895215394,,0.004500380355178148,0.00925255002438866,0.015007627874513188,1.1104842377030527e-06,-3.0330049275416744e-07,-4.245144144847043e-09
1668680561.9038284,28517,1668680561,903628240,,0.00529877873468009,0.009350571067297251,0.014400914693661414,1.096729317329115e-06,-2.965237184377969e-07,-4.167558137133098e-09
1668680561.9118624,28518,1668680561,911715783,,0.006101503106433873,0.009467667469334648,0.013792022270073628,1.0826073918402176e-06,-2.8964782950006995e-07,-4.090115812878381e-09
1668680561.9196925,28519,1668680561,919566590,,0.006955583540577542,0.009502602333073446,0.013133725732296507,1.067968218055198e-06,-2.826194044020452e-07,-4.012853565930896e-09
1668680561.9277148,28520,1668680561,927544073,,0.007851238569403469,0.00945030247905794,0.01244639945020139,1.0527199920555346e-06,-2.754071715163045e-07,-3.935795816860377e-09
1668680561.9354575,28521,1668680561,935243192,,0.008744478528793814,0.009366173711814491,0.011759623428486219,1.036944169240873e-06,-2.68040564468117e-07,-3.858934173942008e-09
1668680561.943787,28522,1668680561,943667999,,0.009589753939985325,0.009307746154579946,0.011103910138119146,1.0208626539620445e-06,-2.6059722850273713e-07,-3.782234532512252e-09
1668680561.952017,28523,1668680561,951812525,,0.010320352422570145,0.009251467273617938,0.010519753384333148,1.0047975423329355e-06,-2.5318898593294044e-07,-3.7056458179751672e-09
1668680561.9597774,28524,1668680561,959613158,,0.011030749343012257,0.009131280696704918,0.010059617267308788,9.883903603506228e-07,-2.456901129762137e-07,-3.6292396362463952e-09
1668680561.9678552,28525,1668680561,967712266,,0.011713102250752372,0.008994300179734648,0.009668050824569955,9.717604260427328e-07,-2.3814207369396217e-07,-3.5530009091094827e-09
1668680561.975525,28526,1668680561,975380317,,0.012354658048890004,0.008817584537326666,0.009358388250226958,9.54964150161203e-07,-2.305642876636229e-07,-3.4769260994632623e-09
1668680561.9842613,28527,1668680561,983966146,,0.01296288434954704,0.008676701887392776,0.009054721672117143,9.381458848771598e-07,-2.2300666582694912e-07,-3.4009970742432394e-09
1668680561.9918985,28528,1668680561,991649193,,0.013537099599774591,0.008531451941055427,0.008794294038097885,9.21280250398463e-07,-2.1546015419846064e-07,-3.3252254283411276e-09
1668680561.9999158,28529,1668680561,999730411,,0.013981536934941065,0.008403383190188287,0.008681682277248753,9.050606538716472e-07,-2.0816488980663793e-07,-3.2495046202452027e-09
1668680562.0080507,28530,1668680562,7727527,,0.014318929003494997,0.008321635562413577,0.008689960205289712,8.895230783113623e-07,-2.0113292018562098e-07,-3.173842445802766e-09
1668680562.015945,28531,1668680562,15781565,,0.014598433640392615,0.008276960961437266,0.008748675161853197,8.743938453793429e-07,-1.942692074222152e-07,-3.0982964284442804e-09
1668680562.023784,28532,1668680562,23628200,,0.014870650635435266,0.00826049313060088,0.008785485431301929,8.593387516805148e-07,-1.874579362616275e-07,-3.0229301874185044e-09
1668680562.0316017,28533,1668680562,31463681,,0.015151217358776612,0.008246302641930478,0.008830845816236142,8.441923140843968e-07,-1.8064179489995493e-07,-2.9477774457498107e-09
1668680562.03984,28534,1668680562,39708744,,0.015614390907190818,0.008420149468496696,0.00893719691033172,8.281592332026592e-07,-1.735456249018271e-07,-2.8729624859669123e-09
1668680562.0478,28535,1668680562,47643861,,0.01615547962400577,0.008691284357449286,0.009060900934160883,8.117181615808794e-07,-1.6633507366413912e-07,-2.798414625027057e-09
1668680562.0554602,28536,1668680562,55322297,,0.01710391667970204,0.009205341524911936,0.009200827453964151,7.926416540052401e-07,-1.5824017064622288e-07,-2.7244489546329742e-09
1668680562.0639474,28537,1668680562,63793061,,0.01798913629423184,0.009703360177488612,0.009311549027605804,7.737431207821956e-07,-1.5023355414274476e-07,-2.6506576794593784e-09
1668680562.0717432,28538,1668680562,71546664,,0.01904589757958648,0.010312482595691178,0.009418353859674107,7.534188519048855e-07,-1.417611144679978e-07,-2.577260120595337e-09
1668680562.0797215,28539,1668680562,79572906,,0.020149993833319176,0.011518961514672509,0.00964727015435448,7.342362802167837e-07,-1.3370924898498896e-07,-2.5039143154714782e-09
1668680562.0876794,28540,1668680562,87567548,,0.021308598882535047,0.013073163271398751,0.010009530601484774,7.154718728183624e-07,-1.258278785578248e-07,-2.430729281049926e-09
1668680562.09561,28541,1668680562,95459651,,0.022451857528415314,0.014745956644602529,0.010413666548351819,6.970915708354652e-07,-1.1810506315599809e-07,-2.3577198630941876e-09
1668680562.103762,28542,1668680562,103661964,,0.023507833098253432,0.016301949369601575,0.010765316461483872,6.790426427788054e-07,-1.105224696224677e-07,-2.2849027773996777e-09
1668680562.1127865,28543,1668680562,112478107,,0.024650446664574204,0.018093210886828113,0.01127203086378013,6.608245317155114e-07,-1.0290736728979077e-07,-2.212342694457581e-09
1668680562.119939,28544,1668680562,119792248,,0.02582493013579035,0.02008879586382058,0.011915245916057608,6.429131208793629e-07,-9.542371067329612e-08,-2.139992870409113e-09
1668680562.1277463,28545,1668680562,127597683,,0.026969056244479914,0.022110305325592206,0.012589380624244846,6.253387817200997e-07,-8.808187371188783e-08,-2.067860278842648e-09
1668680562.1355836,28546,1668680562,135468606,,0.028037478485731137,0.02405116893535206,0.013282872725428977,6.082250679200895e-07,-8.092436063367615e-08,-1.9959440142325313e-09
1668680562.1444628,28547,1668680562,144037672,,0.02901538456573862,0.025837382673486686,0.013895398128771365,5.914766986189551e-07,-7.391828817061245e-08,-1.924265226327382e-09
1668680562.1518574,28548,1668680562,151594319,,0.0299183463436789,0.027518787421205622,0.014483682373104045,5.75138922898332e-07,-6.707919915165637e-08,-1.8528316311772208e-09
1668680562.1604846,28549,1668680562,160352932,,0.03071437388768374,0.02902465048249909,0.01499184551980299,5.593240275541839e-07,-6.044574486145475e-08,-1.7816469827236503e-09
1668680562.1678712,28550,1668680562,167703404,,0.031516517768829584,0.030329724424940186,0.015345335033662578,5.425590847344774e-07,-5.3510571696325365e-08,-1.7108292768575062e-09
1668680562.1759448,28551,1668680562,175739440,,0.03228588402968241,0.03148118461757307,0.015595782250858815,5.254984850778404e-07,-4.649881431913368e-08,-1.6403246885787759e-09
1668680562.1835988,28552,1668680562,183472973,,0.033020527149606085,0.032441712551587544,0.015784482053577117,5.079920802184186e-07,-3.935861921111356e-08,-1.5701413710877965e-09
1668680562.1918125,28553,1668680562,191612904,,0.03368340373724867,0.033310521657622716,0.015927229307084283,4.909545854547262e-07,-3.2404742212146544e-08,-1.5002276573805595e-09
1668680562.200047,28554,1668680562,199787919,,0.03433790775966821,0.03409557633282274,0.016114254295065022,4.7360828548678e-07,-2.5369413627252153e-08,-1.4306322723700582e-09
1668680562.207934,28555,1668680562,207757924,,0.03495587263303009,0.03480131259575028,0.016300826244961646,4.5634443574156264e-07,-1.8387136105466224e-08,-1.3613378965771084e-09
1668680562.2155614,28556,1668680562,215389837,,0.03552144064209616,0.03543227113721926,0.016506495003508485,4.394113919129676e-07,-1.1543281816517315e-08,-1.2923416989329972e-09
1668680562.2237399,28557,1668680562,223571490,,0.036025134908494946,0.03599300301673273,0.016663446720221055,4.2298210933507715e-07,-4.897318259906511e-09,-1.2236493415751504e-09
1668680562.2319808,28558,1668680562,231864113,,0.036478178373839584,0.036488723741470615,0.016809984564136106,4.069455156026575e-07,1.5889824174324108e-09,-1.1552768672262737e-09
1668680562.2398014,28559,1668680562,239631867,,0.03687564048386601,0.036892807492899415,0.016976183041655216,3.9125691896795597e-07,7.931022703378324e-09,-1.0872366063008343e-09
1668680562.248193,28560,1668680562,247969313,,0.037187577109014776,0.03722817080495198,0.01714884697810018,3.7647989240203236e-07,1.3934942804587173e-08,-1.0195359070874765e-09
1668680562.255753,28561,1668680562,255620655,,0.037436952487624645,0.03750683888746729,0.017302174846521714,3.623621262848582e-07,1.9687418359838962e-08,-9.521973071136003e-10
1668680562.2646005,28562,1668680562,264408093,,0.037647475160875764,0.03774071691371152,0.01740933314497446,3.486274692555947e-07,2.5283375296278505e-08,-8.852364882794284e-10
1668680562.2719266,28563,1668680562,271748372,,0.03784187089208246,0.03798349493387746,0.01763035856967918,3.352188489245131e-07,3.074244960162009e-08,-8.186645805707826e-10
1668680562.2798796,28564,1668680562,279725528,,0.03811273810257299,0.038330879695106894,0.01794657233658664,3.2124516421592683e-07,3.637114829853436e-08,-7.524733058872357e-10
1668680562.2879798,28565,1668680562,287769061,,0.03840160525770145,0.038705237022042455,0.01828039187524276,3.071777781609624e-07,4.200763943846327e-08,-6.866677920713826e-10
1668680562.296108,28566,1668680562,295846689,,0.03872220727149059,0.03916927596243183,0.018673407067031637,2.931320738073541e-07,4.7612392643629244e-08,-6.212536457494977e-10
1668680562.3044746,28567,1668680562,304208295,,0.03899761583337111,0.039572250011875046,0.018998637142475048,2.7949804433700194e-07,5.3051421200164296e-08,-5.562513435974914e-10
1668680562.3118896,28568,1668680562,311732900,,0.03927041888479173,0.039994332129546624,0.019325056907212652,2.660480244135615e-07,5.8403012754941475e-08,-4.916616141992236e-10
1668680562.31982,28569,1668680562,319645747,,0.039568380093073646,0.04035093950205503,0.019532022644420985,2.519031989027076e-07,6.396939803245735e-08,-4.2744131151239984e-10
1668680562.327903,28570,1668680562,327769944,,0.039851399558353255,0.040622377905925454,0.019681912445213206,2.3757799735932977e-07,6.957405853725337e-08,-3.6361133548545865e-10
1668680562.335709,28571,1668680562,335595358,,0.04010672055865329,0.04082977978834509,0.01978006643032956,2.2338763393161404e-07,7.510882563740041e-08,-3.0019300933936677e-10
1668680562.3438334,28572,1668680562,343609044,,0.040321082296806046,0.04099477567692244,0.01983152812003028,2.0966671979638033e-07,8.045877787122863e-08,-2.3721844627511146e-10
1668680562.3521223,28573,1668680562,351921817,,0.04061861453125034,0.041174997095468506,0.02000650837661324,1.9473491320664378e-07,8.620149701227091e-08,-1.7455444728531333e-10
1668680562.3600123,28574,1668680562,359890429,,0.04095109958720244,0.04134349143495405,0.02026926094055842,1.7920202115501247e-07,9.212791573251587e-08,-1.1223325047104993e-10
1668680562.367761,28575,1668680562,367656461,,0.04127790550736291,0.04148726209285828,0.020546143667919705,1.6365169193806274e-07,9.803779462747887e-08,-5.0302345622199596e-11
1668680562.3755634,28576,1668680562,375439107,,0.041479222123348806,0.04169167330200557,0.02088932752148022,1.505748737709047e-07,1.0307527817420611e-07,1.0963174812417265e-11
1668680562.3838928,28577,1668680562,383672136,,0.041642935980996984,0.04185384473229434,0.021164280073222096,1.3794809064921745e-07,1.0793504675633576e-07,7.174210531202263e-11
1668680562.3918788,28578,1668680562,391719013,,0.04173073124404118,0.04202913388105104,0.021443846558114054,1.267414815226981e-07,1.1228373905886133e-07,1.3189997705165268e-10
1668680562.4001925,28579,1668680562,400080258,,0.04182502229094519,0.04228092481125477,0.021768124571473355,1.1592583440428071e-07,1.164746536679159e-07,1.915386946271802e-10
1668680562.4077735,28580,1668680562,407563403,,0.042065707787490324,0.042490141899996794,0.022096810918557235,1.0243766389924237e-07,1.2156039385367075e-07,2.510804272826128e-10
1668680562.4156756,28581,1668680562,415487375,,0.042358898813797514,0.04265835856852001,0.0223945182235674,8.786398146190923e-08,1.2699679214386687e-07,3.1035011366364884e-10
1668680562.4237428,28582,1668680562,423619423,,0.04275654335576379,0.04295070114707871,0.02272365795948426,7.223994039290763e-08,1.327723148871916e-07,3.6936742553450586e-10
1668680562.431913,28583,1668680562,431674455,,0.04310071178652477,0.04319329181221379,0.022982073174803372,5.728985841995694e-08,1.3829515968391635e-07,4.2787198090143974e-10
1668680562.4401555,28584,1668680562,439994595,,0.043524709635418594,0.043579380043764396,0.023281028716099196,4.180950559227363e-08,1.43978940788758e-07,4.860564173370108e-10
1668680562.448427,28585,1668680562,448202187,,0.0439606877143481,0.044008223751929844,0.023566658278539005,2.639655601320871e-08,1.4961874816659618e-07,5.438250474942841e-10
1668680562.456446,28586,1668680562,456302891,,0.04438879704875108,0.044445266312435054,0.02395955475300777,1.1203729749660867e-08,1.5516230322842103e-07,6.011474096290215e-10
1668680562.4639287,28587,1668680562,463806872,,0.04478561371023707,0.04485669905309676,0.024367387179940424,-3.538179048031588e-09,1.6053046192907386e-07,6.579723502153634e-10
1668680562.4724011,28588,1668680562,472186613,,0.04512679925622762,0.045206793318676296,0.024695057999030136,-1.7584119430880726e-08,1.6563910036041136e-07,7.142378077862332e-10
1668680562.4807487,28589,1668680562,480533014,,0.04551636487776299,0.04551453597387885,0.025068585803190817,-3.276178990390625e-08,1.711157918316171e-07,7.703214663368207e-10
1668680562.4878166,28590,1668680562,487673047,,0.04577930974231195,0.04584675596557905,0.025535635258960982,-4.5331933252264114e-08,1.7567716640090603e-07,8.254120165140932e-10
1668680562.4958673,28591,1668680562,495632666,,0.04595881315872053,0.04616482134134437,0.026006524138852394,-5.6326268311698586e-08,1.7967665404692093e-07,8.796822922874092e-10
1668680562.5038395,28592,1668680562,503640239,,0.046098944779271865,0.04642761567180244,0.026389033448033526,-6.68424942588822e-08,1.8349070837579695e-07,9.333568709579687e-10
1668680562.5117471,28593,1668680562,511567330,,0.04629936849443825,0.046694994559916464,0.02673981994426174,-7.842163086074034e-08,1.8764842505368529e-07,9.86810647085612e-10
1668680562.5203059,28594,1668680562,520074187,,0.046567215181647956,0.04695848042730118,0.027005955997128104,-9.126871730206826e-08,1.9222082727268774e-07,1.040125652274071e-09
1668680562.5279775,28595,1668680562,527851974,,0.04684563283385362,0.047195496734122495,0.027195793653150224,-1.0443246148167558e-07,1.9688203658726512e-07,1.0930802651909488e-09
1668680562.53566,28596,1668680562,535480396,,0.047015854057288524,0.04749887426140354,0.027370579579522537,-1.149557519625503e-07,2.006172038866369e-07,1.1448602413310915e-09
1668680562.5438092,28597,1668680562,543704238,,0.0471471134033978,0.047747070979148,0.027477686232222968,-1.24989333310805e-07,2.0416375144704027e-07,1.1960128998289576e-09
1668680562.5517783,28598,1668680562,551649248,,0.047209929680189125,0.04800516082762184,0.027550906406428845,-1.335138336737234e-07,2.0717173393990096e-07,1.2462227499954182e-09
1668680562.5596962,28599,1668680562,559591519,,0.047127904562028845,0.04840731723266222,0.02782456567740293,-1.3813201729483268e-07,2.088177801062418e-07,1.2947155153542056e-09
1668680562.5677161,28600,1668680562,567526804,,0.046999703195522026,0.0488641711925878,0.028265016160462314,-1.4144610259117117e-07,2.0999361550057098e-07,1.342204410115233e-09
1668680562.5757506,28601,1668680562,575582275,,0.04684244296468093,0.04931530369459658,0.028743640240750046,-1.4421476696174643e-07,2.109592936666918e-07,1.3889005223699513e-09
1668680562.586497,28602,1668680562,586278622,,0.04675941824073877,0.04981217662497337,0.029295052478775358,-1.4813943846766174e-07,2.122988317324482e-07,1.4353564101177163e-09
1668680562.5920012,28603,1668680562,591787002,,0.04666002497724014,0.05023586452667761,0.02974526993952945,-1.5218672517574834e-07,2.1365823082790912e-07,1.4812506499151112e-09
1668680562.5998843,28604,1668680562,599746080,,0.04652249228668774,0.050570204648577394,0.03019588093048295,-1.560315591476731e-07,2.149261741624369e-07,1.5264734268272129e-09
1668680562.6076374,28605,1668680562,607477265,,0.04636155040511901,0.050831980458905836,0.03060146793294707,-1.59852682669328e-07,2.1616414150500696e-07,1.5710844916694278e-09
1668680562.615833,28606,1668680562,615689408,,0.04615175789723894,0.05089489923457398,0.03070695695181163,-1.6394542704699843e-07,2.174737108222519e-07,1.6151929307928192e-09
1668680562.6235194,28607,1668680562,623379611,,0.045916529210112904,0.05084214021776127,0.030633807914798777,-1.6822795606156798e-07,2.1882712375486703e-07,1.6587760817698971e-09
1668680562.6317263,28608,1668680562,631615497,,0.045680335919626947,0.050759145686572596,0.030506084997214,-1.7263033462319938e-07,2.2020067106439528e-07,1.7018129891410716e-09
1668680562.6398458,28609,1668680562,639659382,,0.04552224020576881,0.050591929336636934,0.030104156658387355,-1.7896832378301152e-07,2.2221785636871317e-07,1.7450229525262095e-09
1668680562.647692,28610,1668680562,647553927,,0.045422047584595664,0.05036069634381957,0.02957471380097184,-1.8671132719360077e-07,2.2469757639622702e-07,1.7882434075189302e-09
1668680562.6560144,28611,1668680562,655814619,,0.04534567881409545,0.050091409923380584,0.028976205225411174,-1.9504794754440693e-07,2.273621260066947e-07,1.8311782368218843e-09
1668680562.6639485,28612,1668680562,663693219,,0.04545779751307135,0.04992054898381312,0.02844120071395545,-2.0627378762662135e-07,2.3099983105035263e-07,1.8748071498042584e-09
1668680562.6717756,28613,1668680562,671621147,,0.04554417072073191,0.04973209728369915,0.0278924047476594,-2.170344080022193e-07,2.3446083316752252e-07,1.917770747761338e-09
1668680562.6796772,28614,1668680562,679565941,,0.04578939390212165,0.04964742005693619,0.027410247549163453,-2.3014299183223138e-07,2.387106122062922e-07,1.961288055574162e-09
1668680562.6883175,28615,1668680562,688029765,,0.04609509632742936,0.04960222152239975,0.02695367903060747,-2.4413794059009557e-07,2.4324876938229545e-07,2.0047724313965176e-09
1668680562.6957347,28616,1668680562,695623500,,0.046457965502017376,0.04968151048303252,0.02653666258826787,-2.584403024317181e-07,2.4787724555623905e-07,2.047988077735763e-09
1668680562.703464,28617,1668680562,703278689,,0.04682689748786818,0.049805152361436886,0.02613000242055685,-2.7255155292193285e-07,2.524253660471376e-07,2.0907162598393647e-09
1668680562.7123284,28618,1668680562,712025473,,0.04714882577450149,0.049889597452825764,0.025704013881211425,-2.85928561173307e-07,2.56706956316315e-07,2.1326993226988833e-09
1668680562.720058,28619,1668680562,719802474,,0.04747681983117215,0.050132770229979355,0.025405263455368143,-2.983387870309027e-07,2.606421819230636e-07,2.1738090910661256e-09
1668680562.7277863,28620,1668680562,727590664,,0.04781705137183491,0.050426275289442435,0.02505459337693064,-3.106156370027502e-07,2.645168241095872e-07,2.21443186704251e-09
1668680562.7364643,28621,1668680562,735835750,,0.04814157910694789,0.05071916294586399,0.02466883297527366,-3.2251165864755375e-07,2.6824617989145913e-07,2.254443916271942e-09
1668680562.7438858,28622,1668680562,743595597,,0.048600383171123966,0.051051356612211496,0.024187288353112877,-3.369481943024037e-07,2.7283257614274005e-07,2.295328552226472e-09
1668680562.7519116,28623,1668680562,751784802,,0.04900329908686504,0.05132684809869571,0.023696191656699186,-3.5054992627718594e-07,2.771194640587872e-07,2.3354094075278553e-09
1668680562.7599158,28624,1668680562,759670201,,0.04948904468068915,0.051634039343042296,0.023200218638753677,-3.657153502832416e-07,2.819295494189706e-07,2.375937266374528e-09
1668680562.7676005,28625,1668680562,767496892,,0.04998670426302093,0.05192964690825598,0.022699889848411783,-3.81227841979206e-07,2.8684648413512294e-07,2.4163078343741873e-09
1668680562.7755227,28626,1668680562,775371168,,0.050537856733582985,0.05213694704378219,0.022267800132718438,-3.9858841901477173e-07,2.9238561036074376e-07,2.4573624524126814e-09
1668680562.7841556,28627,1668680562,783983464,,0.051023366833302594,0.052296392169210934,0.02182602579781866,-4.1483577051688045e-07,2.97532362637928e-07,2.4975079504496733e-09
1668680562.7919235,28628,1668680562,791818932,,0.051508255002283426,0.052393511152437226,0.021415221091807424,-4.3154550233732167e-07,3.0282696392896005e-07,2.5376153955924963e-09
1668680562.7996137,28629,1668680562,799482899,,0.05195268414205465,0.052483766241922976,0.021078210442784687,-4.473732114249171e-07,3.078088646032897e-07,2.5769269842990106e-09
1668680562.807932,28630,1668680562,807738008,,0.0524286429077119,0.052518789354363604,0.020808438761848246,-4.643818207631452e-07,3.1318546889376464e-07,2.6166413133466015e-09
1668680562.815666,28631,1668680562,815490859,,0.05289015789108486,0.05251107363540401,0.02056254343389675,-4.813940842032967e-07,3.1855396067617843e-07,2.656096377562367e-09
1668680562.8238099,28632,1668680562,823661850,,0.05329014956792353,0.052473139760234204,0.02029558980940511,-4.971400748898574e-07,3.2347918056522575e-07,2.6945232434183453e-09
1668680562.8318923,28633,1668680562,831723245,,0.05386913122483029,0.05244309597448427,0.020015190386215992,-5.173305198496168e-07,3.2991916551461907e-07,2.7354493808973146e-09
1668680562.8398056,28634,1668680562,839651667,,0.05463786378400079,0.05252901048344016,0.019709546832886983,-5.415833936585845e-07,3.3774559138463264e-07,2.7787922379785e-09
1668680562.8478246,28635,1668680562,847634522,,0.055456702211827816,0.05265347371339373,0.019385476451283863,-5.670859612639688e-07,3.459965806052682e-07,2.8228879095371084e-09
1668680562.8560352,28636,1668680562,855781753,,0.056413835981311604,0.05291330141865982,0.01912598176453464,-5.95471743423991e-07,3.5523341128536855e-07,2.8688724035275115e-09
1668680562.8634834,28637,1668680562,863300564,,0.05738795877288789,0.053214756321477014,0.018890173687298464,-6.243663862017185e-07,3.646441835388533e-07,2.915278060622306e-09
1668680562.8716874,28638,1668680562,871543010,,0.05825323609397392,0.05346175078033592,0.018635857544361985,-6.510550424865778e-07,3.7329908650547174e-07,2.9602926637783966e-09
1668680562.8797703,28639,1668680562,879651155,,0.0592937391897751,0.053689926577113065,0.01817840820299563,-6.832939673203416e-07,3.838564100518832e-07,3.0092452280028326e-09
1668680562.8881664,28640,1668680562,887907731,,0.06042125833812857,0.053863517761960494,0.017691058574131346,-7.19139903487603e-07,3.956539180761942e-07,3.0609981216400683e-09
