Time,header.seq,header.stamp.secs,header.stamp.nsecs,header.frame_id,pose.position.x,pose.position.y,pose.position.z,pose.orientation.x,pose.orientation.y,pose.orientation.z,pose.orientation.w
1668680560.2563546,28311,1668680560,255989359,,-0.09879823366397636,-0.6160097985874543,0.07088206677675317,0.9955612031580644,0.09352317090531181,-0.004348156735646737,0.009612533655878828
1668680560.2636533,28312,1668680560,263518936,,-0.09879832830816199,-0.6160097985759992,0.07088206677621174,0.9955612031740957,0.09352317086502922,-0.0043481544886462735,0.009612533403876258
1668680560.2719276,28313,1668680560,271771005,,-0.09879841518244672,-0.6160097985648512,0.07088206677568779,0.9955612031916012,0.09352317082434902,-0.004348152187912793,0.009612533027334929
1668680560.2799003,28314,1668680560,279799494,,-0.0987984947293896,-0.6160097985540083,0.07088206677518065,0.9955612032105675,0.0935231707832798,-0.004348149834167363,0.00961253252729135
1668680560.288058,28315,1668680560,287930960,,-0.09879856737103583,-0.6160097985434672,0.07088206677469004,0.9955612032309803,0.09352317074183,-0.004348147428131852,0.009612531904789405
1668680560.2959273,28316,1668680560,295729293,,-0.09879863350970472,-0.6160097985332247,0.07088206677421566,0.9955612032528255,0.09352317070000733,-0.004348144970529265,0.009612531160881043
1668680560.3035512,28317,1668680560,303412931,,-0.09879869352875452,-0.6160097985232771,0.07088206677375718,0.9955612032760889,0.0935231706578208,-0.004348142462083452,0.009612530296624669
1668680560.3128138,28318,1668680560,312582185,,-0.09879874779332444,-0.616009798513621,0.07088206677331438,0.9955612033007565,0.09352317061527843,-0.004348139903518972,0.009612529313086092
1668680560.320189,28319,1668680560,320050031,,-0.09879879665105436,-0.6160097985042522,0.0708820667728868,0.9955612033268136,0.0935231705723884,-0.004348137295561033,0.00961252821133778
1668680560.3280735,28320,1668680560,327775174,,-0.0987988404327816,-0.6160097984951662,0.07088206677247404,0.9955612033542462,0.09352317052915894,-0.004348134638935492,0.009612526992458952
1668680560.3355637,28321,1668680560,335431479,,-0.09879887945321517,-0.6160097984863588,0.07088206677207602,0.9955612033830398,0.09352317048559838,-0.004348131934368624,0.009612525657535264
1668680560.344202,28322,1668680560,344048745,,-0.0987989140115905,-0.6160097984778247,0.07088206677169238,0.9955612034131798,0.0935231704417149,-0.004348129182587077,0.00961252420765839
1668680560.352206,28323,1668680560,352040141,,-0.0987989443923006,-0.6160097984695596,0.0708820667713224,0.9955612034446516,0.09352317039751697,-0.0043481263843176,0.00961252264392605
1668680560.3600338,28324,1668680560,359895984,,-0.09879897086550944,-0.6160097984615581,0.07088206677096603,0.9955612034774408,0.09352317035301218,-0.004348123540287468,0.009612520967442209
1668680560.3677351,28325,1668680560,367584354,,-0.09879899368774146,-0.6160097984538153,0.07088206677062264,0.9955612035115327,0.093523170308209,-0.004348120651223789,0.009612519179315876
1668680560.3755217,28326,1668680560,375334032,,-0.0987990131024544,-0.616009798446326,0.07088206677029234,0.9955612035469126,0.09352317026311563,-0.00434811771785395,0.00961251728066253
1668680560.3841186,28327,1668680560,383893358,,-0.09879902934059129,-0.616009798439085,0.07088206676997427,0.9955612035835656,0.09352317021773994,-0.0043481147409048385,0.009612515272601804
1668680560.3923106,28328,1668680560,392207932,,-0.09879904262111366,-0.6160097984320867,0.07088206676966848,0.9955612036214769,0.09352317017209004,-0.004348111721103457,0.009612513156259227
1668680560.4005566,28329,1668680560,400373995,,-0.098799053151516,-0.6160097984253258,0.07088206676937459,0.9955612036606319,0.09352317012617399,-0.004348108659176395,0.009612510932765102
1668680560.4086337,28330,1668680560,408467485,,-0.09879906112832341,-0.6160097984187968,0.07088206676909183,0.9955612037010156,0.09352317007999951,-0.004348105555849816,0.009612508603254036
1668680560.4160728,28331,1668680560,415881893,,-0.0987990667375693,-0.6160097984124945,0.07088206676882053,0.995561203742613,0.09352317003357499,-0.004348102411849532,0.00961250616886597
1668680560.424888,28332,1668680560,424726026,,-0.09879907015525906,-0.6160097984064129,0.07088206676855997,0.9955612037854092,0.09352316998690796,-0.004348099227900839,0.00961250363074473
1668680560.4320743,28333,1668680560,431936503,,-0.09879907154781344,-0.6160097984005473,0.07088206676830992,0.9955612038293894,0.09352316994000674,-0.004348096004728197,0.009612500990038284
1668680560.440388,28334,1668680560,440231286,,-0.09879907107249918,-0.6160097983948913,0.0708820667680699,0.9955612038745382,0.09352316989287879,-0.00434809274305554,0.009612498247898695
1668680560.4486928,28335,1668680560,448541883,,-0.09879906887784072,-0.61600979838944,0.07088206676783977,0.9955612039208406,0.09352316984553234,-0.0043480894436058095,0.009612495405482025
1668680560.455578,28336,1668680560,455437901,,-0.09879906510401959,-0.6160097983841882,0.0708820667676192,0.995561203968282,0.09352316979797466,-0.004348086107101247,0.009612492463948057
1668680560.4636323,28337,1668680560,463540069,,-0.09879905988325494,-0.61600979837913,0.07088206676740787,0.9955612040168467,0.09352316975021405,-0.004348082734262917,0.009612489424459714
1668680560.4717677,28338,1668680560,471638451,,-0.09879905334017407,-0.6160097983742602,0.07088206676720536,0.9955612040665197,0.09352316970225787,-0.004348079325810897,0.00961248628818335
1668680560.4797556,28339,1668680560,479645415,,-0.09879904559216482,-0.6160097983695737,0.07088206676701139,0.9955612041172861,0.09352316965411407,-0.0043480758824640895,0.009612483056288782
1668680560.48782,28340,1668680560,487641652,,-0.09879903674971711,-0.6160097983650654,0.07088206676682582,0.9955612041691306,0.09352316960578995,-0.004348072404940196,0.009612479729948395
1668680560.495796,28341,1668680560,495627508,,-0.09879902691674888,-0.6160097983607294,0.07088206676664828,0.995561204222038,0.09352316955729366,-0.004348068893955559,0.009612476310337398
1668680560.503556,28342,1668680560,503316038,,-0.09879901619092199,-0.6160097983565614,0.07088206676647846,0.9955612042759929,0.09352316950863201,-0.004348065350225167,0.00961247279863366
1668680560.512028,28343,1668680560,511773322,,-0.0987990046639418,-0.6160097983525559,0.07088206676631616,0.9955612043309804,0.09352316945981347,-0.004348061774462449,0.009612469196017687
1668680560.5198612,28344,1668680560,519717024,,-0.09879899242184934,-0.6160097983487081,0.07088206676616121,0.995561204386985,0.09352316941084468,-0.0043480581673793085,0.009612465503672164
1668680560.5280058,28345,1668680560,527897541,,-0.09879897954529644,-0.6160097983450132,0.07088206676601316,0.9955612044439917,0.09352316936173366,-0.004348054529685966,0.009612461722781619
1668680560.5353978,28346,1668680560,535286835,,-0.09879896610981515,-0.6160097983414664,0.07088206676587168,0.9955612045019852,0.09352316931248747,-0.00434805086209105,0.009612457854532665
1668680560.5439332,28347,1668680560,543786323,,-0.09879895218607114,-0.616009798338063,0.07088206676573677,0.9955612045609499,0.09352316926311391,-0.0043480471653012664,0.009612453900113952
1668680560.5517561,28348,1668680560,551615782,,-0.09879893784011033,-0.6160097983347982,0.07088206676560814,0.9955612046208708,0.09352316921361988,-0.00434804344002148,0.009612449860715196
1668680560.5597258,28349,1668680560,559609280,,-0.09879892313359248,-0.6160097983316676,0.07088206676548547,0.9955612046817329,0.09352316916401279,-0.004348039686954756,0.009612445737528065
1668680560.5678368,28350,1668680560,567744029,,-0.09879890812401661,-0.6160097983286669,0.0708820667653684,0.9955612047435205,0.09352316911429995,-0.004348035906801755,0.009612441531745168
1668680560.5757802,28351,1668680560,575601291,,-0.09879889286493693,-0.6160097983257916,0.070882066765257,0.9955612048062186,0.09352316906448853,-0.004348032100261435,0.009612437244560262
1668680560.5838223,28352,1668680560,583702733,,-0.0987988774061674,-0.6160097983230375,0.07088206676515091,0.9955612048698119,0.09352316901458585,-0.004348028268030444,0.009612432877168358
1668680560.59176,28353,1668680560,591653884,,-0.09879886179398081,-0.6160097983204004,0.07088206676504984,0.9955612049342851,0.09352316896459877,-0.004348024410803117,0.009612428430764713
1668680560.6001086,28354,1668680560,599950245,,-0.0987988460712958,-0.6160097983178766,0.07088206676495383,0.995561204999623,0.09352316891453463,-0.004348020529271792,0.009612423906545892
1668680560.6079328,28355,1668680560,607747748,,-0.0987988302778582,-0.6160097983154619,0.07088206676486232,0.9955612050658104,0.0935231688644002,-0.004348016624125884,0.009612419305708102
1668680560.6156995,28356,1668680560,615586569,,-0.09879881445041284,-0.6160097983131518,0.07088206676477538,0.995561205132832,0.09352316881420245,-0.004348012696052798,0.0096124146294484
1668680560.6234732,28357,1668680560,623372044,,-0.09879879862286778,-0.6160097983109439,0.07088206676469283,0.9955612052006726,0.09352316876394846,-0.004348008745737213,0.009612409878964067
1668680560.6317697,28358,1668680560,631574607,,-0.09879878282645285,-0.6160097983088332,0.0708820667646143,0.9955612052693172,0.09352316871364504,-0.004348004773861287,0.009612405055451976
1668680560.640203,28359,1668680560,639973357,,-0.09879876708986852,-0.6160097983068172,0.07088206676454006,0.9955612053387505,0.09352316866329907,-0.004348000781104669,0.009612400160109552
1668680560.6489482,28360,1668680560,648735404,,-0.09879875143942947,-0.6160097983048919,0.07088206676446951,0.9955612054089572,0.09352316861291728,-0.004347996768143981,0.009612395194132973
1668680560.6557853,28361,1668680560,655690531,,-0.09879873589920125,-0.6160097983030539,0.07088206676440253,0.9955612054799224,0.09352316856250646,-0.0043479927356533,0.009612390158718636
1668680560.6640966,28362,1668680560,663557153,,-0.0987987204911307,-0.6160097983013001,0.07088206676433909,0.995561205551631,0.09352316851207323,-0.004347988684303736,0.009612385055061954
1668680560.6728313,28363,1668680560,672468160,,-0.09879870523516947,-0.6160097982996273,0.07088206676427905,0.9955612056240677,0.09352316846162433,-0.004347984614763541,0.009612379884358176
1668680560.6809266,28364,1668680560,680631118,,-0.09879869014939317,-0.6160097982980319,0.07088206676422207,0.9955612056972177,0.09352316841116606,-0.004347980527697961,0.00961237464780063
1668680560.6884604,28365,1668680560,688124767,,-0.09879867525011321,-0.6160097982965119,0.07088206676416839,0.9955612057710659,0.09352316836070532,-0.00434797642376924,0.009612369346582779
1668680560.6963835,28366,1668680560,696138495,,-0.0987986605519841,-0.6160097982950637,0.07088206676411754,0.995561205845597,0.09352316831024843,-0.004347972303636559,0.009612363981896105
1668680560.7036366,28367,1668680560,703518718,,-0.09879864606810625,-0.6160097982936842,0.0708820667640695,0.9955612059207966,0.09352316825980167,-0.004347968167955829,0.009612358554930924
1668680560.7119217,28368,1668680560,711743363,,-0.09879863181012169,-0.6160097982923713,0.07088206676402412,0.9955612059966493,0.0935231682093716,-0.004347964017379834,0.009612353066876137
1668680560.71989,28369,1668680560,719679402,,-0.09879861778830752,-0.6160097982911223,0.07088206676398114,0.9955612060731406,0.09352316815896441,-0.004347959852557968,0.009612347518918995
1668680560.7281773,28370,1668680560,728056838,,-0.09879860401166213,-0.6160097982899342,0.07088206676394083,0.9955612061502551,0.09352316810858662,-0.00434795567413646,0.009612341912245213
1668680560.7355893,28371,1668680560,735415388,,-0.09879859048799025,-0.616009798288805,0.07088206676390232,0.9955612062279786,0.09352316805824415,-0.004347951482758013,0.009612336248038086
1668680560.7439492,28372,1668680560,743828554,,-0.09879857722398042,-0.6160097982877318,0.07088206676386648,0.995561206306296,0.09352316800794329,-0.004347947279062042,0.009612330527479666
1668680560.7516656,28373,1668680560,751506425,,-0.09879856422528042,-0.6160097982867128,0.07088206676383269,0.9955612063851924,0.09352316795769022,-0.004347943063684329,0.009612324751749005
1668680560.7598739,28374,1668680560,759775343,,-0.09879855149656859,-0.6160097982857452,0.0708820667638008,0.9955612064646533,0.0935231679074909,-0.004347938837257133,0.009612318922023544
1668680560.7684455,28375,1668680560,768246375,,-0.09879853904162114,-0.616009798284827,0.07088206676377086,0.9955612065446642,0.09352316785735126,-0.004347934600409253,0.009612313039477684
1668680560.7757297,28376,1668680560,775530412,,-0.09879852686337541,-0.6160097982839565,0.07088206676374259,0.9955612066252102,0.09352316780727733,-0.004347930353765412,0.009612307105283675
1668680560.783452,28377,1668680560,783297657,,-0.09879851496399117,-0.6160097982831312,0.07088206676371626,0.9955612067062769,0.09352316775727515,-0.004347926097947171,0.00961230112061112
1668680560.7919736,28378,1668680560,791821624,,-0.09879850334490767,-0.6160097982823493,0.0708820667636915,0.9955612067878497,0.09352316770735038,-0.004347921833572037,0.009612295086626458
1668680560.7996705,28379,1668680560,799577720,,-0.09879849200689705,-0.616009798281609,0.070882066763668,0.9955612068699142,0.0935231676575089,-0.004347917561253694,0.009612289004493457
1668680560.808296,28380,1668680560,808022282,,-0.09879848095011626,-0.6160097982809082,0.07088206676364622,0.995561206952456,0.09352316760775617,-0.004347913281602029,0.009612282875372805
1668680560.8165557,28381,1668680560,816262530,,-0.09879847017415523,-0.6160097982802456,0.07088206676362574,0.9955612070354608,0.0935231675580981,-0.004347908995223161,0.009612276700421793
1668680560.8240166,28382,1668680560,823858746,,-0.09879845967808183,-0.6160097982796191,0.07088206676360682,0.9955612071189143,0.09352316750854023,-0.004347904702719008,0.00961227048079475
1668680560.8326445,28383,1668680560,832516817,,-0.0987984494604859,-0.6160097982790274,0.07088206676358895,0.9955612072028021,0.09352316745908823,-0.0043479004046876836,0.009612264217642216
1668680560.840348,28384,1668680560,840223427,,-0.09879843951951921,-0.6160097982784685,0.07088206676357221,0.9955612072871101,0.09352316740974745,-0.004347896101723094,0.009612257912110962
1668680560.8486369,28385,1668680560,848472959,,-0.09879842985293409,-0.6160097982779411,0.07088206676355682,0.9955612073718241,0.0935231673605233,-0.004347891794415335,0.009612251565344997
1668680560.8560388,28386,1668680560,855922892,,-0.09879842045811917,-0.6160097982774443,0.07088206676354226,0.9955612074569302,0.09352316731142095,-0.004347887483350054,0.009612245178483489
1668680560.8646097,28387,1668680560,864520169,,-0.09879841133213284,-0.6160097982769758,0.07088206676352891,0.9955612075424142,0.09352316726244629,-0.004347883169109061,0.009612238752662464
1668680560.8725119,28388,1668680560,872367044,,-0.09879840247173631,-0.6160097982765348,0.07088206676351641,0.9955612076282625,0.0935231672136041,-0.004347878852269745,0.009612232289013487
1668680560.8805158,28389,1668680560,880293498,,-0.09880024755073748,-0.616010689824585,0.07088237938821863,0.9955612077144605,0.09352316716489949,-0.004347874533401865,0.009612225788701518
1668680560.888558,28390,1668680560,888357745,,-0.0988093650818471,-0.6160128722636716,0.07089090344185849,0.9955612078009858,0.0935231671163358,-0.0043478702133461266,0.009612219253648982
1668680560.8954523,28391,1668680560,895353113,,-0.09883084260527722,-0.6160155963199844,0.07091861227298851,0.9955612078877825,0.09352316706791297,-0.00434786589422717,0.009612212688688357
1668680560.9036958,28392,1668680560,903601290,,-0.098865626078308,-0.6160185898270705,0.07096796311246356,0.9955612079747681,0.09352316701962818,-0.004347861579283672,0.009612206100932302
1668680560.9117382,28393,1668680560,911564886,,-0.09890904689425199,-0.6160189993678808,0.07104048950023831,0.9955612080619064,0.09352316697148493,-0.004347857269994503,0.009612199493406031
1668680560.91975,28394,1668680560,919640319,,-0.09895491046922922,-0.6160108883466111,0.07113916546968911,0.9955612081492288,0.09352316692349354,-0.004347852965235694,0.009612192863299495
1668680560.9276605,28395,1668680560,927562993,,-0.09900006173556002,-0.6159898773562412,0.07126418756563373,0.9955612082367447,0.09352316687566149,-0.004347848664666841,0.009612186209674516
1668680560.9355166,28396,1668680560,935405187,,-0.09904718083604845,-0.6159588709653319,0.07141425584732995,0.9955612083244181,0.09352316682799108,-0.004347844369721283,0.009612179535628252
1668680560.9441402,28397,1668680560,943965638,,-0.09909972603157598,-0.6159223172954371,0.07158727472655141,0.9955612084121616,0.093523166780479,-0.004347840083791976,0.009612172848686491
1668680560.951803,28398,1668680560,951619905,,-0.09915912517077907,-0.6158826301355383,0.0717811848329507,0.9955612084999358,0.09352316673312702,-0.004347835808444738,0.009612166152225307
1668680560.9622478,28399,1668680560,961852620,,-0.09922626604437203,-0.6158430474217684,0.07199082538790924,0.9955612085876935,0.09352316668593597,-0.00434783154552959,0.009612159450268913
1668680560.968463,28400,1668680560,968360906,,-0.09929800654083037,-0.6158051842761223,0.07220719301661944,0.9955612086755078,0.0935231666389198,-0.004347827292243809,0.009612152736397704
1668680560.975887,28401,1668680560,975748923,,-0.09937080773576247,-0.6157698000528284,0.07242302404827047,0.9955612087635013,0.09352316659209768,-0.004347823043836422,0.00961214599984808
1668680560.9835117,28402,1668680560,983318448,,-0.09944182371806996,-0.6157372034518729,0.07263351970929749,0.9955612088517568,0.09352316654548465,-0.004347818797119565,0.009612139233373729
1668680560.9917908,28403,1668680560,991685139,,-0.09950948700904837,-0.615707389932184,0.07283645244295552,0.9955612089403287,0.09352316649909248,-0.004347814549984604,0.0096121324321463
1668680560.9998047,28404,1668680560,999639069,,-0.09957309873796068,-0.6156802772812832,0.0730316297987853,0.995561209029207,0.09352316645292574,-0.0043478103028477474,0.009612125597000028
1668680561.0078099,28405,1668680561,7705791,,-0.09963158411602432,-0.615655826545774,0.07321868372855422,0.9955612091184032,0.09352316640699172,-0.004347806055270516,0.009612118726847094
1668680561.0156198,28406,1668680561,15491264,,-0.0996845610438418,-0.6156339392769586,0.07339783996345527,0.9955612092079004,0.09352316636129449,-0.004347801807927738,0.009612111823101043
1668680561.023446,28407,1668680561,23318255,,-0.09973200467391684,-0.6156144893738243,0.07356961211044215,0.9955612092976692,0.09352316631583626,-0.004347797561979099,0.009612104888270369
1668680561.0317323,28408,1668680561,31625672,,-0.0997741354748821,-0.6155973338903601,0.07373432879073062,0.9955612093876748,0.09352316627061881,-0.004347793318777384,0.009612097925308365
1668680561.0397012,28409,1668680561,39591841,,-0.09981141902765811,-0.6155823309276366,0.0738930862762404,0.9955612094778803,0.0935231662256435,-0.004347789079770713,0.009612090937395608
1668680561.0486732,28410,1668680561,48423732,,-0.09984484905854575,-0.61556933496842,0.07404808789401027,0.995561209568245,0.0935231661809111,-0.004347784846523693,0.009612083927995799
1668680561.056487,28411,1668680561,56379955,,-0.0998755132952162,-0.6155581970532156,0.07420113193226892,0.9955612096587292,0.09352316613642243,-0.004347780620584137,0.00961207690055633
1668680561.0634942,28412,1668680561,63377626,,-0.09990404087068464,-0.6155471832269803,0.07435352273499077,0.9955612097493007,0.09352316609217866,-0.0043477764031816,0.009612069857819351
1668680561.0717366,28413,1668680561,71576297,,-0.09993072144031367,-0.6155347015344363,0.0745058372772699,0.9955612098399306,0.09352316604818228,-0.004347772195422842,0.0096120628022615
1668680561.079817,28414,1668680561,79660784,,-0.09995586254324708,-0.6155207655199013,0.0746586104688403,0.9955612099306035,0.09352316600443573,-0.004347767997897193,0.009612055735177764
1668680561.0879378,28415,1668680561,87735886,,-0.09997986364237695,-0.6155053231250515,0.07481277292215915,0.9955612100213015,0.09352316596094247,-0.004347763811289686,0.009612048658091935
1668680561.0958238,28416,1668680561,95643433,,-0.10000341186654389,-0.6154889229005923,0.07496865547462984,0.9955612101120075,0.0935231659177051,-0.004347759636242379,0.009612041572434797
1668680561.103595,28417,1668680561,103416329,,-0.10002730877240117,-0.6154723864268457,0.0751262826571358,0.9955612102027033,0.09352316587472635,-0.004347755473457058,0.009612034479780285
1668680561.1120458,28418,1668680561,111907673,,-0.10005176081355259,-0.615456004523257,0.07528536768390753,0.9955612102933749,0.09352316583200966,-0.004347751323449014,0.009612027381276207
1668680561.120006,28419,1668680561,119802406,,-0.100076068954208,-0.6154403176192766,0.07544495611450493,0.9955612103840188,0.09352316578955909,-0.004347747186365222,0.009612020277223387
1668680561.129106,28420,1668680561,128778007,,-0.10009879493576232,-0.6154260956888341,0.07560362024244602,0.9955612104746429,0.09352316574738044,-0.004347743061887634,0.009612013166849473
1668680561.1363842,28421,1668680561,136180369,,-0.10011880119434738,-0.6154136670064669,0.07576028248842197,0.9955612105652497,0.09352316570547888,-0.0043477389499284045,0.009612006049909156
1668680561.1433156,28422,1668680561,143168127,,-0.10013554468011063,-0.6154031289107056,0.07591387760704342,0.9955612106558293,0.09352316566385764,-0.004347734850858999,0.009611998927212739
1668680561.1523154,28423,1668680561,152163414,,-0.10014894772798692,-0.6153944185654316,0.0760637203852172,0.9955612107463658,0.0935231656225194,-0.004347730765282811,0.009611991800109842
1668680561.1607955,28424,1668680561,160606280,,-0.10015907878557193,-0.6153874349360207,0.07620934602459768,0.9955612108368408,0.09352316558146655,-0.004347726693907864,0.009611984670201012
1668680561.1685848,28425,1668680561,168492066,,-0.10016592309797531,-0.6153821004016732,0.0763500883948008,0.9955612109272368,0.09352316554070149,-0.004347722637373054,0.009611977538929502
1668680561.1759052,28426,1668680561,175777355,,-0.10016958088029002,-0.6153783076640104,0.07648577353358728,0.995561211017537,0.09352316550022606,-0.004347718596326346,0.009611970407769737
1668680561.184882,28427,1668680561,184731192,,-0.10017022875645323,-0.615375930194511,0.0766164975755989,0.9955612111077243,0.09352316546004301,-0.0043477145713895285,0.009611963278146453
1668680561.1929045,28428,1668680561,192737428,,-0.10016805245010635,-0.6153748403483981,0.07674237570879305,0.9955612111977833,0.09352316542015422,-0.0043477105631433,0.00961195615139852
1668680561.200556,28429,1668680561,200460576,,-0.10016321342969185,-0.6153749182487677,0.07686373285549036,0.9955612112876993,0.09352316538056206,-0.004347706572125507,0.00961194902877333
1668680561.2081113,28430,1668680561,207866959,,-0.10015587888297584,-0.6153760438112776,0.07698108479426344,0.9955612113774586,0.09352316534126892,-0.004347702598837581,0.009611941911440474
1668680561.2154853,28431,1668680561,215383877,,-0.10014621328136775,-0.6153780992009006,0.07709480499378757,0.9955612114670483,0.09352316530227708,-0.004347698643745784,0.009611934800497046
1668680561.2237318,28432,1668680561,223589224,,-0.10013437598124231,-0.6153809695208897,0.07720505590627541,0.9955612115564567,0.0935231652635887,-0.004347694707285586,0.009611927696974524
1668680561.2317853,28433,1668680561,231651658,,-0.10012051652259893,-0.6153845440389141,0.0773119213180908,0.9955612116456719,0.09352316522520646,-0.0043476907898649915,0.009611920601847767
1668680561.2398818,28434,1668680561,239723613,,-0.1001047725432699,-0.615388716638199,0.07741575655847814,0.9955612117346833,0.09352316518713258,-0.0043476868918694445,0.009611913516044004
1668680561.247788,28435,1668680561,247678282,,-0.1000872726724441,-0.6153933850699108,0.07751701135785864,0.9955612118234802,0.09352316514936944,-0.0043476830136642665,0.009611906440449548
1668680561.2560694,28436,1668680561,255810455,,-0.10006813643043855,-0.615398451140056,0.07761601797822641,0.9955612119120532,0.09352316511191919,-0.004347679155597031,0.009611899375915039
1668680561.2634423,28437,1668680561,263306671,,-0.10004747437472955,-0.6154038206152461,0.07771304080344246,0.9955612120003923,0.09352316507478414,-0.004347675318000775,0.009611892323261423
1668680561.272071,28438,1668680561,271817054,,-0.10002538851272648,-0.6154094031718184,0.07780814276714249,0.9955612120884882,0.09352316503796662,-0.0043476715011953205,0.009611885283284176
1668680561.2803698,28439,1668680561,280060899,,-0.10000197253204773,-0.6154151121861826,0.07790183986072317,0.9955612121763322,0.09352316500146875,-0.004347667705489702,0.009611878256757357
1668680561.2877982,28440,1668680561,287675785,,-0.09997731214067089,-0.6154208645619532,0.07799488647579358,0.9955612122639151,0.09352316496529303,-0.0043476639311832155,0.00961187124443714
1668680561.2956426,28441,1668680561,295449180,,-0.09995148572684949,-0.6154265808932958,0.07808757310079549,0.9955612123512287,0.09352316492944089,-0.004347660178567106,0.009611864247064604
1668680561.3034897,28442,1668680561,303385971,,-0.09992456473830175,-0.6154321852804584,0.07817982263271576,0.9955612124382641,0.09352316489391502,-0.0043476564479249915,0.009611857265367398
1668680561.3117707,28443,1668680561,311619419,,-0.0998966140712596,-0.6154376051725872,0.07827141864614484,0.9955612125250134,0.09352316485871717,-0.004347652739534599,0.009611850300062433
1668680561.320007,28444,1668680561,319836897,,-0.09986769242028698,-0.6154427711802902,0.07836207462191606,0.995561212611468,0.09352316482384955,-0.004347649053667456,0.009611843351857058
1668680561.3276322,28445,1668680561,327526930,,-0.09983785265855641,-0.6154476170048006,0.07845144514753698,0.9955612126976201,0.09352316478931341,-0.004347645390590081,0.009611836421449872
1668680561.335505,28446,1668680561,335384297,,-0.09980714218290851,-0.6154519652207707,0.07853927118851227,0.9955612127834619,0.09352316475511124,-0.0043476417505507745,0.00961182950950328
1668680561.3440158,28447,1668680561,343872586,,-0.09977560325684834,-0.6154556504555138,0.07862540059955227,0.9955612128689862,0.09352316472124453,-0.00434763813378007,0.00961182261664464
1668680561.351759,28448,1668680561,351630327,,-0.09974327330874903,-0.6154585724575293,0.07870974418614365,0.9955612129541852,0.09352316468771543,-0.004347634540526394,0.009611815743542026
1668680561.3596542,28449,1668680561,359485197,,-0.09971018529634723,-0.6154601078989086,0.07879230729045923,0.9955612130390534,0.09352316465452525,-0.004347630970960154,0.009611808890699614
1668680561.3679042,28450,1668680561,367732385,,-0.09967636798449192,-0.6154592872011502,0.07887339056043723,0.9955612131235875,0.09352316462167644,-0.004347627425144239,0.009611802058395015
1668680561.3754637,28451,1668680561,375366462,,-0.09964184615347779,-0.6154555076466443,0.07895331625629276,0.9955612132077828,0.0935231645891708,-0.004347623903200965,0.009611795247035265
1668680561.3835952,28452,1668680561,383486863,,-0.09960664088426491,-0.6154486726665245,0.07903214457303742,0.9955612132916323,0.09352316455700953,-0.004347620405347744,0.00961178845723231
1668680561.391865,28453,1668680561,391720988,,-0.09957076976530856,-0.6154389476714468,0.07911084122283443,0.9955612133751276,0.09352316452519417,-0.0043476169318641235,0.009611781689733674
1668680561.400074,28454,1668680561,399985651,,-0.09953589135230984,-0.615427142109896,0.07919192736541412,0.9955612134582718,0.09352316449372719,-0.004347613482544156,0.009611774944256118
1668680561.4077942,28455,1668680561,407599161,,-0.09950439766236774,-0.6154143386942095,0.07927754922431642,0.9955612135410836,0.09352316446261172,-0.004347610056571553,0.009611768219228434
1668680561.416044,28456,1668680561,415789160,,-0.09947728934984042,-0.6154010623558979,0.07936877470061139,0.9955612136235598,0.09352316443184971,-0.004347606653997653,0.009611761514942451
1668680561.4238372,28457,1668680561,423642230,,-0.09945460668785952,-0.6153874482854523,0.0794657128570162,0.9955612137056855,0.09352316440144147,-0.004347603275334884,0.009611754832676926
1668680561.4316711,28458,1668680561,431539970,,-0.09943616207782631,-0.6153735326103436,0.07956810838780969,0.995561213787443,0.09352316437138694,-0.004347599921236191,0.009611748174006493
1668680561.439833,28459,1668680561,439651225,,-0.09942212100246497,-0.6153593974641407,0.0796760262599097,0.9955612138688175,0.09352316434168646,-0.004347596592215793,0.009611741540217829
1668680561.4475677,28460,1668680561,447478729,,-0.09941259115821671,-0.6153450462568354,0.07978929222800651,0.9955612139497941,0.09352316431234019,-0.004347593288787338,0.009611734932601139
1668680561.4555876,28461,1668680561,455439128,,-0.09940741834770944,-0.6153304427841046,0.07990751148372448,0.9955612140303574,0.09352316428334845,-0.004347590011505528,0.009611728352528642
1668680561.4637213,28462,1668680561,463630352,,-0.09940624322570984,-0.6153155242168306,0.08003014648299409,0.9955612141104923,0.09352316425471113,-0.004347586760891147,0.009611721801292357
1668680561.4718144,28463,1668680561,471698342,,-0.09940895658175244,-0.6153002236203077,0.08015689280253642,0.9955612141901855,0.09352316422642848,-0.004347583537414776,0.009611715280080178
1668680561.4797392,28464,1668680561,479623800,,-0.0994157224165394,-0.6152844810092415,0.08028796019840163,0.9955612142694231,0.09352316419850056,-0.004347580341551444,0.009611708790109747
1668680561.487661,28465,1668680561,487526178,,-0.09942648551382263,-0.6152682335810595,0.08042351041332534,0.9955612143481917,0.0935231641709276,-0.004347577173766802,0.009611702332572037
1668680561.4956079,28466,1668680561,495458704,,-0.09944113985672197,-0.6152514188119061,0.08056346458768987,0.9955612144264784,0.09352316414370922,-0.004347574034492285,0.009611695908579666
1668680561.5034373,28467,1668680561,503322888,,-0.09945955374129414,-0.6152339758290545,0.080707625492229,0.9955612145042713,0.09352316411684598,-0.004347570924139573,0.009611689519206082
1668680561.511928,28468,1668680561,511779632,,-0.09948136421071388,-0.615215845912615,0.08085552391365244,0.9955612145815609,0.09352316409033795,-0.004347567843007637,0.009611683165268843
1668680561.5196486,28469,1668680561,519518854,,-0.09950649586574743,-0.6151969731072762,0.08100698747357787,0.9955612146583381,0.0935231640641853,-0.004347564791397149,0.009611676847596274
1668680561.5277393,28470,1668680561,527628512,,-0.09953510595687637,-0.6151773043622685,0.08116214532015271,0.995561214734589,0.09352316403838791,-0.004347561769776445,0.009611670567406526
1668680561.5358036,28471,1668680561,535645667,,-0.09956706248331847,-0.6151567893965978,0.0813208506586297,0.9955612148103037,0.09352316401294573,-0.004347558778470866,0.00961166432559225
1668680561.543601,28472,1668680561,543507133,,-0.09960189400335417,-0.6151354455676916,0.08148264895321618,0.9955612148854777,0.09352316398785926,-0.004347555817583943,0.009611658122545453
1668680561.5523274,28473,1668680561,552144234,,-0.09963903323400108,-0.6151132876317655,0.08164695914757467,0.9955612149601123,0.09352316396312989,-0.004347552887007195,0.00961165195818332
1668680561.5605102,28474,1668680561,560207911,,-0.09967759583248688,-0.6150904078825138,0.08181306825950184,0.9955612150342134,0.09352316393875902,-0.004347549986450266,0.009611645832018796
1668680561.5680878,28475,1668680561,567907201,,-0.09971651954676211,-0.6150669681802203,0.08198021498714067,0.9955612151077968,0.09352316391474952,-0.00434754711522374,0.009611639742668135
1668680561.5755038,28476,1668680561,575401994,,-0.09975511780105037,-0.6150430376418212,0.08214778774293013,0.9955612151808716,0.0935231638911031,-0.004347544272926079,0.009611633689404103
1668680561.5837562,28477,1668680561,583632442,,-0.09979299774587884,-0.6150185996897422,0.0823153235393386,0.9955612152534405,0.09352316386782074,-0.004347541459362241,0.0096116276719705
1668680561.5918806,28478,1668680561,591739948,,-0.09982987220414917,-0.6149936056344267,0.08248244259592909,0.9955612153255028,0.09352316384490345,-0.004347538674498898,0.009611621690478116
1668680561.599904,28479,1668680561,599696860,,-0.09986601086088523,-0.6149680056520704,0.08264923972636423,0.9955612153970519,0.09352316382235061,-0.004347535918520999,0.009611615745534628
1668680561.607869,28480,1668680561,607763412,,-0.09990205330921653,-0.6149417464576643,0.0828162562236403,0.9955612154680689,0.093523163800161,-0.004347533192080229,0.00961160983880584
1668680561.6154816,28481,1668680561,615336238,,-0.0999382130224405,-0.6149147964690581,0.08298375853945296,0.9955612155385438,0.09352316377833374,-0.004347530495484287,0.009611603971181744
1668680561.6237307,28482,1668680561,623636718,,-0.09997437656468405,-0.6148870952730388,0.08315158994673151,0.9955612156084729,0.09352316375686905,-0.004347527828816329,0.009611598143045418
1668680561.6319935,28483,1668680561,631854474,,-0.10001043709911031,-0.6148585570086761,0.08331979220765143,0.9955612156778536,0.09352316373576712,-0.004347525192085898,0.009611592354616212
1668680561.6397152,28484,1668680561,639587417,,-0.10004703719742215,-0.6148289203019325,0.08348899210547733,0.9955612157466719,0.09352316371502635,-0.004347522585769568,0.009611586607171284
1668680561.6481829,28485,1668680561,647959409,,-0.10008499518746018,-0.6147978619058672,0.08365967735936645,0.9955612158149028,0.09352316369464443,-0.004347520010757436,0.009611580902922788
1668680561.6557367,28486,1668680561,655612790,,-0.10012456614069817,-0.6147651967890156,0.08383195959055093,0.9955612158825333,0.09352316367462013,-0.004347517467470489,0.009611575243021694
1668680561.6640682,28487,1668680561,663864993,,-0.10016558479327181,-0.6147308496164207,0.08400562710761644,0.9955612159495587,0.09352316365495279,-0.004347514956017047,0.009611569627914787
1668680561.6720772,28488,1668680561,671835806,,-0.1002077743878817,-0.6146947836883694,0.08418036259079721,0.9955612160159804,0.09352316363564278,-0.004347512476273739,0.009611564057529002
1668680561.6797066,28489,1668680561,679537702,,-0.10025097797062901,-0.6146569464590688,0.08435613693313143,0.9955612160817959,0.09352316361668996,-0.004347510028247566,0.009611558532087791
1668680561.6879346,28490,1668680561,687767162,,-0.10029466544585883,-0.61461731609553,0.0845329425976923,0.9955612161470101,0.09352316359809487,-0.004347507611682686,0.009611553051225841
1668680561.69559,28491,1668680561,695449986,,-0.10033811068540527,-0.614575887032183,0.08471058749216166,0.9955612162116366,0.09352316357985907,-0.004347505225970698,0.009611547613788072
1668680561.70401,28492,1668680561,703772204,,-0.10038089050704689,-0.6145326649445817,0.08488873695584351,0.9955612162756826,0.09352316356198326,-0.004347502870749261,0.009611542219174825
1668680561.7119358,28493,1668680561,711659604,,-0.10042272723640525,-0.6144876582363039,0.08506704303740115,0.995561216339151,0.09352316354446762,-0.004347500545828395,0.009611536867176088
1668680561.7198808,28494,1668680561,719779261,,-0.10046336393059632,-0.6144408752552359,0.08524518497609962,0.9955612164020443,0.09352316352731208,-0.004347498251027719,0.009611531557604774
1668680561.7278383,28495,1668680561,727676697,,-0.10050252942548484,-0.6143924969134924,0.08542286612977262,0.9955612164643659,0.09352316351051687,-0.004347495986142531,0.009611526290220683
1668680561.735544,28496,1668680561,735393883,,-0.10053992357058303,-0.6143428212672581,0.08559983720983891,0.9955612165261212,0.09352316349408232,-0.00434749375087837,0.009611521064583002
1668680561.7438982,28497,1668680561,743721326,,-0.1005753209663053,-0.6142919527374557,0.08577582817534818,0.9955612165873127,0.09352316347800842,-0.004347491545058942,0.00961151588051728
1668680561.7517402,28498,1668680561,751643915,,-0.10060853915163484,-0.6142399252637792,0.08595058115180317,0.9955612166479396,0.09352316346229468,-0.004347489368624977,0.009611510738112639
1668680561.7598648,28499,1668680561,759722482,,-0.10063961031995579,-0.6141866435379338,0.0861240315739483,0.9955612167079986,0.09352316344694014,-0.004347487221637793,0.009611505637731546
1668680561.7679262,28500,1668680561,767789689,,-0.10066850254948233,-0.6141319417908322,0.08629606508324122,0.9955612167674822,0.09352316343194336,-0.004347485104297053,0.00961150058004809
1668680561.7758415,28501,1668680561,775693161,,-0.10069494204082802,-0.6140757898882677,0.08646638439483052,0.9955612168263918,0.09352316341730416,-0.004347483016473453,0.00961149556499794
1668680561.7835221,28502,1668680561,783301733,,-0.10071871924700183,-0.6140182075832509,0.0866347225221893,0.9955612168847265,0.09352316340302178,-0.004347480958107112,0.009611490592672994
1668680561.791771,28503,1668680561,791651537,,-0.10073969009650721,-0.613959216435857,0.08680086180111886,0.9955612169424851,0.09352316338909544,-0.004347478929180415,0.009611485663261326
1668680561.799855,28504,1668680561,799651242,,-0.10075772106274843,-0.613898799375896,0.08696454973121953,0.995561216999664,0.09352316337552402,-0.004347476929732033,0.009611480777078286
1668680561.8077958,28505,1668680561,807614441,,-0.10077266505513827,-0.6138369414306449,0.08712550649863203,0.9955612170562611,0.09352316336230633,-0.004347474959783988,0.009611475934402987
1668680561.8157632,28506,1668680561,815630467,,-0.10078439869281047,-0.6137736040439187,0.08728365572411768,0.9955612171122722,0.09352316334944161,-0.0043474730193966355,0.009611471135601091
1668680561.8235774,28507,1668680561,823434171,,-0.10079281616028563,-0.6137087394707043,0.08743902566737304,0.9955612171676934,0.09352316333692823,-0.004347471108645906,0.009611466381074353
1668680561.83193,28508,1668680561,831794481,,-0.10079786562908853,-0.6136423259139735,0.08759157040934111,0.9955612172225199,0.09352316332476489,-0.00434746922763648,0.009611461671290218
1668680561.8397233,28509,1668680561,839569786,,-0.10079941739100903,-0.6135745302164528,0.08774120713653677,0.9955612172767475,0.09352316331294994,-0.004347467376443993,0.00961145700665082
1668680561.847996,28510,1668680561,847726220,,-0.10079720291381165,-0.6135056282408804,0.08788777178718858,0.9955612173303742,0.09352316330148226,-0.004347465555072527,0.009611452387394564
1668680561.8555744,28511,1668680561,855391356,,-0.10079100605681353,-0.6134357631900005,0.08803107496870155,0.9955612173833959,0.09352316329036048,-0.004347463763594019,0.009611447813912403
1668680561.8646467,28512,1668680561,864313756,,-0.10078078551238794,-0.6133649436447477,0.08817104224162327,0.9955612174358061,0.09352316327958264,-0.0043474620021821935,0.009611443286828078
1668680561.8719025,28513,1668680561,871729151,,-0.10076614850145389,-0.6132931502791622,0.08830740655688346,0.9955612174875982,0.09352316326914716,-0.004347460271002067,0.009611438806742216
1668680561.87973,28514,1668680561,879621314,,-0.10074613449403066,-0.6132205796338118,0.08843956945862337,0.9955612175387677,0.09352316325905204,-0.0043474585701645885,0.009611434374117213
1668680561.8876717,28515,1668680561,887564461,,-0.10071998679024352,-0.6131474858065076,0.08856705269705115,0.9955612175893045,0.09352316324929538,-0.004347456899979678,0.009611429989857553
1668680561.895334,28516,1668680561,895215394,,-0.10068732468209571,-0.6130738148750005,0.08868962031109498,0.995561217639193,0.09352316323987418,-0.004347455260981539,0.009611425655379558
1668680561.903813,28517,1668680561,903628240,,-0.10064812777410227,-0.6129994022434703,0.0888072545785656,0.9955612176884163,0.093523163230785,-0.004347453653750738,0.009611421372212995
1668680561.9118438,28518,1668680561,911715783,,-0.10060252637365899,-0.6129241291739581,0.0889200264282864,0.9955612177369584,0.09352316322202502,-0.004347452078818386,0.009611417141784907
1668680561.9196804,28519,1668680561,919566590,,-0.1005502977320105,-0.6128482480013027,0.08902772947438492,0.9955612177848016,0.09352316321359053,-0.004347450536800627,0.00961141296570096
1668680561.9276886,28520,1668680561,927544073,,-0.10049107013618246,-0.6127724363204682,0.08913004997927669,0.9955612178319219,0.0935231632054778,-0.0043474490285500805,0.009611408846078359
1668680561.9354403,28521,1668680561,935243192,,-0.10042468696671812,-0.6126971703903155,0.08922687405301444,0.9955612178782941,0.0935231631976822,-0.004347447554978154,0.009611404785171867
1668680561.9437807,28522,1668680561,943667999,,-0.10035134975622038,-0.6126224747203629,0.08931832817592741,0.9955612179238984,0.09352316319020058,-0.004347446116767741,0.009611400784743021
1668680561.9520113,28523,1668680561,951812525,,-0.10027170909077421,-0.6125482378972413,0.089404822811766,0.9955612179687268,0.09352316318302997,-0.004347444714151411,0.009611396845569518
1668680561.9597673,28524,1668680561,959613158,,-0.10018630446866184,-0.6124747069837622,0.08948714025080896,0.9955612180127752,0.09352316317616861,-0.004347443347188746,0.009611392968045999
1668680561.967843,28525,1668680561,967712266,,-0.1000953288664194,-0.6124022047655652,0.08956605087402998,0.9955612180560308,0.09352316316961314,-0.00434744201629841,0.009611389153346929
1668680561.9755132,28526,1668680561,975380317,,-0.09999905765525778,-0.6123309573521732,0.0896421565660243,0.9955612180984852,0.09352316316336144,-0.004347440721725785,0.009611385402266425
1668680561.984278,28527,1668680561,983966146,,-0.0998977873252366,-0.6122609803373672,0.08971580895618296,0.9955612181401334,0.09352316315741108,-0.004347439463566943,0.009611381715269405
1668680561.9918878,28528,1668680561,991649193,,-0.09979178724529796,-0.6121921478620769,0.0897872049687636,0.995561218180975,0.09352316315176018,-0.004347438241763864,0.009611378092480869
1668680561.9999115,28529,1668680561,999730411,,-0.09968171259901679,-0.612124408655043,0.08985710883623653,0.9955612182210183,0.09352316314640803,-0.0043474370558868325,0.009611374533208395
1668680562.008043,28530,1668680562,7727527,,-0.09956851066504581,-0.6120575087057314,0.08992659539329878,0.9955612182602931,0.09352316314135602,-0.004347435904673069,0.009611371034926213
1668680562.0159311,28531,1668680562,15781565,,-0.09945284115686047,-0.6119911144384786,0.08999634993929195,0.9955612182988265,0.09352316313660537,-0.004347434786978424,0.009611367595366535
1668680562.0237737,28532,1668680562,23628200,,-0.09933496475759854,-0.6119249647371555,0.09006648659640507,0.995561218336632,0.09352316313215535,-0.004347433702174841,0.009611364213394143
1668680562.031591,28533,1668680562,31463681,,-0.0992148772215542,-0.6118589376764824,0.09013695193857582,0.9955612183737109,0.09352316312800459,-0.004347432650121802,0.009611360888943954
1668680562.0398185,28534,1668680562,39708744,,-0.09909181464666734,-0.6117922720928181,0.09020802423369834,0.9955612184100483,0.09352316312414935,-0.004347431631334304,0.009611357623393008
1668680562.0477812,28535,1668680562,47643861,,-0.098964734980303,-0.6117238266321601,0.09028001680620398,0.9955612184456122,0.09352316312058451,-0.004347430646978235,0.009611354419549353
1668680562.0554495,28536,1668680562,55322297,,-0.09883169704321164,-0.611652240617085,0.09035306406145986,0.9955612184803525,0.09352316311730298,-0.004347429698949927,0.009611351281829906
1668680562.063935,28537,1668680562,63793061,,-0.09869132447895361,-0.611576606288548,0.09042711390759182,0.9955612185141943,0.09352316311429484,-0.004347428790121813,0.009611348216800658
1668680562.0717173,28538,1668680562,71546664,,-0.09854318389398693,-0.6114965435162933,0.0905020339488498,0.9955612185471222,0.09352316311155658,-0.004347427921002741,0.009611345225826372
1668680562.0797114,28539,1668680562,79572906,,-0.09838639970404735,-0.611409218482428,0.09057829726716421,0.9955612185791115,0.09352316310908385,-0.004347427092493032,0.009611342311132674
1668680562.0876691,28540,1668680562,87567548,,-0.0982205645834568,-0.6113108508757823,0.09065692561288355,0.9955612186102026,0.09352316310687869,-0.004347426302910275,0.00961133946925355
1668680562.0956,28541,1668680562,95459651,,-0.09804552195463603,-0.6111995753686007,0.0907386197447446,0.9955612186404144,0.09352316310494115,-0.004347425551439067,0.009611336698630766
1668680562.1037538,28542,1668680562,103661964,,-0.09786168241546475,-0.6110753847001072,0.09082333703208288,0.9955612186697632,0.09352316310327152,-0.004347424837334921,0.00961133399786107
1668680562.1127694,28543,1668680562,112478107,,-0.09766904841110569,-0.6109378052031179,0.09091148813072038,0.9955612186982574,0.09352316310186803,-0.004347424160205772,0.009611331366317113
1668680562.119928,28544,1668680562,119792248,,-0.0974671459410095,-0.6107850784824934,0.09100423932236412,0.9955612187258969,0.09352316310072906,-0.004347423519967542,0.00961132880404946
1668680562.1277366,28545,1668680562,127597683,,-0.09725596901860864,-0.6106162834565672,0.09110226012711044,0.9955612187526961,0.09352316309985395,-0.004347422915964535,0.009611326309846775
1668680562.1355631,28546,1668680562,135468606,,-0.09703594193935097,-0.610431638947692,0.09120575153502308,0.9955612187786725,0.09352316309924234,-0.004347422347434327,0.00961132388226179
1668680562.1444564,28547,1668680562,144037672,,-0.09680772960241298,-0.6102320860733628,0.09131446696660876,0.9955612188038457,0.09352316309889443,-0.004347421813526166,0.009611321519651616
1668680562.1518378,28548,1668680562,151594319,,-0.09657199384138129,-0.6100186626912304,0.09142798563437822,0.9955612188282331,0.09352316309880963,-0.0043474213134743235,0.009611319220560244
1668680562.1604743,28549,1668680562,160352932,,-0.09632946220314081,-0.6097924901318005,0.09154588994696287,0.9955612188518552,0.09352316309898767,-0.004347420846395346,0.009611316983271933
1668680562.1678326,28550,1668680562,167703404,,-0.09608053786736132,-0.6095550737743994,0.09166724064586447,0.9955612188747139,0.09352316309942676,-0.004347420412130239,0.009611314807669151
1668680562.1759262,28551,1668680562,175739440,,-0.09582532750611568,-0.60930783121438,0.0917910069073893,0.9955612188967775,0.09352316310012161,-0.004347420011853785,0.009611312696578077
1668680562.1835868,28552,1668680562,183472973,,-0.09556410113138729,-0.6090521406254626,0.09191652951356288,0.995561218918031,0.09352316310106802,-0.004347419646067638,0.009611310651336614
1668680562.1917918,28553,1668680562,191612904,,-0.09529728472843654,-0.6087891326046502,0.09204337778075922,0.9955612189384688,0.09352316310226377,-0.00434741931491802,0.009611308672496927
1668680562.2000206,28554,1668680562,199787919,,-0.0950251988067583,-0.6085195091242677,0.09217154506714734,0.9955612189581006,0.09352316310370767,-0.0043474190179392065,0.009611306759258541
1668680562.207934,28555,1668680562,207757924,,-0.09474802303569618,-0.6082439224360543,0.0923012066435645,0.9955612189769193,0.09352316310539661,-0.004347418755343124,0.00961130491231662
1668680562.2155523,28556,1668680562,215389837,,-0.09446611317796431,-0.6079629889118731,0.09243243709100513,0.9955612189949328,0.093523163107329,-0.004347418526743042,0.009611303131043141
1668680562.2237341,28557,1668680562,223571490,,-0.09417992632171705,-0.6076772885401668,0.09256511789315584,0.9955612190121587,0.09352316310950431,-0.004347418331364219,0.009611301413951388
1668680562.2319698,28558,1668680562,231864113,,-0.09388991256001322,-0.6073873622913953,0.09269901255038693,0.9955612190286184,0.09352316311192242,-0.004347418168294981,0.009611299759252614
1668680562.2397907,28559,1668680562,239631867,,-0.0935964968341316,-0.6070938367489701,0.09283415801808718,0.995561219044329,0.09352316311458257,-0.004347418036778723,0.00961129816550027
1668680562.2481809,28560,1668680562,247969313,,-0.09330024360070606,-0.6067973533134812,0.09297065881797058,0.9955612190593152,0.09352316311748497,-0.004347417935784158,0.009611296630640555
1668680562.2557423,28561,1668680562,255620655,,-0.09300174518262745,-0.6064984136661956,0.09310846347532586,0.9955612190736141,0.09352316312063057,-0.004347417863771387,0.009611295151496191
1668680562.2645564,28562,1668680562,264408093,,-0.0927014072094473,-0.6061974237681701,0.09324730997569679,0.9955612190872514,0.09352316312401932,-0.004347417819653754,0.009611293725892655
1668680562.2719214,28563,1668680562,271748372,,-0.09239944958677221,-0.6058945272653761,0.09338746928449919,0.995561219100244,0.09352316312765008,-0.004347417802698351,0.009611292352436481
1668680562.2798615,28564,1668680562,279725528,,-0.09209563082907268,-0.605589270258696,0.09352977779310184,0.9955612191125934,0.09352316313152087,-0.004347417812755657,0.009611291031024509
1668680562.28797,28565,1668680562,287769061,,-0.0917895731108114,-0.6052811263226441,0.09367468650023135,0.9955612191242826,0.09352316313562703,-0.004347417850437743,0.009611289763234715
1668680562.296095,28566,1668680562,295846689,,-0.09148107747508716,-0.6049696288908957,0.09382250274395637,0.9955612191353093,0.0935231631399663,-0.004347417915743026,0.009611288549287552
1668680562.3044703,28567,1668680562,304208295,,-0.09117019784108825,-0.6046546633228648,0.0939731918293647,0.9955612191456812,0.0935231631445366,-0.004347418008310465,0.0096112873886071
1668680562.3118794,28568,1668680562,311732900,,-0.0908571253582123,-0.6043363975398239,0.09412648755579606,0.9955612191554135,0.09352316314933656,-0.004347418127458751,0.009611286279909143
1668680562.3198159,28569,1668680562,319645747,,-0.09054176978107864,-0.6040150169692455,0.09428191666135305,0.995561219164502,0.0935231631543636,-0.004347418273280997,0.00961128522362072
1668680562.3278828,28570,1668680562,327769944,,-0.09022409029666585,-0.6036911241539342,0.09443877301184145,0.9955612191729241,0.09352316315961297,-0.00434741844659253,0.009611284221763699
1668680562.3357,28571,1668680562,335595358,,-0.08990425747900804,-0.6033653159095733,0.09459662139316216,0.9955612191806771,0.09352316316508182,-0.004347418647429551,0.009611283274635517
1668680562.3438125,28572,1668680562,343609044,,-0.08958254597288919,-0.6030380179995012,0.09475506812802692,0.9955612191877724,0.09352316317076838,-0.004347418875269168,0.009611282381295671
1668680562.3521132,28573,1668680562,351921817,,-0.08925878680761515,-0.6027093393637869,0.0949144207491563,0.9955612191942065,0.09352316317667003,-0.0043474191301751935,0.00961128154210021
1668680562.3600028,28574,1668680562,359890429,,-0.08893250754257741,-0.602379265935602,0.0950755243405853,0.9955612191999355,0.09352316318278046,-0.004347419413808408,0.009611280760934746
1668680562.3677528,28575,1668680562,367656461,,-0.08860359112223097,-0.6020479434430589,0.09523878643691336,0.9955612192049416,0.09352316318909563,-0.004347419726785367,0.009611280039371242
1668680562.3755531,28576,1668680562,375439107,,-0.08827256235184339,-0.6017152281292676,0.09540452891407762,0.9955612192092615,0.09352316319561592,-0.004347420067601535,0.009611279374289159
1668680562.3838878,28577,1668680562,383672136,,-0.08794007349885948,-0.6013810464055119,0.0955727438145154,0.9955612192129759,0.09352316320234565,-0.004347420433035306,0.009611278758771252
1668680562.3918688,28578,1668680562,391719013,,-0.08760657869457639,-0.6010455147607793,0.09574317679890475,0.9955612192161194,0.09352316320928532,-0.004347420821648134,0.009611278189847505
1668680562.4001834,28579,1668680562,400080258,,-0.0872723555319717,-0.6007082748503,0.09591602532977227,0.9955612192187406,0.09352316321643597,-0.0043474212314734105,0.009611277663381114
1668680562.40777,28580,1668680562,407563403,,-0.08693679229937328,-0.6003691910703958,0.09609148568372089,0.9955612192208121,0.09352316322379235,-0.004347421663515421,0.009611277181807584
1668680562.4156582,28581,1668680562,415487375,,-0.08659909349916026,-0.6000285975958319,0.09626945153480732,0.9955612192222393,0.09352316323134444,-0.004347422121410526,0.009611276753381904
1668680562.4237337,28582,1668680562,423619423,,-0.08625863121477571,-0.5996861620695145,0.09644992505349813,0.9955612192229748,0.09352316323908569,-0.004347422606938466,0.009611276382243435
1668680562.4318957,28583,1668680562,431674455,,-0.08591520173465504,-0.5993415867058098,0.09663274864872778,0.9955612192229983,0.09352316324701176,-0.004347423120840995,0.009611276070230438
1668680562.4401429,28584,1668680562,439994595,,-0.08556869946979793,-0.5989944967953278,0.09681780204818499,0.9955612192223223,0.09352316325512122,-0.004347423662558815,0.009611275816299648
1668680562.4484138,28585,1668680562,448202187,,-0.08521875726939668,-0.5986441471881296,0.09700519387438328,0.9955612192209329,0.09352316326341074,-0.004347424232583432,0.009611275621732276
1668680562.4564364,28586,1668680562,456302891,,-0.08486535873619665,-0.5982903340880392,0.09719529988969546,0.9955612192188356,0.09352316327187808,-0.004347424830626007,0.009611275486079563
1668680562.4639087,28587,1668680562,463806872,,-0.08450866053765971,-0.5979331270567146,0.09738860878074031,0.9955612192160442,0.09352316328052193,-0.0043474254560872845,0.00961127540820492
1668680562.4723914,28588,1668680562,472186613,,-0.08414901039214684,-0.5975728737968109,0.09758485951033116,0.9955612192125827,0.09352316328934157,-0.004347426107958498,0.009611275386064672
1668680562.4807122,28589,1668680562,480533014,,-0.08378643719195586,-0.5972099892669043,0.0977839149957684,0.9955612192084559,0.09352316329833493,-0.004347426786006655,0.009611275419330953
1668680562.487806,28590,1668680562,487673047,,-0.08342125411650851,-0.596844544790742,0.09798633286387169,0.995561219203669,0.09352316330749995,-0.00434742748995063,0.009611275507569794
1668680562.4958637,28591,1668680562,495632666,,-0.08305430135609661,-0.5964764990727696,0.0981925024410309,0.9955612191983234,0.09352316331684134,-0.004347428215772094,0.00961127564207428
1668680562.5038352,28592,1668680562,503640239,,-0.08268607010085793,-0.596106129806579,0.09840208543975738,0.9955612191924733,0.09352316332636078,-0.004347428961283502,0.009611275818195184
1668680562.5117314,28593,1668680562,511567330,,-0.08231647653863661,-0.595733639914609,0.09861460163317154,0.9955612191861178,0.09352316333605533,-0.004347429726462463,0.009611276036077771
1668680562.5202827,28594,1668680562,520074187,,-0.08194500978961675,-0.5953590266066923,0.09882958548214231,0.995561219179207,0.09352316334591847,-0.004347430513191614,0.009611276300082298
1668680562.5279665,28595,1668680562,527851974,,-0.08157135795682201,-0.5949824112556586,0.09904639313214902,0.9955612191716994,0.09352316335594467,-0.004347431323042948,0.009611276613874528
1668680562.5356424,28596,1668680562,535480396,,-0.08119591168998613,-0.5946036342034372,0.09926465937985886,0.9955612191636249,0.09352316336613338,-0.004347432154772789,0.009611276974884769
1668680562.5438013,28597,1668680562,543704238,,-0.08081925954914432,-0.5942226507471314,0.09948405303366241,0.9955612191550699,0.0935231633764881,-0.004347433004957625,0.009611277375716943
1668680562.5517683,28598,1668680562,551649248,,-0.08044183118660796,-0.5938396420383018,0.09970416797900923,0.9955612191460717,0.09352316338700861,-0.004347433872072398,0.0096112778131839
1668680562.559687,28599,1668680562,559591519,,-0.08006447986210061,-0.5934539923202099,0.09992567083155852,0.9955612191367335,0.09352316339769899,-0.00434743475201771,0.009611278278402928
1668680562.5677123,28600,1668680562,567526804,,-0.07968796953251131,-0.5930649066223986,0.1001500303346986,0.9955612191271913,0.09352316340856502,-0.004347435639426403,0.009611278759690051
1668680562.575699,28601,1668680562,575582275,,-0.07931260110512825,-0.592672188969405,0.10037806614757157,0.9955612191174922,0.09352316341960665,-0.004347436532381235,0.00961127925300974
1668680562.586482,28602,1668680562,586278622,,-0.07893819372974688,-0.5922756794614442,0.1006102222817602,0.9955612191076356,0.09352316343082075,-0.004347437430831417,0.009611279758459462
1668680562.591985,28603,1668680562,591787002,,-0.07856451604770757,-0.591875487607953,0.1008463847175133,0.9955612190975864,0.09352316344220139,-0.0043474383360958425,0.009611280279167255
1668680562.5998719,28604,1668680562,599746080,,-0.07819178614431185,-0.5914722635717088,0.10108615026232143,0.9955612190873445,0.09352316345374508,-0.004347439248110741,0.009611280815195251
1668680562.6076274,28605,1668680562,607477265,,-0.07782025017943381,-0.5910666549947359,0.10132934040521391,0.9955612190769167,0.09352316346544966,-0.004347440166540642,0.009611281366001666
1668680562.6158202,28606,1668680562,615689408,,-0.07745019718871998,-0.5906597473094187,0.10157457420901489,0.9955612190663006,0.09352316347731086,-0.004347441091429256,0.00961128193188319
1668680562.6234956,28607,1668680562,623379611,,-0.07708192429740339,-0.5902527987928772,0.1018199369968727,0.9955612190554857,0.09352316348932534,-0.004347442023115613,0.009611282513787359
1668680562.631717,28608,1668680562,631615497,,-0.07671553708795847,-0.5898463932434307,0.10206449619710173,0.9955612190444652,0.09352316350148947,-0.004347442961804566,0.009611283112362505
1668680562.639822,28609,1668680562,639659382,,-0.07635072687606716,-0.5894409884232651,0.10230693646571325,0.9955612190332074,0.0935231635137978,-0.004347443908675644,0.009611283730410956
1668680562.6476834,28610,1668680562,647553927,,-0.07598694972017818,-0.5890371773735843,0.1025456510512114,0.9955612190216346,0.09352316352624285,-0.004347444866704218,0.009611284374706484
1668680562.6560056,28611,1668680562,655814619,,-0.07562387877165457,-0.5886353683829286,0.10277985371752868,0.995561219009697,0.09352316353881897,-0.004347445837784558,0.009611285049620744
1668680562.6639287,28612,1668680562,663693219,,-0.0752606645615098,-0.5882353203023,0.10300952264501906,0.9955612189973345,0.09352316355151966,-0.004347446824204741,0.009611285760390921
1668680562.6717658,28613,1668680562,671621147,,-0.07489665642437907,-0.5878367094339152,0.10323485631846535,0.9955612189844688,0.09352316356433786,-0.004347447828970553,0.00961128651383714
1668680562.679669,28614,1668680562,679565941,,-0.07453132167876589,-0.5874391913659816,0.10345606649163479,0.9955612189710794,0.09352316357726993,-0.004347448852835766,0.009611287311783203
1668680562.688303,28615,1668680562,688029765,,-0.07416378314616501,-0.5870421929152217,0.10367352187911277,0.9955612189570839,0.09352316359030893,-0.004347449898967937,0.009611288161395263
1668680562.6957269,28616,1668680562,695623500,,-0.07379357022997879,-0.5866450582468424,0.10388748323613511,0.9955612189424521,0.09352316360345064,-0.00434745096851046,0.009611289065347363
1668680562.7034552,28617,1668680562,703278689,,-0.0734204300912259,-0.5862471118918245,0.10409814998905986,0.9955612189271777,0.09352316361669276,-0.004347452061648564,0.00961129002418808
1668680562.712318,28618,1668680562,712025473,,-0.0730445265805512,-0.585848333113291,0.10430548603473383,0.995561218911278,0.09352316363003381,-0.004347453177676736,0.009611291036489781
1668680562.720043,28619,1668680562,719802474,,-0.07266602335550515,-0.5854482439978533,0.10450992354822401,0.9955612188947895,0.09352316364347363,-0.004347454315125052,0.009611292099132434
1668680562.7277818,28620,1668680562,727590664,,-0.07228484718522758,-0.5850460081817735,0.10471176346106958,0.9955612188777434,0.0935231636570117,-0.0043474554727370345,0.009611293209468397
1668680562.7364578,28621,1668680562,735835750,,-0.07190101198978593,-0.5846414267632525,0.10491065762399439,0.9955612188601495,0.09352316367064595,-0.004347456650078504,0.009611294366671134
1668680562.7438567,28622,1668680562,743595597,,-0.07151404324378055,-0.5842343451763796,0.10510608262795801,0.9955612188419819,0.09352316368437306,-0.004347457848120969,0.00961129557302547
1668680562.7518992,28623,1668680562,751784802,,-0.07112362770553493,-0.5838248327641817,0.1052976169177357,0.9955612188231782,0.09352316369818786,-0.004347459069268726,0.009611296833986056
1668680562.7599125,28624,1668680562,759670201,,-0.07072965738619252,-0.5834129897585637,0.10548520301460501,0.9955612188037399,0.09352316371208842,-0.004347460313406711,0.009611298149417932
1668680562.767589,28625,1668680562,767496892,,-0.070331753424211,-0.5829987355852934,0.10566880387564537,0.9955612187836161,0.09352316372607014,-0.004347461582496438,0.009611299523783437
