Time,header.seq,header.stamp.secs,header.stamp.nsecs,header.frame_id,wrench.force.x,wrench.force.y,wrench.force.z,wrench.torque.x,wrench.torque.y,wrench.torque.z
1668680560.2564151,28311,1668680560,255989359,,-2.6826543317232713e-142,-1.1955382635800528e-284,4.380778222878939e-284,5e-324,-5e-324,0.0
1668680560.2636874,28312,1668680560,263518936,,-2.6826543317232713e-142,-1.1955382635800528e-284,4.380778222878939e-284,5e-324,-5e-324,0.0
1668680560.2720282,28313,1668680560,271771005,,-1.4193328741680946e-142,-6.325327641951484e-285,2.3177725406678135e-284,5e-324,-5e-324,0.0
1668680560.280008,28314,1668680560,279799494,,-7.509375262672009e-143,-3.3465904853790136e-285,1.2262820158796672e-284,5e-324,-5e-324,0.0
1668680560.2881596,28315,1668680560,287930960,,-3.9730438054344554e-143,-1.770606759173985e-285,6.487986012797545e-285,5e-324,-5e-324,0.0
1668680560.2960322,28316,1668680560,295729293,,-2.1020493087309645e-143,-9.367887434478098e-286,3.432649419722648e-285,5e-324,-5e-324,0.0
1668680560.3036232,28317,1668680560,303412931,,-2.1020493087309645e-143,-9.367887434478098e-286,3.432649419722648e-285,5e-324,-5e-324,0.0
1668680560.3130612,28318,1668680560,312582185,,-1.1121476411340868e-143,-4.956341351932531e-286,1.816138631538372e-285,5e-324,-5e-324,0.0
1668680560.3202477,28319,1668680560,320050031,,-5.884126364413545e-144,-2.6222902195072074e-286,9.608786466846859e-286,5e-324,-5e-324,0.0
1668680560.3281207,28320,1668680560,327775174,,-3.113160680454316e-144,-1.3873955619787917e-286,5.083795683992012e-286,5e-324,-5e-324,0.0
1668680560.3357103,28321,1668680560,335431479,,-3.113160680454316e-144,-1.3873955619787917e-286,5.083795683992012e-286,5e-324,-5e-324,0.0
1668680560.3442988,28322,1668680560,344048745,,-1.6471042296000612e-144,-7.340402031321221e-287,2.689723478167466e-286,5e-324,-5e-324,0.0
1668680560.3522978,28323,1668680560,352040141,,-8.71446295785317e-145,-3.8836438185354635e-287,1.4230730026751127e-286,5e-324,-5e-324,0.0
1668680560.3601623,28324,1668680560,359895984,,-4.610628961971321e-145,-2.0547497596032814e-287,7.529163452603337e-287,5e-324,-5e-324,0.0
1668680560.3678675,28325,1668680560,367584354,,-2.4393814659355303e-145,-1.0871224993495601e-287,3.983513297592908e-287,5e-324,-5e-324,0.0
1668680560.37559,28326,1668680560,375334032,,-2.4393814659355303e-145,-1.0871224993495601e-287,3.983513297592908e-287,5e-324,-5e-324,0.0
1668680560.384186,28327,1668680560,383893358,,-1.2906225995261056e-145,-5.7517238927440774e-288,2.107588484695835e-287,5e-324,-5e-324,0.0
1668680560.392441,28328,1668680560,392207932,,-6.82839776258079e-146,-3.043109470934203e-288,1.1150782962131897e-287,5e-324,-5e-324,0.0
1668680560.4006562,28329,1668680560,400373995,,-3.612753722206552e-146,-1.6100416892006557e-288,5.89963181007395e-288,5e-324,-5e-324,0.0
1668680560.4087036,28330,1668680560,408467485,,-1.9114278211561453e-146,-8.518373281419653e-289,3.1213642676605374e-288,5e-324,-5e-324,0.0
1668680560.416171,28331,1668680560,415881893,,-1.9114278211561453e-146,-8.518373281419653e-289,3.1213642676605374e-288,5e-324,-5e-324,0.0
1668680560.424938,28332,1668680560,424726026,,-1.0112940422792662e-146,-4.506882265739947e-289,1.651444565539062e-288,5e-324,-5e-324,0.0
1668680560.432172,28333,1668680560,431936503,,-5.350532354033326e-147,-2.384491391278416e-289,8.737426712110692e-289,5e-324,-5e-324,0.0
1668680560.4404595,28334,1668680560,440231286,,-2.8308479309375585e-147,-1.2615814791308673e-289,4.622778574743489e-289,5e-324,-5e-324,0.0
1668680560.4488134,28335,1668680560,448541883,,-1.4977388188396967e-147,-6.67474763929727e-290,2.4458095564323307e-289,5e-324,-5e-324,0.0
1668680560.4556653,28336,1668680560,455437901,,-1.4977388188396967e-147,-6.67474763929727e-290,2.4458095564323307e-289,5e-324,-5e-324,0.0
1668680560.4637449,28337,1668680560,463540069,,-7.924203716292134e-148,-3.5314608517396396e-290,1.2940235595574995e-289,5e-324,-5e-324,0.0
1668680560.4718676,28338,1668680560,471638451,,-4.1925203344828855e-148,-1.8684175674217184e-290,6.84639148737495e-290,5e-324,-5e-324,0.0
1668680560.4798577,28339,1668680560,479645415,,-2.2181694696861175e-148,-9.885382715004164e-291,3.622273802683219e-290,5e-324,-5e-324,0.0
1668680560.4878793,28340,1668680560,487641652,,-1.1735842413879358e-148,-5.230136620742158e-291,1.9164646844692728e-290,5e-324,-5e-324,0.0
1668680560.4959261,28341,1668680560,495627508,,-6.209173782510819e-149,-2.7671492202430805e-291,1.0139589348815198e-290,5e-324,-5e-324,0.0
1668680560.5036552,28342,1668680560,503316038,,-6.209173782510819e-149,-2.7671492202430805e-291,1.0139589348815198e-290,5e-324,-5e-324,0.0
1668680560.5121202,28343,1668680560,511773322,,-3.285136056004308e-149,-1.464037244595982e-291,5.3646317094060185e-291,5e-324,-5e-324,0.0
1668680560.5199995,28344,1668680560,519717024,,-1.7380925843720715e-149,-7.7458961659317645e-292,2.8383075869761307e-291,5e-324,-5e-324,0.0
1668680560.5281286,28345,1668680560,527897541,,-9.195862151059795e-150,-4.098181766540632e-292,1.5016855573070157e-291,5e-324,-5e-324,0.0
1668680560.535494,28346,1668680560,535286835,,-9.195862151059795e-150,-4.098181766540632e-292,1.5016855573070157e-291,5e-324,-5e-324,0.0
1668680560.5439782,28347,1668680560,543786323,,-4.865326592014938e-150,-2.1682570269241134e-292,7.945085033673085e-292,5e-324,-5e-324,0.0
1668680560.551879,28348,1668680560,551615782,,-2.5741363298099936e-150,-1.147176675566126e-292,4.203568176116542e-292,5e-324,-5e-324,0.0
1668680560.5598273,28349,1668680560,559609280,,-1.3619184075582235e-150,-6.069457212043927e-293,2.224014637523742e-292,5e-324,-5e-324,0.0
1668680560.567951,28350,1668680560,567744029,,-7.205608061103892e-151,-3.2112151191230005e-293,1.1766767899764232e-292,5e-324,-5e-324,0.0
1668680560.575857,28351,1668680560,575601291,,-7.205608061103892e-151,-3.2112151191230005e-293,1.1766767899764232e-292,5e-324,-5e-324,0.0
1668680560.5839193,28352,1668680560,583702733,,-3.812327320205173e-151,-1.6989826571018117e-293,6.225535770802403e-293,5e-324,-5e-324,0.0
1668680560.5918584,28353,1668680560,591653884,,-2.0170177829733615e-151,-8.988940205043198e-294,3.2937928209085217e-293,5e-324,-5e-324,0.0
1668680560.6001883,28354,1668680560,599950245,,-1.0671593478525927e-151,-4.7558487823339826e-294,1.742672686574282e-293,5e-324,-5e-324,0.0
1668680560.6080146,28355,1668680560,607747748,,-5.646103288342755e-152,-2.5162140502100412e-294,9.220094455407672e-294,5e-324,-5e-324,0.0
1668680560.6158192,28356,1668680560,615586569,,-2.9872279530496383e-152,-1.33127301481761e-294,4.87814736648859e-294,5e-324,-5e-324,0.0
1668680560.6235986,28357,1668680560,623372044,,-2.9872279530496383e-152,-1.33127301481761e-294,4.87814736648859e-294,5e-324,-5e-324,0.0
1668680560.6317894,28358,1668680560,631574607,,-1.580476018195616e-152,-7.043470088856814e-295,2.580919517068808e-294,5e-324,-5e-324,0.0
1668680560.6404006,28359,1668680560,639973357,,-8.361947877266539e-153,-3.726543717211714e-295,1.3655072414061869e-294,5e-324,-5e-324,0.0
1668680560.6490405,28360,1668680560,648735404,,-4.424121055753222e-153,-1.971631582316273e-295,7.224595784569067e-295,5e-324,-5e-324,0.0
1668680560.655901,28361,1668680560,655690531,,-2.340704271689054e-153,-1.0431465162833408e-295,3.822373303320122e-295,5e-324,-5e-324,0.0
1668680560.6645029,28362,1668680560,663557153,,-2.340704271689054e-153,-1.0431465162833408e-295,3.822373303320122e-295,5e-324,-5e-324,0.0
1668680560.672947,28363,1668680560,672468160,,-1.2384146858681702e-153,-5.519056725373134e-296,2.0223328897017137e-295,5e-324,-5e-324,0.0
1668680560.6810558,28364,1668680560,680631118,,-6.552177277257074e-154,-2.920010435965722e-296,1.0699714528711384e-295,5e-324,-5e-324,0.0
1668680560.688499,28365,1668680560,688124767,,-3.46661159323283e-154,-1.5449127215796585e-296,5.660981511941064e-296,5e-324,-5e-324,0.0
1668680560.6964927,28366,1668680560,696138495,,-1.8341072638631477e-154,-8.173790366983077e-297,2.995099690981948e-296,5e-324,-5e-324,0.0
1668680560.7036853,28367,1668680560,703518718,,-1.8341072638631477e-154,-8.173790366983077e-297,2.995099690981948e-296,5e-324,-5e-324,0.0
1668680560.7119727,28368,1668680560,711743363,,-9.703854512926472e-155,-4.324571092603334e-297,1.5846407800481005e-296,5e-324,-5e-324,0.0
1668680560.7199852,28369,1668680560,719679402,,-5.134094077448109e-155,-2.2880345953725774e-297,8.383982707995235e-297,5e-324,-5e-324,0.0
1668680560.7282743,28370,1668680560,728056838,,-2.7163352419366063e-155,-1.2105483289604778e-297,4.435779195700711e-297,5e-324,-5e-324,0.0
1668680560.735662,28371,1668680560,735415388,,-2.7163352419366063e-155,-1.2105483289604778e-297,4.435779195700711e-297,5e-324,-5e-324,0.0
1668680560.7440047,28372,1668680560,743828554,,-1.4371526963242283e-155,-6.404742566885791e-298,2.34687233482095e-297,5e-324,-5e-324,0.0
1668680560.7517273,28373,1668680560,751506425,,-7.603655987172889e-156,-3.3886071598070034e-298,1.2416780711912508e-297,5e-324,-5e-324,0.0
1668680560.7599745,28374,1668680560,759775343,,-4.0229256445152754e-156,-1.792836849191045e-298,6.56944312479976e-298,5e-324,-5e-324,0.0
1668680560.7685385,28375,1668680560,768246375,,-2.1284406828242083e-156,-9.485501907516304e-299,3.4757465700085995e-298,5e-324,-5e-324,0.0
1668680560.7757964,28376,1668680560,775530412,,-1.1261107314965141e-156,-5.018568559548148e-299,1.8389403773542484e-298,5e-324,-5e-324,0.0
1668680560.7835205,28377,1668680560,783297657,,-1.1261107314965141e-156,-5.018568559548148e-299,1.8389403773542484e-298,5e-324,-5e-324,0.0
1668680560.7920384,28378,1668680560,791821624,,-5.958001976869519e-157,-2.6552132541270996e-299,9.729425443856278e-299,5e-324,-5e-324,0.0
1668680560.799854,28379,1668680560,799577720,,-3.15224662757696e-157,-1.4048144089770073e-299,5.147623089539818e-299,5e-324,-5e-324,0.0
1668680560.8084426,28380,1668680560,808022282,,-1.667783736837778e-157,-7.43256128524489e-300,2.723493142002115e-299,5e-324,-5e-324,0.0
1668680560.8166854,28381,1668680560,816262530,,-8.82387364150705e-158,-3.9324032346129884e-300,1.440939782402687e-299,5e-324,-5e-324,0.0
1668680560.8240738,28382,1668680560,823858746,,-8.82387364150705e-158,-3.9324032346129884e-300,1.440939782402687e-299,5e-324,-5e-324,0.0
1668680560.8327236,28383,1668680560,832516817,,-4.6685157266799905e-158,-2.0805472845939928e-300,7.623692619194011e-300,5e-324,-5e-324,0.0
1668680560.8404546,28384,1668680560,840223427,,-2.470008068535303e-158,-1.1007713973303778e-300,4.033526581870078e-300,5e-324,-5e-324,0.0
1668680560.8486996,28385,1668680560,848472959,,-1.3068264553042803e-158,-5.823937183033687e-301,2.1340494035254708e-300,5e-324,-5e-324,0.0
1668680560.8562262,28386,1668680560,855922892,,-1.3068264553042803e-158,-5.823937183033687e-301,2.1340494035254708e-300,5e-324,-5e-324,0.0
1668680560.8648174,28387,1668680560,864520169,,-6.914128767586822e-159,-3.0813159202884317e-301,1.1290781811523239e-300,5e-324,-5e-324,0.0
1668680560.8725934,28388,1668680560,872367044,,-0.5792735134118098,-0.27861002154276415,0.09769547921871972,5e-324,-5e-324,0.0
1668680560.8805637,28389,1668680560,880293498,,-1.7401999862111075,-0.1474063795592722,2.4762748345566354,5e-324,-5e-324,0.0
1668680560.888682,28390,1668680560,888357745,,-2.3543710426921507,-0.07798944422190163,3.734786343205454,5e-324,-5e-324,0.0
1668680560.8955536,28391,1668680560,895353113,,-2.3543710426921507,-0.07798944422190163,3.734786343205454,5e-324,-5e-324,0.0
1668680560.9038444,28392,1668680560,903601290,,-1.2456454711165859,0.8046962690694617,4.778708394801025,5e-324,-5e-324,0.0
1668680560.9119005,28393,1668680560,911564886,,-0.6590433757369939,1.8402859303511792,5.281196402394361,5e-324,-5e-324,0.0
1668680560.9198527,28394,1668680560,919640319,,-0.3486852247882983,2.388255716510682,5.547011431772539,5e-324,-5e-324,0.0
1668680560.9277272,28395,1668680560,927562993,,-1.5070371446760185,1.2635731000743613,5.602724494629948,5e-324,-5e-324,0.0
1668680560.935607,28396,1668680560,935405187,,-1.5070371446760185,1.2635731000743613,5.602724494629948,5e-324,-5e-324,0.0
1668680560.944212,28397,1668680560,943965638,,-2.11963922550227,0.6685284863734109,5.6323408812386635,5e-324,-5e-324,0.0
1668680560.9518886,28398,1668680560,951619905,,-1.9900802963404196,0.35370358633499077,4.6249730734076095,5e-324,-5e-324,0.0
1668680560.9623272,28399,1668680560,961852620,,-1.3696068662533707,0.1871367182345546,3.336501387481963,5e-324,-5e-324,0.0
1668680560.968561,28400,1668680560,968360906,,-1.0412911806081007,0.0990098847299549,2.6548178455464195,5e-324,-5e-324,0.0
1668680560.9760332,28401,1668680560,975748923,,-0.5509240556046564,0.05238393280976565,1.9568956437516554,5e-324,-5e-324,0.0
1668680560.983675,28402,1668680560,983318448,,-0.5509240556046564,0.05238393280976565,1.9568956437516554,5e-324,-5e-324,0.0
1668680560.991893,28403,1668680560,991685139,,-0.29148169186128353,0.02771517635943512,1.8351402017715226,5e-324,-5e-324,0.0
1668680560.9998715,28404,1668680560,999639069,,-0.1542164946801393,0.014663484764003686,1.7707494024995118,5e-324,-5e-324,0.0
1668680561.007925,28405,1668680561,7705791,,-0.08159252500410095,0.0077581243805064,1.8204234773567958,5e-324,-5e-324,0.0
1668680561.0156689,28406,1668680561,15491264,,-0.043168794300200125,0.004104651443506808,1.846677194573526,5e-324,-5e-324,0.0
1668680561.0235488,28407,1668680561,23318255,,-0.043168794300200125,0.004104651443506808,1.846677194573526,5e-324,-5e-324,0.0
1668680561.031824,28408,1668680561,31625672,,-0.08353243705686525,0.0021716799894335777,2.116567524652704,5e-324,-5e-324,0.0
1668680561.039816,28409,1668680561,39591841,,-0.2571490505611899,0.005289479562300631,2.485867708197141,5e-324,-5e-324,0.0
1668680561.0488188,28410,1668680561,48423732,,-0.34903389008784813,0.006826695963894812,2.6812748123845718,5e-324,-5e-324,0.0
1668680561.056601,28411,1668680561,56379955,,-0.40445682608585865,0.5079661096656477,2.939531497673977,5e-324,-5e-324,0.0
1668680561.06357,28412,1668680561,63377626,,-0.40445682608585865,0.5079661096656477,2.939531497673977,5e-324,-5e-324,0.0
1668680561.071816,28413,1668680561,71576297,,-0.4714156974265267,0.5476232325557678,3.1986870580035953,5e-324,-5e-324,0.0
1668680561.079945,28414,1668680561,79660784,,-0.5068319321412479,0.568568950410687,3.3358167945780473,5e-324,-5e-324,0.0
1668680561.0879996,28415,1668680561,87735886,,-0.6728089364397594,0.4228342224912893,3.431360352614013,5e-324,-5e-324,0.0
1668680561.0959282,28416,1668680561,95643433,,-0.7606527963111507,0.34552509621760297,3.4819550181670764,5e-324,-5e-324,0.0
1668680561.1037104,28417,1668680561,103416329,,-0.7606527963111507,0.34552509621760297,3.4819550181670764,5e-324,-5e-324,0.0
1668680561.1122146,28418,1668680561,111907673,,-0.5711769758538728,0.18280966060830775,3.317754889532071,5e-324,-5e-324,0.0
1668680561.1201055,28419,1668680561,119802406,,-0.3235021194507994,0.09672053456481201,3.146594733896792,5e-324,-5e-324,0.0
1668680561.129222,28420,1668680561,128778007,,-0.19250493642524355,0.05117268844203448,3.0560224808331986,5e-324,-5e-324,0.0
1668680561.1364322,28421,1668680561,136180369,,-0.10185008984458759,0.027074333844079274,2.860882116682662,5e-324,-5e-324,0.0
1668680561.1433644,28422,1668680561,143168127,,-0.10185008984458759,0.027074333844079274,2.860882116682662,5e-324,-5e-324,0.0
1668680561.1524103,28423,1668680561,152163414,,-0.05388662230684633,0.014324429210534432,2.715370795851725,5e-324,-5e-324,0.0
1668680561.1608708,28424,1668680561,160606280,,-0.02851021602505751,0.007578737611395883,2.6383897807649435,5e-324,-5e-324,0.0
1668680561.1687162,28425,1668680561,168492066,,-0.015084122607777093,0.004009741884873586,2.627205732593256,5e-324,-5e-324,0.0
1668680561.1760151,28426,1668680561,175777355,,-0.015084122607777093,0.004009741884873586,2.627205732593256,5e-324,-5e-324,0.0
1668680561.1849802,28427,1668680561,184731192,,-0.0079806745289645,0.0021214654481682546,2.6212895425406777,5e-324,-5e-324,0.0
1668680561.1929698,28428,1668680561,192737428,,-0.004222397788282679,0.001122420289632589,2.6866837826899097,5e-324,-5e-324,0.0
1668680561.200681,28429,1668680561,200460576,,-0.0022339769674591327,0.0005938476667940468,2.745637805693246,5e-324,-5e-324,0.0
1668680561.2082214,28430,1668680561,207866959,,-0.0011819476376638798,0.0003141916219923027,2.776830339548829,5e-324,-5e-324,0.0
1668680561.2156007,28431,1668680561,215383877,,-0.0011819476376638798,0.0003141916219923027,2.776830339548829,5e-324,-5e-324,0.0
1668680561.223837,28432,1668680561,223589224,,-0.0006253422656224329,0.00016623181473977229,2.785315389582668,5e-324,-5e-324,0.0
1668680561.231887,28433,1668680561,231651658,,-0.00033085471531269677,8.794956420688693e-05,2.870148629900884,5e-324,-5e-324,0.0
1668680561.239966,28434,1668680561,239723613,,-0.00017504788763268714,4.65321626686822e-05,2.9150339923053457,5e-324,-5e-324,0.0
1668680561.247905,28435,1668680561,247678282,,-9.261395273059892e-05,2.4619134638704112e-05,2.9726770701457497,5e-324,-5e-324,0.0
1668680561.2561805,28436,1668680561,255810455,,-4.899998712571692e-05,1.3025437796093855e-05,3.0031694450889166,5e-324,-5e-324,0.0
1668680561.2635298,28437,1668680561,263306671,,-4.899998712571692e-05,1.3025437796093855e-05,3.0031694450889166,5e-324,-5e-324,0.0
1668680561.2721794,28438,1668680561,271817054,,-2.5924805793621553e-05,6.891470080885057e-06,3.17560642711773,5e-324,-5e-324,0.0
1668680561.2805052,28439,1668680561,280060899,,-1.3716239429055979e-05,3.6461238861373385e-06,3.2619690298195865,5e-324,-5e-324,0.0
1668680561.287903,28440,1668680561,287675785,,-7.25695789480043e-06,1.9290832343501806e-06,3.307675212387358,5e-324,-5e-324,0.0
1668680561.295709,28441,1668680561,295449180,,-3.83949537767225e-06,1.0206351295960275e-06,3.2861242646111952,5e-324,-5e-324,0.0
1668680561.3036027,28442,1668680561,303385971,,-3.83949537767225e-06,1.0206351295960275e-06,3.2861242646111952,5e-324,-5e-324,0.0
1668680561.311845,28443,1668680561,311619419,,-2.031391799272935e-06,5.399953974077222e-07,3.236921760653768,5e-324,-5e-324,0.0
1668680561.320081,28444,1668680561,319836897,,-1.0747643208923757e-06,2.856995813351424e-07,3.210866107353155,5e-324,-5e-324,0.0
1668680561.327755,28445,1668680561,327526930,,-5.686339513020991e-07,0.03563574177104808,3.1793355551846383,5e-324,-5e-324,0.0
1668680561.3356047,28446,1668680561,335384297,,-5.686339513020991e-07,0.03563574177104808,3.1793355551846383,5e-324,-5e-324,0.0
1668680561.344092,28447,1668680561,343872586,,-3.0085160466153675e-07,0.05448462238166249,3.1626663168885383,5e-324,-5e-324,0.0
1668680561.3518548,28448,1668680561,351630327,,-1.5917390760815706e-07,0.21998063910213694,3.1889219110481806,5e-324,-5e-324,0.0
1668680561.3597276,28449,1668680561,359485197,,-8.421538217073474e-08,0.36234850792514584,3.26358856991233,5e-324,-5e-324,0.0
1668680561.3679707,28450,1668680561,367732385,,-4.455648982132205e-08,0.43766371587670494,3.303096866870216,5e-324,-5e-324,0.0
1668680561.375556,28451,1668680561,375366462,,-4.455648982132205e-08,0.43766371587670494,3.303096866870216,5e-324,-5e-324,0.0
1668680561.3836935,28452,1668680561,383486863,,-2.3573849978768727e-08,0.43442216048742804,3.6263681672829238,5e-324,-5e-324,0.0
1668680561.3919606,28453,1668680561,391720988,,-0.5138623172804822,0.2298431245336228,4.136158489942507,5e-324,-5e-324,0.0
1668680561.4001777,28454,1668680561,399985651,,-0.7856410784698191,0.12160489657365729,4.405938999117449,5e-324,-5e-324,0.0
1668680561.407927,28455,1668680561,407599161,,-0.9267604906234996,0.06433845215381524,4.634593128328817,5e-324,-5e-324,0.0
1668680561.4161286,28456,1668680561,415789160,,-0.9267604906234996,0.06433845215381524,4.634593128328817,5e-324,-5e-324,0.0
1668680561.4240267,28457,1668680561,423642230,,-1.0013301059994566,0.034040047252879124,4.7556209755208805,5e-324,-5e-324,0.0
1668680561.4317484,28458,1668680561,431539970,,-1.1106369690146012,0.01800983359388343,4.852750193765003,5e-324,-5e-324,0.0
1668680561.4398932,28459,1668680561,439651225,,-1.1749088604101552,0.009528603285118476,4.9040410323585455,5e-324,-5e-324,0.0
1668680561.4476974,28460,1668680561,447478729,,-1.2087685307802416,0.005041372541943226,4.931250098623387,5e-324,-5e-324,0.0
1668680561.4557292,28461,1668680561,455439128,,-1.2087685307802416,0.005041372541943226,4.931250098623387,5e-324,-5e-324,0.0
1668680561.4638247,28462,1668680561,463630352,,-1.3153584135123064,0.0026672783351524634,5.02075807252117,5e-324,-5e-324,0.0
1668680561.4719288,28463,1668680561,471698342,,-1.4014311582135475,0.0014111977756024793,5.176439983546906,5e-324,-5e-324,0.0
1668680561.4798617,28464,1668680561,479623800,,-1.4470334511513048,0.000746633426148063,5.258786733025919,5e-324,-5e-324,0.0
1668680561.4877455,28465,1668680561,487526178,,-1.5192840119762252,0.0003950271766858472,5.346047093729637,5e-324,-5e-324,0.0
1668680561.4956737,28466,1668680561,495458704,,-1.5576037882139988,0.00020900011284713947,5.3921730676541815,5e-324,-5e-324,0.0
1668680561.503538,28467,1668680561,503322888,,-1.5576037882139988,0.00020900011284713947,5.3921730676541815,5e-324,-5e-324,0.0
1668680561.5120194,28468,1668680561,511779632,,-1.6798886603223757,0.0001105773216328739,5.521774747275756,5e-324,-5e-324,0.0
1668680561.5198464,28469,1668680561,519518854,,-1.753771103206677,5.850400697363735e-05,5.613924099792836,5e-324,-5e-324,0.0
1668680561.5278401,28470,1668680561,527628512,,-1.792640648739358,3.095317178449235e-05,5.662771944196066,5e-324,-5e-324,0.0
1668680561.5358734,28471,1668680561,535645667,,-1.7601956346395669,-0.020249111429935976,5.657324511224931,5e-324,-5e-324,0.0
1668680561.543724,28472,1668680561,543507133,,-1.7601956346395669,-0.020249111429935976,5.657324511224931,5e-324,-5e-324,0.0
1668680561.5524657,28473,1668680561,552144234,,-1.6170411974039063,-0.06550816316644152,5.5978556881806165,5e-324,-5e-324,0.0
1668680561.5605886,28474,1668680561,560207911,,-1.5414308848119314,-0.08995160140467869,5.566258193548196,5e-324,-5e-324,0.0
1668680561.5681674,28475,1668680561,567907201,,-1.4906488296538343,-0.11082236888229066,5.535415388134032,5e-324,-5e-324,0.0
1668680561.5755908,28476,1668680561,575401994,,-1.4906488296538343,-0.11082236888229066,5.535415388134032,5e-324,-5e-324,0.0
1668680561.5838647,28477,1668680561,583632442,,-1.463720803205078,-0.12186910062492691,5.519118962396839,5e-324,-5e-324,0.0
1668680561.5919418,28478,1668680561,591739948,,-1.6310122261255542,-0.12093429880057885,5.657778656967949,5e-324,-5e-324,0.0
1668680561.599999,28479,1668680561,599696860,,-1.7268936265235122,-0.13032130849333948,5.783122645716661,5e-324,-5e-324,0.0
1668680561.6079788,28480,1668680561,607763412,,-1.7776980431245355,-0.13530222460203656,5.849405996099561,5e-324,-5e-324,0.0
1668680561.615558,28481,1668680561,615336238,,-1.7776980431245355,-0.13530222460203656,5.849405996099561,5e-324,-5e-324,0.0
1668680561.623855,28482,1668680561,623636718,,-1.8287259627599748,-0.131275921423572,5.974054785793607,5e-324,-5e-324,0.0
1668680561.6320956,28483,1668680561,631854474,,-2.06122618855286,-0.0748168449048716,6.158116896547604,5e-324,-5e-324,0.0
1668680561.639837,28484,1668680561,639587417,,-2.18435281941011,-0.04524404443002264,6.255406780901989,5e-324,-5e-324,0.0
1668680561.6482449,28485,1668680561,647959409,,-2.2628000715256853,-0.023937619864204417,6.334905286261236,5e-324,-5e-324,0.0
1668680561.655833,28486,1668680561,655612790,,-2.2628000715256853,-0.023937619864204417,6.334905286261236,5e-324,-5e-324,0.0
1668680561.6641257,28487,1668680561,663864993,,-2.3041556216643624,-0.012664863452899477,6.377025424210689,5e-324,-5e-324,0.0
1668680561.6721878,28488,1668680561,671835806,,-2.3364615875323818,-0.006700698197670198,6.459907456368134,5e-324,-5e-324,0.0
1668680561.6797588,28489,1668680561,679537702,,-2.2589161696633218,-0.0035451907162869123,6.5086885142819035,5e-324,-5e-324,0.0
1668680561.688033,28490,1668680561,687767162,,-2.2181072234908,-0.0018756817340642021,6.534356926297889,5e-324,-5e-324,0.0
1668680561.6956518,28491,1668680561,695449986,,-2.2181072234908,-0.0018756817340642021,6.534356926297889,5e-324,-5e-324,0.0
1668680561.7040896,28492,1668680561,703772204,,-2.212866930332609,-0.0009923815808665132,6.547916580219891,5e-324,-5e-324,0.0
1668680561.712061,28493,1668680561,711659604,,-2.212866930332609,-0.0009923815808665132,6.547916580219891,5e-324,-5e-324,0.0
1668680561.719987,28494,1668680561,719779261,,-2.197048308027849,-0.0540494294847315,6.560977188114906,5e-324,-5e-324,0.0
1668680561.7278974,28495,1668680561,727676697,,-2.181336788298527,-0.09505471065168453,6.568142190841455,5e-324,-5e-324,0.0
1668680561.735608,28496,1668680561,735393883,,-2.181336788298527,-0.09505471065168453,6.568142190841455,5e-324,-5e-324,0.0
1668680561.7439692,28497,1668680561,743721326,,-2.173209594275346,-0.11677582179214713,6.571851664574913,5e-324,-5e-324,0.0
1668680561.7518735,28498,1668680561,751643915,,-2.235408652554015,-0.07743406420606236,6.625129233810753,5e-324,-5e-324,0.0
1668680561.7599943,28499,1668680561,759722482,,-2.2076855535320057,-0.07491827708540857,6.610898777443953,5e-324,-5e-324,0.0
1668680561.7680244,28500,1668680561,767789689,,-2.193085480124747,-0.07384395934424573,6.60330523392947,5e-324,-5e-324,0.0
1668680561.7759378,28501,1668680561,775693161,,-2.1781245925398443,-0.08618793232154873,6.590137919042121,5e-324,-5e-324,0.0
1668680561.7835474,28502,1668680561,783301733,,-2.1781245925398443,-0.08618793232154873,6.590137919042121,5e-324,-5e-324,0.0
1668680561.7919095,28503,1668680561,791651537,,-2.1621277309023927,-0.08702239857343483,6.559358905412683,5e-324,-5e-324,0.0
1668680561.799917,28504,1668680561,799651242,,-2.1537252872856696,-0.08726171756421165,6.543078090640964,5e-324,-5e-324,0.0
1668680561.807877,28505,1668680561,807614441,,-2.14056463346836,-0.08039030779269232,6.567278013268602,5e-324,-5e-324,0.0
1668680561.8158731,28506,1668680561,815630467,,-2.1335846856622367,-0.07681065848240434,6.580080736208142,5e-324,-5e-324,0.0
1668680561.8236868,28507,1668680561,823434171,,-2.1335846856622367,-0.07681065848240434,6.580080736208142,5e-324,-5e-324,0.0
1668680561.8320322,28508,1668680561,831794481,,-2.0998516464691126,-0.13157440244061225,6.578462211550246,5e-324,-5e-324,0.0
1668680561.8397832,28509,1668680561,839569786,,-2.052042823426597,-0.16979684946889753,6.549213910178384,5e-324,-5e-324,0.0
1668680561.8480868,28510,1668680561,847726220,,-2.026680199216175,-0.19011572758268896,6.533750895103452,5e-324,-5e-324,0.0
1668680561.8556256,28511,1668680561,855391356,,-2.026680199216175,-0.19011572758268896,6.533750895103452,5e-324,-5e-324,0.0
1668680561.8649163,28512,1668680561,864313756,,-1.888918330545697,-0.20221803916294404,6.454214041525011,5e-324,-5e-324,0.0
1668680561.8719823,28513,1668680561,871729151,,-1.6999674819008546,-0.2694556321080993,6.341824749297979,5e-324,-5e-324,0.0
1668680561.8798702,28514,1668680561,879621314,,-1.5998173495375678,-0.30482450351140356,6.282462484403028,5e-324,-5e-324,0.0
1668680561.8877652,28515,1668680561,887564461,,-1.506887071170019,-0.2826823481040551,6.231119859127187,5e-324,-5e-324,0.0
1668680561.8954349,28516,1668680561,895215394,,-1.506887071170019,-0.2826823481040551,6.231119859127187,5e-324,-5e-324,0.0
1668680561.9038758,28517,1668680561,903628240,,-1.4574828890099636,-0.2712452707014086,6.203986196505101,5e-324,-5e-324,0.0
1668680561.9119592,28518,1668680561,911715783,,-1.3473361657639158,-0.3846134433836609,6.116055681338384,5e-324,-5e-324,0.0
1668680561.9197767,28519,1668680561,919566590,,-1.2427181034567711,-0.5128024972269243,6.0470882481712005,5e-324,-5e-324,0.0
1668680561.927779,28520,1668680561,927544073,,-1.1872610736890012,-0.5809244517181189,6.010560086466547,5e-324,-5e-324,0.0
1668680561.9355052,28521,1668680561,935243192,,-1.1872610736890012,-0.5809244517181189,6.010560086466547,5e-324,-5e-324,0.0
1668680561.943867,28522,1668680561,943667999,,-1.2737936453579393,-0.6083984605486088,6.062615836656657,5e-324,-5e-324,0.0
1668680561.9520693,28523,1668680561,951812525,,-1.2522117878632761,-0.7188337292804299,6.185861326725198,5e-324,-5e-324,0.0
1668680561.959841,28524,1668680561,959613158,,-1.2411408471888539,-0.7774042371011717,6.250926396494338,5e-324,-5e-324,0.0
1668680561.9679463,28525,1668680561,967712266,,-1.2475739971757036,-0.867080087112921,6.33845711125555,5e-324,-5e-324,0.0
1668680561.975559,28526,1668680561,975380317,,-1.2475739971757036,-0.867080087112921,6.33845711125555,5e-324,-5e-324,0.0
1668680561.9843123,28527,1668680561,983966146,,-1.2506927791042775,-0.9145800858923451,6.38483960370842,5e-324,-5e-324,0.0
1668680561.9919505,28528,1668680561,991649193,,-1.375957851287173,-0.9363571210382664,6.565584070681849,5e-324,-5e-324,0.0
1668680561.9999716,28529,1668680561,999730411,,-1.484983739167588,-0.920763361504936,6.727004219511855,5e-324,-5e-324,0.0
1668680562.0081437,28530,1668680562,7727527,,-1.5427541816849577,-0.912793292805818,6.812311809082527,5e-324,-5e-324,0.0
1668680562.0159903,28531,1668680562,15781565,,-1.5427541816849577,-0.912793292805818,6.812311809082527,5e-324,-5e-324,0.0
1668680562.0238373,28532,1668680562,23628200,,-1.5237253192130558,-0.9429056400852773,6.848300337598106,5e-324,-5e-324,0.0
1668680562.0316923,28533,1668680562,31463681,,-1.2857546121423231,-0.7411514690595393,6.95089359530798,5e-324,-5e-324,0.0
1668680562.03993,28534,1668680562,39708744,,-1.1599699273989383,-0.6342188073552779,7.00517878059164,5e-324,-5e-324,0.0
1668680562.0478425,28535,1668680562,47643861,,-0.6137143468447144,-0.3355510965577075,7.060165729118475,5e-324,-5e-324,0.0
1668680562.0554936,28536,1668680562,55322297,,-0.6137143468447144,-0.3355510965577075,7.060165729118475,5e-324,-5e-324,0.0
1668680562.0639942,28537,1668680562,63793061,,-0.3247026415310662,-0.1775326387285871,7.089248579440341,5e-324,-5e-324,0.0
1668680562.0718179,28538,1668680562,71546664,,-0.17179296192000063,0.6003236302197731,7.276021073134229,5e-324,-5e-324,0.0
1668680562.079802,28539,1668680562,79572906,,-0.0030279146345746216,1.1276739120979893,7.489392559000765,5e-324,-5e-324,0.0
1668680562.0877845,28540,1668680562,87567548,,0.08612792343217682,1.4064185321840523,7.602383369437865,5e-324,-5e-324,0.0
1668680562.0956626,28541,1668680562,95459651,,0.08612792343217682,1.4064185321840523,7.602383369437865,5e-324,-5e-324,0.0
1668680562.1038485,28542,1668680562,103661964,,0.2971745626209476,1.8381868407920243,7.857816401330863,5e-324,-5e-324,0.0
1668680562.1128492,28543,1668680562,112478107,,0.4506443096180833,2.258521393314169,8.1066294963172,5e-324,-5e-324,0.0
1668680562.1200197,28544,1668680562,119792248,,0.5318517524101146,2.480611570551762,8.238388287679516,5e-324,-5e-324,0.0
1668680562.1277914,28545,1668680562,127597683,,0.5556895764278086,2.5766633812950843,8.36030248328322,5e-324,-5e-324,0.0
1668680562.1356971,28546,1668680562,135468606,,0.5556895764278086,2.5766633812950843,8.36030248328322,5e-324,-5e-324,0.0
1668680562.1446311,28547,1668680562,144037672,,0.5681720446752732,2.627647007783499,8.424762252530972,5e-324,-5e-324,0.0
1668680562.151921,28548,1668680562,151594319,,0.5349999132939143,2.5836493824242446,8.418296613074991,5e-324,-5e-324,0.0
1668680562.160591,28549,1668680562,160352932,,0.6341664606796822,2.4939898921780803,8.311905415088901,5e-324,-5e-324,0.0
1668680562.1679182,28550,1668680562,167703404,,0.6868128770266246,2.4462759380924797,8.255684366700248,5e-324,-5e-324,0.0
1668680562.1760454,28551,1668680562,175739440,,0.7352190368869205,2.3391658121867955,8.241466643767273,5e-324,-5e-324,0.0
1668680562.1836698,28552,1668680562,183472973,,0.7352190368869205,2.3391658121867955,8.241466643767273,5e-324,-5e-324,0.0
1668680562.1918569,28553,1668680562,191612904,,0.8085923393638008,2.3417072022950025,8.350121037273151,5e-324,-5e-324,0.0
1668680562.200085,28554,1668680562,199787919,,0.8470648964463547,2.3430711880785005,8.40767020478605,5e-324,-5e-324,0.0
1668680562.208008,28555,1668680562,207757924,,0.8631546328155411,2.3436066350217573,8.490077351981327,5e-324,-5e-324,0.0
1668680562.215603,28556,1668680562,215389837,,0.8631546328155411,2.3436066350217573,8.490077351981327,5e-324,-5e-324,0.0
1668680562.2238607,28557,1668680562,223571490,,0.8718615946219748,2.3441336470436127,8.533553945705426,5e-324,-5e-324,0.0
1668680562.232079,28558,1668680562,231864113,,0.8700510741075287,2.3057679292295052,8.613926781991319,5e-324,-5e-324,0.0
1668680562.239854,28559,1668680562,239631867,,0.8258169367354274,2.2876010685557135,8.680173356498104,5e-324,-5e-324,0.0
1668680562.2482524,28560,1668680562,247969313,,0.8021764768674677,2.2780690040710283,8.715239456904904,5e-324,-5e-324,0.0
1668680562.2558312,28561,1668680562,255620655,,0.8021764768674677,2.2780690040710283,8.715239456904904,5e-324,-5e-324,0.0
1668680562.2646885,28562,1668680562,264408093,,0.8268223589539285,2.3408367827419685,8.911153407002788,5e-324,-5e-324,0.0
1668680562.2719753,28563,1668680562,271748372,,0.9657484443801986,2.5241791532019398,9.09566863056182,5e-324,-5e-324,0.0
1668680562.2799299,28564,1668680562,279725528,,1.0392952966879077,2.621352079248836,9.193220699927497,5e-324,-5e-324,0.0
1668680562.2880507,28565,1668680562,287769061,,1.1320635551685054,2.8000358954800335,9.345445747164746,5e-324,-5e-324,0.0
1668680562.2961636,28566,1668680562,295846689,,1.1320635551685054,2.8000358954800335,9.345445747164746,5e-324,-5e-324,0.0
1668680562.304541,28567,1668680562,304208295,,1.1811043958124294,2.8947128513066276,9.425940312952054,5e-324,-5e-324,0.0
1668680562.311987,28568,1668680562,311732900,,1.2648450725644684,2.8862126818621503,9.356361461941965,5e-324,-5e-324,0.0
1668680562.3198667,28569,1668680562,319645747,,1.3011791826697392,2.8471250398066967,9.353453892221008,5e-324,-5e-324,0.0
1668680562.3279836,28570,1668680562,327769944,,1.3203255119161563,2.826304670009004,9.351984467435468,5e-324,-5e-324,0.0
1668680562.3358135,28571,1668680562,335595358,,1.3203255119161563,2.826304670009004,9.351984467435468,5e-324,-5e-324,0.0
1668680562.3438652,28572,1668680562,343609044,,1.4716377784503152,2.893948441111986,9.560476354298173,5e-324,-5e-324,0.0
1668680562.3522265,28573,1668680562,351921817,,1.5711266486609197,2.9295087977864824,9.736842126098738,5e-324,-5e-324,0.0
1668680562.3601108,28574,1668680562,359890429,,1.6236111183050945,2.947742192843605,9.830401644924681,5e-324,-5e-324,0.0
1668680562.36785,28575,1668680562,367656461,,1.526005283055646,3.0702696226320336,9.99139429409671,5e-324,-5e-324,0.0
1668680562.3756409,28576,1668680562,375439107,,1.526005283055646,3.0702696226320336,9.99139429409671,5e-324,-5e-324,0.0
1668680562.3839705,28577,1668680562,383672136,,1.4743089206921496,3.1352880888520707,10.07651159846628,5e-324,-5e-324,0.0
1668680562.3919258,28578,1668680562,391719013,,1.5179928625479895,3.280734709604256,10.213046298963143,5e-324,-5e-324,0.0
1668680562.4003057,28579,1668680562,400080258,,1.737117824755659,3.285008149658811,10.304227895587522,5e-324,-5e-324,0.0
1668680562.4078305,28580,1668680562,407563403,,1.853391486565938,3.287270454996765,10.352380751083231,5e-324,-5e-324,0.0
1668680562.4157581,28581,1668680562,415487375,,2.0401374241569536,3.4917680267659157,10.476556155461557,5e-324,-5e-324,0.0
1668680562.4238405,28582,1668680562,423619423,,2.0401374241569536,3.4917680267659157,10.476556155461557,5e-324,-5e-324,0.0
1668680562.4319637,28583,1668680562,431674455,,2.202054977723124,3.7283581641610457,10.609723427040112,5e-324,-5e-324,0.0
1668680562.4402354,28584,1668680562,439994595,,2.287564137786032,3.8538746293982014,10.68007948527481,5e-324,-5e-324,0.0
1668680562.4484932,28585,1668680562,448202187,,2.3500304742157008,3.9410572836283704,10.900563611895402,5e-324,-5e-324,0.0
1668680562.4565482,28586,1668680562,456302891,,2.383030984590138,3.987545406238853,11.017080627876174,5e-324,-5e-324,0.0
1668680562.4640267,28587,1668680562,463806872,,2.383030984590138,3.987545406238853,11.017080627876174,5e-324,-5e-324,0.0
1668680562.472443,28588,1668680562,472186613,,2.50805340239536,4.005503049877284,11.167621426104088,5e-324,-5e-324,0.0
1668680562.4807773,28589,1668680562,480533014,,2.419418602933087,4.10334001810493,11.383298255169988,5e-324,-5e-324,0.0
1668680562.4879003,28590,1668680562,487673047,,2.372513002173819,4.155734045024123,11.497150499006985,5e-324,-5e-324,0.0
1668680562.4959111,28591,1668680562,495632666,,2.372513002173819,4.155734045024123,11.497150499006985,5e-324,-5e-324,0.0
1668680562.5038915,28592,1668680562,503640239,,2.4932314184162045,4.225185514620964,11.56035643453701,5e-324,-5e-324,0.0
1668680562.5117872,28593,1668680562,511567330,,2.628890402673296,4.284783523117014,11.555091459206068,5e-324,-5e-324,0.0
1668680562.5226617,28594,1668680562,520074187,,2.7002905055054454,4.316108725990384,11.552506752670574,5e-324,-5e-324,0.0
1668680562.5280304,28595,1668680562,527851974,,2.6243841912503245,4.461139200600969,11.619597191644946,5e-324,-5e-324,0.0
1668680562.5357032,28596,1668680562,535480396,,2.6243841912503245,4.461139200600969,11.619597191644946,5e-324,-5e-324,0.0
1668680562.5439827,28597,1668680562,543704238,,2.583539457410045,4.5372560146693175,11.655556675832628,5e-324,-5e-324,0.0
1668680562.5518837,28598,1668680562,551649248,,2.440040249605114,4.782240912025722,11.9816359492225,5e-324,-5e-324,0.0
1668680562.559795,28599,1668680562,559591519,,2.4050337610366936,4.9302702069533835,12.285960599056331,5e-324,-5e-324,0.0
1668680562.5678313,28600,1668680562,567526804,,2.386141247929804,5.008987148301139,12.446885692072591,5e-324,-5e-324,0.0
1668680562.5758147,28601,1668680562,575582275,,2.492807196470645,5.152031182989545,12.656183264784602,5e-324,-5e-324,0.0
1668680562.5865374,28602,1668680562,586278622,,2.492807196470645,5.152031182989545,12.656183264784602,5e-324,-5e-324,0.0
1668680562.5920672,28603,1668680562,591787002,,2.4632468740533495,5.125234935721826,12.774295675532798,5e-324,-5e-324,0.0
1668680562.5999868,28604,1668680562,599746080,,2.4475911469826084,5.111044379870322,12.836796091067976,5e-324,-5e-324,0.0
1668680562.6076894,28605,1668680562,607477265,,2.3969938241138777,4.932325076737304,12.57658603365675,5e-324,-5e-324,0.0
1668680562.6159418,28606,1668680562,615689408,,2.3699099919719604,4.837589127265822,12.43907104315964,5e-324,-5e-324,0.0
1668680562.6236126,28607,1668680562,623379611,,2.3699099919719604,4.837589127265822,12.43907104315964,5e-324,-5e-324,0.0
1668680562.6318238,28608,1668680562,631615497,,2.4677709797076877,4.766604175084842,12.15861373864422,5e-324,-5e-324,0.0
1668680562.6399114,28609,1668680562,639659382,,2.5472235698444994,4.711689847361101,12.033566694686368,5e-324,-5e-324,0.0
1668680562.6477904,28610,1668680562,647553927,,2.5890623107291475,4.681956618294754,11.96776050614601,5e-324,-5e-324,0.0
1668680562.6561096,28611,1668680562,655814619,,2.8386742078466867,4.817709957766365,12.059770329929098,5e-324,-5e-324,0.0
1668680562.6639779,28612,1668680562,663693219,,2.8386742078466867,4.817709957766365,12.059770329929098,5e-324,-5e-324,0.0
1668680562.6718764,28613,1668680562,671621147,,3.0669060633415492,4.966542918982,12.157934948189947,5e-324,-5e-324,0.0
1668680562.6797898,28614,1668680562,679565941,,3.1879099266087447,5.044839643645197,12.20999658409465,5e-324,-5e-324,0.0
1668680562.6883435,28615,1668680562,688029765,,3.3110835887317394,5.232791004100401,12.28109426718968,5e-324,-5e-324,0.0
1668680562.695842,28616,1668680562,695623500,,3.3764166309843118,5.332800811864271,12.31838123964707,5e-324,-5e-324,0.0
1668680562.7035043,28617,1668680562,703278689,,3.3764166309843118,5.332800811864271,12.31838123964707,5e-324,-5e-324,0.0
1668680562.712392,28618,1668680562,712025473,,3.438565868141747,5.575983746882683,12.499132208841425,5e-324,-5e-324,0.0
1668680562.7201183,28619,1668680562,719802474,,3.5094288928918425,5.699705027347518,12.467445784318027,5e-324,-5e-324,0.0
1668680562.727898,28620,1668680562,727590664,,3.5469363592855014,5.765114073059545,12.450700952546669,5e-324,-5e-324,0.0
1668680562.7365417,28621,1668680562,735835750,,3.7709636466328815,5.8805545609899825,12.353755401446364,5e-324,-5e-324,0.0
1668680562.7439458,28622,1668680562,743595597,,3.7709636466328815,5.8805545609899825,12.353755401446364,5e-324,-5e-324,0.0
1668680562.7519996,28623,1668680562,751784802,,3.939619171232239,5.985572778731191,12.357665706829195,5e-324,-5e-324,0.0
1668680562.7599728,28624,1668680562,759670201,,4.028480020952479,6.040123636868596,12.360414836234778,5e-324,-5e-324,0.0
1668680562.7676907,28625,1668680562,767496892,,4.171324096470791,5.997939290466605,12.452138101259283,5e-324,-5e-324,0.0
1668680562.7756162,28626,1668680562,775371168,,4.171324096470791,5.997939290466605,12.452138101259283,5e-324,-5e-324,0.0
1668680562.7842057,28627,1668680562,783983464,,4.246971294677412,5.975069894441264,12.500920987843944,5e-324,-5e-324,0.0
1668680562.7920437,28628,1668680562,791818932,,4.273489621767189,6.015286692877625,12.605413800155231,5e-324,-5e-324,0.0
1668680562.7997198,28629,1668680562,799482899,,4.386760753501969,5.994162112655445,12.708083211834238,5e-324,-5e-324,0.0
1668680562.8079662,28630,1668680562,807738008,,4.446376391393635,5.9830161158784385,12.76251299931847,5e-324,-5e-324,0.0
1668680562.8157296,28631,1668680562,815490859,,4.446376391393635,5.9830161158784385,12.76251299931847,5e-324,-5e-324,0.0
1668680562.8238485,28632,1668680562,823661850,,4.741860591005626,6.026874842825717,12.769431891078527,0.025129055923920604,-5e-324,0.0
1668680562.8319333,28633,1668680562,831723245,,5.069542914535621,6.2061292328950195,12.75980228294422,0.06268773955081526,-5e-324,0.0
1668680562.8398936,28634,1668680562,839651667,,5.2426683358228665,6.300160909345725,12.755256892864269,0.08256234332880479,-5e-324,0.0
1668680562.8478768,28635,1668680562,847634522,,5.532743704838625,6.518796265008602,12.852122300646027,0.1219667599751804,-5e-324,0.0
1668680562.8560698,28636,1668680562,855781753,,5.686591100645551,6.634150087301352,12.903366102170157,0.14283769536983063,-5e-324,0.0
1668680562.8635128,28637,1668680562,863300564,,5.686591100645551,6.634150087301352,12.903366102170157,0.14283769536983063,-5e-324,0.0
1668680562.8717322,28638,1668680562,871543010,,6.033091410997033,6.673202976106204,12.670145708122094,0.2022821409403151,-5e-324,0.0
1668680562.87984,28639,1668680562,879651155,,6.2886269848272205,6.666002821000799,12.632291284097146,0.24695712311267326,-5e-324,0.0
1668680562.8882074,28640,1668680562,887907731,,6.424275633513183,6.6632456838491105,12.611419104607432,0.27059348670915095,-5e-324,0.0
1668680562.8992102,28641,1668680562,898766568,,6.565132268508695,6.603836426046895,12.68159954244427,0.2967744878876786,-5e-324,0.0
1668680562.9037924,28642,1668680562,903452581,,6.565132268508695,6.603836426046895,12.68159954244427,0.2967744878876786,-5e-324,0.0
1668680562.9127762,28643,1668680562,912354078,,6.673269067753774,6.575334550513427,12.76050766781064,0.3153262896835015,-5e-324,0.0
1668680562.919693,28644,1668680562,919472356,,6.730857469510761,6.561078722215697,12.80159594881911,0.3251619249502212,-5e-324,0.0
1668680562.9277854,28645,1668680562,927573845,,6.734800653774588,6.491177901909985,12.796053585772041,0.32784416266267236,-5e-324,0.0
1668680562.9356377,28646,1668680562,935426796,,6.737120032834383,6.453786163773202,12.793210118626103,0.32928966281430816,-5e-324,0.0
1668680562.9434674,28647,1668680562,943274776,,6.737120032834383,6.453786163773202,12.793210118626103,0.32928966281430816,-5e-324,0.0
1668680562.9522939,28648,1668680562,952042243,,6.557647179420641,6.413394994298112,12.981396871946387,0.28880034059504134,-5e-324,0.0
1668680562.9596944,28649,1668680562,959488344,,6.458399683588224,6.3442392997078905,13.166939422112785,0.26351094900549626,-5e-324,0.0
1668680562.9680662,28650,1668680562,967841651,,6.405986816411096,6.307234600757703,13.26526664977317,0.250125603518611,-5e-324,0.0
1668680562.9756494,28651,1668680562,975461723,,6.405986816411096,6.307234600757703,13.26526664977317,0.250125603518611,-5e-324,0.0
1668680562.9839644,28652,1668680562,983751295,,6.283513557694526,6.132020222334619,13.411063149438347,0.22190972691951455,-5e-324,0.0
1668680562.991886,28653,1668680562,991680686,,6.260669629726568,6.070915664424602,13.492151045734971,0.21120220088898156,-5e-324,0.0
1668680562.999966,28654,1668680562,999689405,,6.248821818671263,6.039576465140871,13.53445918235249,0.2055169695401287,-5e-324,0.0
1668680563.0080018,28655,1668680563,7799480,,6.334736991129091,5.9992998272488745,13.674454331821394,0.21867149091828103,-5e-324,0.0
1668680563.015415,28656,1668680563,15198879,,6.334736991129091,5.9992998272488745,13.674454331821394,0.21867149091828103,-5e-324,0.0
1668680563.023791,28657,1668680563,23592221,,6.380143238373723,5.97807882099877,13.748506011461172,0.22562295620611345,-5e-324,0.0
1668680563.0318224,28658,1668680563,31576681,,6.595320850171895,5.916628786437153,13.706671197877686,0.26136623855670993,-5e-324,0.0
1668680563.04051,28659,1668680563,40002070,,6.6073665607839605,5.947979819280088,13.82088979015765,0.2664279183114934,-5e-324,0.0
1668680563.047901,28660,1668680563,47680283,,6.613800320503714,5.96506468974618,13.881056869592026,0.26910991691285024,-5e-324,0.0
1668680563.055968,28661,1668680563,55714582,,6.9922803226734365,5.92630698912421,13.228787734935702,0.35749683627191026,-5e-324,0.0
1668680563.0635214,28662,1668680563,63280475,,6.9922803226734365,5.92630698912421,13.228787734935702,0.35749683627191026,-5e-324,0.0
1668680563.0721447,28663,1668680563,71936010,,7.461589984476358,6.006106354965132,12.470104760881043,0.4567355052232872,-5e-324,0.0
1668680563.0803158,28664,1668680563,80034152,,7.709556809001259,6.04741182734465,12.069454946749836,0.5092443251591645,-5e-324,0.0
1668680563.087757,28665,1668680563,87546525,,8.333279465516306,5.941726042684357,10.820484110888854,0.6531342533263633,-5e-324,0.0
1668680563.0955343,28666,1668680563,95331850,,8.333279465516306,5.941726042684357,10.820484110888854,0.6531342533263633,-5e-324,0.0
1668680563.1040463,28667,1668680563,103817317,,8.662825872434105,5.885597795134884,10.160255114918906,0.7292790140117671,-5e-324,0.0
1668680563.1136813,28668,1668680563,111640746,,8.718790342934934,5.958383931647213,9.550828675654202,0.7613412623988288,-5e-324,0.0
1668680563.119692,28669,1668680563,119476128,,8.65064988584382,6.030838258906595,9.190279051715944,0.765712263891208,-5e-324,0.0
1668680563.1278317,28670,1668680563,127587958,,8.614247364760988,6.069101912690149,8.999914675919301,0.7680088577217643,-5e-324,0.0
1668680563.135708,28671,1668680563,135505282,,8.614247364760988,6.069101912690149,8.999914675919301,0.7680088577217643,-5e-324,0.0
1668680563.143835,28672,1668680563,143613564,,8.5507732460902,6.148758355051731,8.945368022620489,0.7706781955563962,-5e-324,0.0
1668680563.1519017,28673,1668680563,151691091,,8.622368037761,6.29897901508151,9.022123126488784,0.7922326948587592,-5e-324,0.0
1668680563.1598897,28674,1668680563,159697077,,8.660177933279513,6.377823495882865,9.063267348111943,0.8036647639709085,-5e-324,0.0
1668680563.1680727,28675,1668680563,167817492,,8.476834544158363,6.434814438498183,9.137487428659295,0.7857339624315167,-5e-324,0.0
1668680563.1760767,28676,1668680563,175849195,,8.37990548686805,6.465676445597483,9.17616809590243,0.7762462271898439,-5e-324,0.0
1668680563.1837213,28677,1668680563,183496259,,8.37990548686805,6.465676445597483,9.17616809590243,0.7762462271898439,-5e-324,0.0
1668680563.1921623,28678,1668680563,191866370,,8.181899257788906,6.580107517751163,9.29939314628033,0.7442517676174498,-5e-324,0.0
1668680563.2000299,28679,1668680563,199649421,,8.176419087107842,6.621321691625559,9.378861053273207,0.7431476373327022,-5e-324,0.0
1668680563.2076569,28680,1668680563,207496226,,8.173578096317254,6.6430301457902186,9.420925645334592,0.742558196996906,-5e-324,0.0
1668680563.2158084,28681,1668680563,215595244,,8.173578096317254,6.6430301457902186,9.420925645334592,0.742558196996906,-5e-324,0.0
1668680563.2239296,28682,1668680563,223711404,,8.32169211534964,6.725852327145992,9.43104409758514,0.76708769418523,-5e-324,0.0
1668680563.2320516,28683,1668680563,231788918,,8.381742100102581,6.714063791603191,9.471067615181564,0.7801816866148479,-5e-324,0.0
1668680563.239828,28684,1668680563,239619818,,8.413727457142235,6.7082705254369746,9.491725628542863,0.7871208440641277,-5e-324,0.0
1668680563.2478728,28685,1668680563,247640369,,8.281491359833744,6.663833893248444,9.589174303361105,0.7569447932044888,-5e-324,0.0
1668680563.2557564,28686,1668680563,255501503,,8.281491359833744,6.663833893248444,9.589174303361105,0.7569447932044888,-5e-324,0.0
1668680563.2639792,28687,1668680563,263719673,,8.211501402855447,6.640614463401951,9.640547976919533,0.7409376106759419,-5e-324,0.0
1668680563.2720008,28688,1668680563,271717908,,8.212011133541715,6.488574103286215,9.759307671772508,0.7301102858018296,-5e-324,0.0
1668680563.2798429,28689,1668680563,279582649,,8.144291078197075,6.386010197241674,9.813558279821958,0.7147601163185892,-5e-324,0.0
1668680563.2880013,28690,1668680563,287755977,,8.108198073398997,6.331962284719598,9.842336395018222,0.7066499983713264,-5e-324,0.0
1668680563.295863,28691,1668680563,295651214,,8.027531437995648,6.2551057966692145,9.962605540412653,0.6865058420252517,-5e-324,0.0
1668680563.3034885,28692,1668680563,303284884,,8.027531437995648,6.2551057966692145,9.962605540412653,0.6865058420252517,-5e-324,0.0
1668680563.312281,28693,1668680563,311963096,,7.9371950640855475,6.191586189836359,10.098039470074852,0.661149009929549,-5e-324,0.0
1668680563.3204215,28694,1668680563,320234898,,7.88907396288419,6.158189637852604,10.169817603568632,0.647719821794638,-5e-324,0.0
1668680563.3283055,28695,1668680563,328011218,,7.944036862150769,6.067924829442605,10.63271703576737,0.6359907434065499,-5e-324,0.0
1668680563.3360937,28696,1668680563,335890808,,7.944036862150769,6.067924829442605,10.63271703576737,0.6359907434065499,-5e-324,0.0
1668680563.344214,28697,1668680563,343978320,,7.973359360272704,6.020502708791151,10.877254834966049,0.6297706802306309,-5e-324,0.0
1668680563.3518555,28698,1668680563,351631387,,7.934144940227883,6.136248625942562,11.093408801012274,0.6126954201160211,-5e-324,0.0
1668680563.3599617,28699,1668680563,359643665,,7.990111663144367,6.1902499752757025,11.085110183327638,0.6225359916026817,-5e-324,0.0
1668680563.367714,28700,1668680563,367539689,,8.019948264559638,6.218182932233125,11.080933271830691,0.6277498604202447,-5e-324,0.0
1668680563.3756418,28701,1668680563,375398848,,8.019948264559638,6.218182932233125,11.080933271830691,0.6277498604202447,-5e-324,0.0
1668680563.3839078,28702,1668680563,383643686,,8.261662650240908,6.3588049147879495,11.16933300595654,0.6695593718353045,-5e-324,0.0
1668680563.3918126,28703,1668680563,391573125,,8.43718827025674,6.467279567384074,11.328424653946346,0.6964235053668821,-5e-324,0.0
1668680563.3997629,28704,1668680563,399523927,,8.53028611286166,6.524496674326979,11.412524301416974,0.7106393756683546,-5e-324,0.0
1668680563.407941,28705,1668680563,407639923,,8.607313686532649,6.613633590431068,11.531412189721813,0.7188480615888604,-5e-324,0.0
1668680563.4155617,28706,1668680563,415309125,,8.607313686532649,6.613633590431068,11.531412189721813,0.7188480615888604,-5e-324,0.0
1668680563.4239779,28707,1668680563,423710697,,8.648098442553295,6.660491679237957,11.59447336569174,0.7232002325908286,-5e-324,0.0
1668680563.4320867,28708,1668680563,431867700,,8.59060326621048,6.81532221973358,11.893569151927878,0.7034912251782599,-5e-324,0.0
1668680563.439961,28709,1668680563,439723802,,8.59769415761555,6.875061146517278,11.990189846426155,0.7009115767987362,-5e-324,0.0
1668680563.4478528,28710,1668680563,447619130,,8.60203406835647,6.906185908971162,12.041170380632796,0.6995518479405711,-5e-324,0.0
1668680563.4561367,28711,1668680563,455920970,,8.750461965543735,6.953284786658836,11.953561059598314,0.7266560395270825,-5e-324,0.0
1668680563.463774,28712,1668680563,463500975,,8.750461965543735,6.953284786658836,11.953561059598314,0.7266560395270825,-5e-324,0.0
1668680563.4768558,28713,1668680563,476478350,,8.830932988692727,6.915245520265828,11.846970396152507,0.7449247719008241,-5e-324,0.0
1668680563.4803786,28714,1668680563,480085951,,8.873700600091347,6.895455617669979,11.790218078367033,0.7545984345379877,-5e-324,0.0
1668680563.488501,28715,1668680563,488244390,,8.783496663800333,6.988809686531441,12.027327843382468,0.7331727143344251,-5e-324,0.0
1668680563.4961655,28716,1668680563,495892897,,8.783496663800333,6.988809686531441,12.027327843382468,0.7331727143344251,-5e-324,0.0
1668680563.5045393,28717,1668680563,504214578,,8.735798426229435,7.038013596407639,12.152872186860353,0.721852024714813,-5e-324,0.0
1668680563.5128438,28718,1668680563,512573978,,8.72786830294205,7.118195340651507,12.119265583964953,0.7179980092689131,-5e-324,0.0
1668680563.5210757,28719,1668680563,520775334,,8.761202710691192,7.124878777533235,11.823574623308936,0.730096474899274,-5e-324,0.0
1668680563.5287452,28720,1668680563,528518581,,8.77917759347085,7.1286502874857565,11.666712337307823,0.7364995110806094,-5e-324,0.0
1668680563.536286,28721,1668680563,536077396,,8.856900419216903,7.110889218402214,11.386369766411882,0.7587719448718823,-5e-324,0.0
1668680563.5442965,28722,1668680563,544073957,,8.856900419216903,7.110889218402214,11.386369766411882,0.7587719448718823,-5e-324,0.0
1668680563.5530381,28723,1668680563,552724721,,8.883647911782202,7.074340628856998,11.22483691675383,0.7694490459312335,-5e-324,0.0
1668680563.5608675,28724,1668680563,560601112,,8.897904324277324,7.054837949338967,11.139397592014936,0.7750829893835527,-5e-324,0.0
1668680563.5686798,28725,1668680563,568461616,,8.873297307624716,7.006897653792303,11.015789990552905,0.7753947934491766,-5e-324,0.0
1668680563.576314,28726,1668680563,576036872,,8.873297307624716,7.006897653792303,11.015789990552905,0.7753947934491766,-5e-324,0.0
1668680563.584871,28727,1668680563,584582476,,8.860244647118213,6.981227721892523,10.950624580563062,0.7755655704156912,-5e-324,0.0
1668680563.5928953,28728,1668680563,592629607,,8.967052006048705,7.056463096459101,10.645713444871602,0.8036131539957552,-5e-324,0.0
1668680563.6007314,28729,1668680563,600499285,,9.026631174681867,7.181119094442393,10.397230776347815,0.8246806839906655,-5e-324,0.0
1668680563.6078618,28730,1668680563,607694737,,9.057921477598718,7.24697647226086,10.266045817800823,0.8358198929122922,-5e-324,0.0
1668680563.6160285,28731,1668680563,615805596,,8.99722553621417,7.1804233658036845,10.17603374473951,0.8365011681071319,-5e-324,0.0
1668680563.6243916,28732,1668680563,623676340,,8.99722553621417,7.1804233658036845,10.17603374473951,0.8365011681071319,-5e-324,0.0
1668680563.632206,28733,1668680563,631933160,,9.012509875405561,7.202711167277805,10.135455001714291,0.8423736381130917,-5e-324,0.0
1668680563.639837,28734,1668680563,639593590,,9.020770069531105,7.214424163447465,10.113887290713164,0.8455092677230455,-5e-324,0.0
1668680563.6482465,28735,1668680563,647998571,,9.135177945580926,7.2705656876906986,10.120093336962075,0.8635663176630208,-5e-324,0.0
1668680563.6553686,28736,1668680563,655170053,,9.135177945580926,7.2705656876906986,10.120093336962075,0.8635663176630208,-5e-324,0.0
1668680563.6636946,28737,1668680563,663510083,,9.19544544825725,7.300970944400899,10.123093722584962,0.873082503748883,-5e-324,0.0
1668680563.6719587,28738,1668680563,671720495,,9.060922762457334,7.25525936098013,10.070956262829622,0.8580805305469615,-5e-324,0.0
1668680563.6805146,28739,1668680563,680149208,,8.946555646249472,7.155636046594098,10.045243092687752,0.8388849207080402,-5e-324,0.0
1668680563.687947,28740,1668680563,687735360,,8.88581210115769,7.102947393017095,10.031833276803445,0.8287468874341055,-5e-324,0.0
1668680563.6959515,28741,1668680563,695734114,,9.04847296585363,7.161425393847463,10.020607469502814,0.8519667425357458,-5e-324,0.0
1668680563.7035975,28742,1668680563,703321540,,9.04847296585363,7.161425393847463,10.020607469502814,0.8519667425357458,-5e-324,0.0
1668680563.7119162,28743,1668680563,711703446,,9.17359813285074,7.1429150208802525,10.071813350797118,0.8729764660029335,-5e-324,0.0
1668680563.7209861,28744,1668680563,720655849,,9.239486267269037,7.133244793041016,10.099105223945324,0.8841119742069541,-5e-324,0.0
1668680563.728002,28745,1668680563,727641385,,9.177311705296319,7.187791260129433,10.154965042750893,0.8770386411376865,-5e-324,0.0
1668680563.7356212,28746,1668680563,735419855,,9.177311705296319,7.187791260129433,10.154965042750893,0.8770386411376865,-5e-324,0.0
1668680563.7437394,28747,1668680563,743549123,,9.145199460208104,7.216304130080041,10.184068468783794,0.8733179077612272,-5e-324,0.0
1668680563.7517586,28748,1668680563,751580664,,9.018510887696,7.207888062956382,10.299669589666955,0.8501727193625314,-5e-324,0.0
1668680563.7598822,28749,1668680563,759670762,,8.937034166332845,7.105464490907481,10.390938862435684,0.8322670471079009,-5e-324,0.0
1668680563.7680562,28750,1668680563,767798368,,8.894105971235758,7.05141013410142,10.438979454166027,0.8227720480276528,-5e-324,0.0
1668680563.7761998,28751,1668680563,775759025,,8.788724368971618,7.049988200714072,10.441313010449711,0.7977353586219933,-5e-324,0.0
1668680563.7838051,28752,1668680563,783544603,,8.788724368971618,7.049988200714072,10.441313010449711,0.7977353586219933,-5e-324,0.0
1668680563.7928474,28753,1668680563,792632199,,8.70449287715384,7.143838487551827,10.393994726168614,0.7806789570773307,-5e-324,0.0
1668680563.800418,28754,1668680563,800140481,,8.660604103722758,7.19280203469241,10.368888868711995,0.7716735742276654,-5e-324,0.0
1668680563.8084319,28755,1668680563,808230648,,8.733753498861489,7.188764555815547,10.370477657586674,0.7846099390854695,-5e-324,0.0
1668680563.8160918,28756,1668680563,815861709,,8.733753498861489,7.188764555815547,10.370477657586674,0.7846099390854695,-5e-324,0.0
1668680563.824464,28757,1668680563,824228487,,8.772598801871375,7.186496455138025,10.371289282298505,0.7914578752094347,-5e-324,0.0
1668680563.8322568,28758,1668680563,831974910,,8.82727899419286,7.1645572230168035,10.489812714688641,0.7955658767250005,-5e-324,0.0
1668680563.8406448,28759,1668680563,840399420,,8.841669137455327,7.055400760049775,10.611179746073052,0.7927867044888893,-5e-324,0.0
1668680563.8487933,28760,1668680563,848526190,,8.848915454597936,6.997578629503472,10.675747627762425,0.7913110780122721,-5e-324,0.0
1668680563.8555043,28761,1668680563,855308100,,8.848915454597936,6.997578629503472,10.675747627762425,0.7913110780122721,-5e-324,0.0
1668680563.8641522,28762,1668680563,863920431,,9.06509690195698,7.207038277742187,10.59005764546623,0.8273402464322992,-5e-324,0.0
1668680563.8719194,28763,1668680563,871699556,,9.200833831392629,7.330393192468957,10.48745156437245,0.855753333094426,-5e-324,0.0
1668680563.8797693,28764,1668680563,879532651,,9.272824411882766,7.395179225035022,10.43336165410517,0.870805320048017,-5e-324,0.0
1668680563.8879633,28765,1668680563,887707568,,9.24045322510148,7.367502747689159,10.345066309512934,0.8672739787115789,-5e-324,0.0
1668680563.8959208,28766,1668680563,895692824,,9.223097415591628,7.3534521574366805,10.29811973159563,0.8653728726434502,-5e-324,0.0
1668680563.9039383,28767,1668680563,903637447,,9.223097415591628,7.3534521574366805,10.29811973159563,0.8653728726434502,-5e-324,0.0
1668680563.912135,28768,1668680563,911835631,,9.10061228881698,7.311634755192036,10.336443006781801,0.8388333917917894,-5e-324,0.0
1668680563.9204051,28769,1668680563,919995639,,8.913788052805259,7.158139794209828,10.482491430026178,0.798096365358633,-5e-324,0.0
1668680563.9277887,28770,1668680563,927580802,,8.815250779127979,7.077265009399374,10.55927596180559,0.7765251543757569,-5e-324,0.0
1668680563.9357953,28771,1668680563,935521126,,8.815250779127979,7.077265009399374,10.55927596180559,0.7765251543757569,-5e-324,0.0
