Time,header.seq,header.stamp.secs,header.stamp.nsecs,header.frame_id,pose.position.x,pose.position.y,pose.position.z,pose.orientation.x,pose.orientation.y,pose.orientation.z,pose.orientation.w
1668680560.2564025,28311,1668680560,255989359,,-0.09879818042605837,-0.6160097982720756,0.07088206676343922,0.9955612156868469,0.09352316526210465,-0.004347595386304483,0.009611544820768937
1668680560.2636714,28312,1668680560,263518936,,-0.09879818042605837,-0.6160097982720756,0.07088206676343922,0.9955612156868469,0.09352316526210465,-0.004347595386304483,0.009611544820768937
1668680560.2719944,28313,1668680560,271771005,,-0.09879818042605837,-0.6160097982720756,0.07088206676343922,0.9955612156868469,0.09352316526210465,-0.004347595386304483,0.009611544820768937
1668680560.2799094,28314,1668680560,279799494,,-0.09879818042605837,-0.6160097982720756,0.07088206676343922,0.9955612156868469,0.09352316526210465,-0.004347595386304483,0.009611544820768937
1668680560.28808,28315,1668680560,287930960,,-0.09879818042605837,-0.6160097982720756,0.07088206676343922,0.9955612156868469,0.09352316526210465,-0.004347595386304483,0.009611544820768937
1668680560.2960207,28316,1668680560,295729293,,-0.09879818042605837,-0.6160097982720756,0.07088206676343922,0.9955612156868469,0.09352316526210465,-0.004347595386304483,0.009611544820768937
1668680560.3035874,28317,1668680560,303412931,,-0.09879818042605837,-0.6160097982720756,0.07088206676343922,0.9955612156868469,0.09352316526210465,-0.004347595386304483,0.009611544820768937
1668680560.3129334,28318,1668680560,312582185,,-0.09879818042605837,-0.6160097982720756,0.07088206676343922,0.9955612156868469,0.09352316526210465,-0.004347595386304483,0.009611544820768937
1668680560.3202333,28319,1668680560,320050031,,-0.09879818042605837,-0.6160097982720756,0.07088206676343922,0.9955612156868469,0.09352316526210465,-0.004347595386304483,0.009611544820768937
1668680560.328102,28320,1668680560,327775174,,-0.09879818042605837,-0.6160097982720756,0.07088206676343922,0.9955612156868469,0.09352316526210465,-0.004347595386304483,0.009611544820768937
1668680560.3355787,28321,1668680560,335431479,,-0.09879818042605837,-0.6160097982720756,0.07088206676343922,0.9955612156868469,0.09352316526210465,-0.004347595386304483,0.009611544820768937
1668680560.3442907,28322,1668680560,344048745,,-0.09879818042605837,-0.6160097982720756,0.07088206676343922,0.9955612156868469,0.09352316526210465,-0.004347595386304483,0.009611544820768937
1668680560.3522165,28323,1668680560,352040141,,-0.09879818042605837,-0.6160097982720756,0.07088206676343922,0.9955612156868469,0.09352316526210465,-0.004347595386304483,0.009611544820768937
1668680560.3601015,28324,1668680560,359895984,,-0.09879818042605837,-0.6160097982720756,0.07088206676343922,0.9955612156868469,0.09352316526210465,-0.004347595386304483,0.009611544820768937
1668680560.3677485,28325,1668680560,367584354,,-0.09879818042605837,-0.6160097982720756,0.07088206676343922,0.9955612156868469,0.09352316526210465,-0.004347595386304483,0.009611544820768937
1668680560.375552,28326,1668680560,375334032,,-0.09879818042605837,-0.6160097982720756,0.07088206676343922,0.9955612156868469,0.09352316526210465,-0.004347595386304483,0.009611544820768937
1668680560.3841393,28327,1668680560,383893358,,-0.09879818042605837,-0.6160097982720756,0.07088206676343922,0.9955612156868469,0.09352316526210465,-0.004347595386304483,0.009611544820768937
1668680560.3924077,28328,1668680560,392207932,,-0.09879818042605837,-0.6160097982720756,0.07088206676343922,0.9955612156868469,0.09352316526210465,-0.004347595386304483,0.009611544820768937
1668680560.4006195,28329,1668680560,400373995,,-0.09879818042605837,-0.6160097982720756,0.07088206676343922,0.9955612156868469,0.09352316526210465,-0.004347595386304483,0.009611544820768937
1668680560.4086754,28330,1668680560,408467485,,-0.09879818042605837,-0.6160097982720756,0.07088206676343922,0.9955612156868469,0.09352316526210465,-0.004347595386304483,0.009611544820768937
1668680560.4161253,28331,1668680560,415881893,,-0.09879818042605837,-0.6160097982720756,0.07088206676343922,0.9955612156868469,0.09352316526210465,-0.004347595386304483,0.009611544820768937
1668680560.4249122,28332,1668680560,424726026,,-0.09879818042605837,-0.6160097982720756,0.07088206676343922,0.9955612156868469,0.09352316526210465,-0.004347595386304483,0.009611544820768937
1668680560.4321384,28333,1668680560,431936503,,-0.09879818042605837,-0.6160097982720756,0.07088206676343922,0.9955612156868469,0.09352316526210465,-0.004347595386304483,0.009611544820768937
1668680560.440422,28334,1668680560,440231286,,-0.09879818042605837,-0.6160097982720756,0.07088206676343922,0.9955612156868469,0.09352316526210465,-0.004347595386304483,0.009611544820768937
1668680560.4487276,28335,1668680560,448541883,,-0.09879818042605837,-0.6160097982720756,0.07088206676343922,0.9955612156868469,0.09352316526210465,-0.004347595386304483,0.009611544820768937
1668680560.4556413,28336,1668680560,455437901,,-0.09879818042605837,-0.6160097982720756,0.07088206676343922,0.9955612156868469,0.09352316526210465,-0.004347595386304483,0.009611544820768937
1668680560.4636514,28337,1668680560,463540069,,-0.09879818042605837,-0.6160097982720756,0.07088206676343922,0.9955612156868469,0.09352316526210465,-0.004347595386304483,0.009611544820768937
1668680560.4717917,28338,1668680560,471638451,,-0.09879818042605837,-0.6160097982720756,0.07088206676343922,0.9955612156868469,0.09352316526210465,-0.004347595386304483,0.009611544820768937
1668680560.4797728,28339,1668680560,479645415,,-0.09879818042605837,-0.6160097982720756,0.07088206676343922,0.9955612156868469,0.09352316526210465,-0.004347595386304483,0.009611544820768937
1668680560.4878592,28340,1668680560,487641652,,-0.09879818042605837,-0.6160097982720756,0.07088206676343922,0.9955612156868469,0.09352316526210465,-0.004347595386304483,0.009611544820768937
1668680560.4958947,28341,1668680560,495627508,,-0.09879818042605837,-0.6160097982720756,0.07088206676343922,0.9955612156868469,0.09352316526210465,-0.004347595386304483,0.009611544820768937
1668680560.5036187,28342,1668680560,503316038,,-0.09879818042605837,-0.6160097982720756,0.07088206676343922,0.9955612156868469,0.09352316526210465,-0.004347595386304483,0.009611544820768937
1668680560.5122128,28343,1668680560,511773322,,-0.09879818042605837,-0.6160097982720756,0.07088206676343922,0.9955612156868469,0.09352316526210465,-0.004347595386304483,0.009611544820768937
1668680560.5199063,28344,1668680560,519717024,,-0.09879818042605837,-0.6160097982720756,0.07088206676343922,0.9955612156868469,0.09352316526210465,-0.004347595386304483,0.009611544820768937
1668680560.5280986,28345,1668680560,527897541,,-0.09879818042605837,-0.6160097982720756,0.07088206676343922,0.9955612156868469,0.09352316526210465,-0.004347595386304483,0.009611544820768937
1668680560.5354235,28346,1668680560,535286835,,-0.09879818042605837,-0.6160097982720756,0.07088206676343922,0.9955612156868469,0.09352316526210465,-0.004347595386304483,0.009611544820768937
1668680560.543959,28347,1668680560,543786323,,-0.09879818042605837,-0.6160097982720756,0.07088206676343922,0.9955612156868469,0.09352316526210465,-0.004347595386304483,0.009611544820768937
1668680560.551787,28348,1668680560,551615782,,-0.09879818042605837,-0.6160097982720756,0.07088206676343922,0.9955612156868469,0.09352316526210465,-0.004347595386304483,0.009611544820768937
1668680560.5597665,28349,1668680560,559609280,,-0.09879818042605837,-0.6160097982720756,0.07088206676343922,0.9955612156868469,0.09352316526210465,-0.004347595386304483,0.009611544820768937
1668680560.5679278,28350,1668680560,567744029,,-0.09879818042605837,-0.6160097982720756,0.07088206676343922,0.9955612156868469,0.09352316526210465,-0.004347595386304483,0.009611544820768937
1668680560.5758111,28351,1668680560,575601291,,-0.09879818042605837,-0.6160097982720756,0.07088206676343922,0.9955612156868469,0.09352316526210465,-0.004347595386304483,0.009611544820768937
1668680560.5838358,28352,1668680560,583702733,,-0.09879818042605837,-0.6160097982720756,0.07088206676343922,0.9955612156868469,0.09352316526210465,-0.004347595386304483,0.009611544820768937
1668680560.591776,28353,1668680560,591653884,,-0.09879818042605837,-0.6160097982720756,0.07088206676343922,0.9955612156868469,0.09352316526210465,-0.004347595386304483,0.009611544820768937
1668680560.600161,28354,1668680560,599950245,,-0.09879818042605837,-0.6160097982720756,0.07088206676343922,0.9955612156868469,0.09352316526210465,-0.004347595386304483,0.009611544820768937
1668680560.6079798,28355,1668680560,607747748,,-0.09879818042605837,-0.6160097982720756,0.07088206676343922,0.9955612156868469,0.09352316526210465,-0.004347595386304483,0.009611544820768937
1668680560.615762,28356,1668680560,615586569,,-0.09879818042605837,-0.6160097982720756,0.07088206676343922,0.9955612156868469,0.09352316526210465,-0.004347595386304483,0.009611544820768937
1668680560.6235318,28357,1668680560,623372044,,-0.09879818042605837,-0.6160097982720756,0.07088206676343922,0.9955612156868469,0.09352316526210465,-0.004347595386304483,0.009611544820768937
1668680560.6317818,28358,1668680560,631574607,,-0.09879818042605837,-0.6160097982720756,0.07088206676343922,0.9955612156868469,0.09352316526210465,-0.004347595386304483,0.009611544820768937
1668680560.640217,28359,1668680560,639973357,,-0.09879818042605837,-0.6160097982720756,0.07088206676343922,0.9955612156868469,0.09352316526210465,-0.004347595386304483,0.009611544820768937
1668680560.6489873,28360,1668680560,648735404,,-0.09879818042605837,-0.6160097982720756,0.07088206676343922,0.9955612156868469,0.09352316526210465,-0.004347595386304483,0.009611544820768937
1668680560.655807,28361,1668680560,655690531,,-0.09879818042605837,-0.6160097982720756,0.07088206676343922,0.9955612156868469,0.09352316526210465,-0.004347595386304483,0.009611544820768937
1668680560.6644003,28362,1668680560,663557153,,-0.09879818042605837,-0.6160097982720756,0.07088206676343922,0.9955612156868469,0.09352316526210465,-0.004347595386304483,0.009611544820768937
1668680560.6729193,28363,1668680560,672468160,,-0.09879818042605837,-0.6160097982720756,0.07088206676343922,0.9955612156868469,0.09352316526210465,-0.004347595386304483,0.009611544820768937
1668680560.6810346,28364,1668680560,680631118,,-0.09879818042605837,-0.6160097982720756,0.07088206676343922,0.9955612156868469,0.09352316526210465,-0.004347595386304483,0.009611544820768937
1668680560.6884642,28365,1668680560,688124767,,-0.09879818042605837,-0.6160097982720756,0.07088206676343922,0.9955612156868469,0.09352316526210465,-0.004347595386304483,0.009611544820768937
1668680560.6964545,28366,1668680560,696138495,,-0.09879818042605837,-0.6160097982720756,0.07088206676343922,0.9955612156868469,0.09352316526210465,-0.004347595386304483,0.009611544820768937
1668680560.7036614,28367,1668680560,703518718,,-0.09879818042605837,-0.6160097982720756,0.07088206676343922,0.9955612156868469,0.09352316526210465,-0.004347595386304483,0.009611544820768937
1668680560.7119517,28368,1668680560,711743363,,-0.09879818042605837,-0.6160097982720756,0.07088206676343922,0.9955612156868469,0.09352316526210465,-0.004347595386304483,0.009611544820768937
1668680560.7199287,28369,1668680560,719679402,,-0.09879818042605837,-0.6160097982720756,0.07088206676343922,0.9955612156868469,0.09352316526210465,-0.004347595386304483,0.009611544820768937
1668680560.7282107,28370,1668680560,728056838,,-0.09879818042605837,-0.6160097982720756,0.07088206676343922,0.9955612156868469,0.09352316526210465,-0.004347595386304483,0.009611544820768937
1668680560.735637,28371,1668680560,735415388,,-0.09879818042605837,-0.6160097982720756,0.07088206676343922,0.9955612156868469,0.09352316526210465,-0.004347595386304483,0.009611544820768937
1668680560.743968,28372,1668680560,743828554,,-0.09879818042605837,-0.6160097982720756,0.07088206676343922,0.9955612156868469,0.09352316526210465,-0.004347595386304483,0.009611544820768937
1668680560.751708,28373,1668680560,751506425,,-0.09879818042605837,-0.6160097982720756,0.07088206676343922,0.9955612156868469,0.09352316526210465,-0.004347595386304483,0.009611544820768937
1668680560.759904,28374,1668680560,759775343,,-0.09879818042605837,-0.6160097982720756,0.07088206676343922,0.9955612156868469,0.09352316526210465,-0.004347595386304483,0.009611544820768937
1668680560.7685144,28375,1668680560,768246375,,-0.09879818042605837,-0.6160097982720756,0.07088206676343922,0.9955612156868469,0.09352316526210465,-0.004347595386304483,0.009611544820768937
1668680560.7757516,28376,1668680560,775530412,,-0.09879818042605837,-0.6160097982720756,0.07088206676343922,0.9955612156868469,0.09352316526210465,-0.004347595386304483,0.009611544820768937
1668680560.783495,28377,1668680560,783297657,,-0.09879818042605837,-0.6160097982720756,0.07088206676343922,0.9955612156868469,0.09352316526210465,-0.004347595386304483,0.009611544820768937
1668680560.792007,28378,1668680560,791821624,,-0.09879818042605837,-0.6160097982720756,0.07088206676343922,0.9955612156868469,0.09352316526210465,-0.004347595386304483,0.009611544820768937
1668680560.7997005,28379,1668680560,799577720,,-0.09879818042605837,-0.6160097982720756,0.07088206676343922,0.9955612156868469,0.09352316526210465,-0.004347595386304483,0.009611544820768937
1668680560.8083138,28380,1668680560,808022282,,-0.09879818042605837,-0.6160097982720756,0.07088206676343922,0.9955612156868469,0.09352316526210465,-0.004347595386304483,0.009611544820768937
1668680560.8166335,28381,1668680560,816262530,,-0.09879818042605837,-0.6160097982720756,0.07088206676343922,0.9955612156868469,0.09352316526210465,-0.004347595386304483,0.009611544820768937
1668680560.824033,28382,1668680560,823858746,,-0.09879818042605837,-0.6160097982720756,0.07088206676343922,0.9955612156868469,0.09352316526210465,-0.004347595386304483,0.009611544820768937
1668680560.8326592,28383,1668680560,832516817,,-0.09879818042605837,-0.6160097982720756,0.07088206676343922,0.9955612156868469,0.09352316526210465,-0.004347595386304483,0.009611544820768937
1668680560.8403704,28384,1668680560,840223427,,-0.09879818042605837,-0.6160097982720756,0.07088206676343922,0.9955612156868469,0.09352316526210465,-0.004347595386304483,0.009611544820768937
1668680560.8486516,28385,1668680560,848472959,,-0.09879818042605837,-0.6160097982720756,0.07088206676343922,0.9955612156868469,0.09352316526210465,-0.004347595386304483,0.009611544820768937
1668680560.8561785,28386,1668680560,855922892,,-0.09879818042605837,-0.6160097982720756,0.07088206676343922,0.9955612156868469,0.09352316526210465,-0.004347595386304483,0.009611544820768937
1668680560.8647969,28387,1668680560,864520169,,-0.09879818042605837,-0.6160097982720756,0.07088206676343922,0.9955612156868469,0.09352316526210465,-0.004347595386304483,0.009611544820768937
1668680560.8725615,28388,1668680560,872367044,,-0.09879818042605837,-0.6160097982720756,0.07088206676343922,0.9955612156868469,0.09352316526210465,-0.004347595386304483,0.009611544820768937
1668680560.8805158,28389,1668680560,880293498,,-0.09879818042605837,-0.6160097982720756,0.07088206676343922,0.9955612156868469,0.09352316526210465,-0.004347595386304483,0.009611544820768937
1668680560.8886387,28390,1668680560,888357745,,-0.09879818042605837,-0.6160097982720756,0.07088206676343922,0.9955612156868469,0.09352316526210465,-0.004347595386304483,0.009611544820768937
1668680560.8954818,28391,1668680560,895353113,,-0.09879818042605837,-0.6160097982720756,0.07088206676343922,0.9955612156868469,0.09352316526210465,-0.004347595386304483,0.009611544820768937
1668680560.9037228,28392,1668680560,903601290,,-0.09879818042605837,-0.6160097982720756,0.07088206676343922,0.9955612156868469,0.09352316526210465,-0.004347595386304483,0.009611544820768937
1668680560.9118013,28393,1668680560,911564886,,-0.09879818042605837,-0.6160097982720756,0.07088206676343922,0.9955612156868469,0.09352316526210465,-0.004347595386304483,0.009611544820768937
1668680560.9198298,28394,1668680560,919640319,,-0.09879818042605837,-0.6160097982720756,0.07088206676343922,0.9955612156868469,0.09352316526210465,-0.004347595386304483,0.009611544820768937
1668680560.927675,28395,1668680560,927562993,,-0.09879818042605837,-0.6160097982720756,0.07088206676343922,0.9955612156868469,0.09352316526210465,-0.004347595386304483,0.009611544820768937
1668680560.9355464,28396,1668680560,935405187,,-0.09879818042605837,-0.6160097982720756,0.07088206676343922,0.9955612156868469,0.09352316526210465,-0.004347595386304483,0.009611544820768937
1668680560.9441693,28397,1668680560,943965638,,-0.09879818042605837,-0.6160097982720756,0.07088206676343922,0.9955612156868469,0.09352316526210465,-0.004347595386304483,0.009611544820768937
1668680560.9518173,28398,1668680560,951619905,,-0.09879818042605837,-0.6160097982720756,0.07088206676343922,0.9955612156868469,0.09352316526210465,-0.004347595386304483,0.009611544820768937
1668680560.96227,28399,1668680560,961852620,,-0.09879818042605837,-0.6160097982720756,0.07088206676343922,0.9955612156868469,0.09352316526210465,-0.004347595386304483,0.009611544820768937
1668680560.9684882,28400,1668680560,968360906,,-0.09879818042605837,-0.6160097982720756,0.07088206676343922,0.9955612156868469,0.09352316526210465,-0.004347595386304483,0.009611544820768937
1668680560.975956,28401,1668680560,975748923,,-0.09879818042605837,-0.6160097982720756,0.07088206676343922,0.9955612156868469,0.09352316526210465,-0.004347595386304483,0.009611544820768937
1668680560.9835637,28402,1668680560,983318448,,-0.09879818042605837,-0.6160097982720756,0.07088206676343922,0.9955612156868469,0.09352316526210465,-0.004347595386304483,0.009611544820768937
1668680560.9918327,28403,1668680560,991685139,,-0.09879818042605837,-0.6160097982720756,0.07088206676343922,0.9955612156868469,0.09352316526210465,-0.004347595386304483,0.009611544820768937
1668680560.9998484,28404,1668680560,999639069,,-0.09879818042605837,-0.6160097982720756,0.07088206676343922,0.9955612156868469,0.09352316526210465,-0.004347595386304483,0.009611544820768937
1668680561.0078576,28405,1668680561,7705791,,-0.09879818042605837,-0.6160097982720756,0.07088206676343922,0.9955612156868469,0.09352316526210465,-0.004347595386304483,0.009611544820768937
1668680561.0156522,28406,1668680561,15491264,,-0.09879818042605837,-0.6160097982720756,0.07088206676343922,0.9955612156868469,0.09352316526210465,-0.004347595386304483,0.009611544820768937
1668680561.0234785,28407,1668680561,23318255,,-0.09879818042605837,-0.6160097982720756,0.07088206676343922,0.9955612156868469,0.09352316526210465,-0.004347595386304483,0.009611544820768937
1668680561.0317557,28408,1668680561,31625672,,-0.09879818042605837,-0.6160097982720756,0.07088206676343922,0.9955612156868469,0.09352316526210465,-0.004347595386304483,0.009611544820768937
1668680561.0397096,28409,1668680561,39591841,,-0.09879818042605837,-0.6160097982720756,0.07088206676343922,0.9955612156868469,0.09352316526210465,-0.004347595386304483,0.009611544820768937
1668680561.0487125,28410,1668680561,48423732,,-0.09879818042605837,-0.6160097982720756,0.07088206676343922,0.9955612156868469,0.09352316526210465,-0.004347595386304483,0.009611544820768937
1668680561.0565856,28411,1668680561,56379955,,-0.09879818042605837,-0.6160097982720756,0.07088206676343922,0.9955612156868469,0.09352316526210465,-0.004347595386304483,0.009611544820768937
1668680561.0635214,28412,1668680561,63377626,,-0.09879818042605837,-0.6160097982720756,0.07088206676343922,0.9955612156868469,0.09352316526210465,-0.004347595386304483,0.009611544820768937
1668680561.071786,28413,1668680561,71576297,,-0.09879818042605837,-0.6160097982720756,0.07088206676343922,0.9955612156868469,0.09352316526210465,-0.004347595386304483,0.009611544820768937
1668680561.079845,28414,1668680561,79660784,,-0.09879818042605837,-0.6160097982720756,0.07088206676343922,0.9955612156868469,0.09352316526210465,-0.004347595386304483,0.009611544820768937
1668680561.0879767,28415,1668680561,87735886,,-0.09879818042605837,-0.6160097982720756,0.07088206676343922,0.9955612156868469,0.09352316526210465,-0.004347595386304483,0.009611544820768937
1668680561.0958667,28416,1668680561,95643433,,-0.09879818042605837,-0.6160097982720756,0.07088206676343922,0.9955612156868469,0.09352316526210465,-0.004347595386304483,0.009611544820768937
1668680561.10361,28417,1668680561,103416329,,-0.09879818042605837,-0.6160097982720756,0.07088206676343922,0.9955612156868469,0.09352316526210465,-0.004347595386304483,0.009611544820768937
1668680561.112129,28418,1668680561,111907673,,-0.09879739085812189,-0.6160090541218269,0.07088206676343922,0.9955612156868469,0.09352316526210465,-0.004347595386304483,0.009611544820768937
1668680561.1200242,28419,1668680561,119802406,,-0.0987950221592998,-0.6160068216757817,0.07088206676343922,0.9955612156868469,0.09352316526210465,-0.004347595386304483,0.009611544820768937
1668680561.1291912,28420,1668680561,128778007,,-0.09879107434455411,-0.6160031009480429,0.07088206676343922,0.9955612156868469,0.09352316526210465,-0.004347595386304483,0.009611544820768937
1668680561.1364112,28421,1668680561,136180369,,-0.09878554743882131,-0.6159978919621191,0.07088206676343922,0.9955612156868469,0.09352316526210465,-0.004347595386304483,0.009611544820768937
1668680561.1433392,28422,1668680561,143168127,,-0.0987784414770124,-0.6159911947509296,0.07088206676343922,0.9955612156868469,0.09352316526210465,-0.004347595386304483,0.009611544820768937
1668680561.15235,28423,1668680561,152163414,,-0.09876975650401246,-0.6159830093568123,0.07088206676343922,0.9955612156868469,0.09352316526210465,-0.004347595386304483,0.009611544820768937
1668680561.1608078,28424,1668680561,160606280,,-0.0987594925746805,-0.6159733358315331,0.07088206676343922,0.9955612156868469,0.09352316526210465,-0.004347595386304483,0.009611544820768937
1668680561.168678,28425,1668680561,168492066,,-0.09874764975384909,-0.6159621742362976,0.07088206676343922,0.9955612156868469,0.09352316526210465,-0.004347595386304483,0.009611544820768937
1668680561.175934,28426,1668680561,175777355,,-0.09873422811632393,-0.615949524641765,0.07088206676343922,0.9955612156868469,0.09352316526210465,-0.004347595386304483,0.009611544820768937
1668680561.18493,28427,1668680561,184731192,,-0.09871922774688335,-0.6159353871280643,0.07088206676343922,0.9955612156868469,0.09352316526210465,-0.004347595386304483,0.009611544820768937
1668680561.1929448,28428,1668680561,192737428,,-0.09870264874027787,-0.6159197617848122,0.07088206676343922,0.9955612156868469,0.09352316526210465,-0.004347595386304483,0.009611544820768937
1668680561.200643,28429,1668680561,200460576,,-0.09868449120122949,-0.6159026487111336,0.07088206676343922,0.9955612156868469,0.09352316526210465,-0.004347595386304483,0.009611544820768937
1668680561.208201,28430,1668680561,207866959,,-0.09866475524443108,-0.615884048015684,0.07088206676343922,0.9955612156868469,0.09352316526210465,-0.004347595386304483,0.009611544820768937
1668680561.2155707,28431,1668680561,215383877,,-0.09864344099454567,-0.6158639598166737,0.07088206676343922,0.9955612156868469,0.09352316526210465,-0.004347595386304483,0.009611544820768937
1668680561.223763,28432,1668680561,223589224,,-0.09862054858620567,-0.6158423842418951,0.07088206676343922,0.9955612156868469,0.09352316526210465,-0.004347595386304483,0.009611544820768937
1668680561.2318208,28433,1668680561,231651658,,-0.09859607816401197,-0.6158193214287508,0.07088206676343922,0.9955612156868469,0.09352316526210465,-0.004347595386304483,0.009611544820768937
1668680561.2399392,28434,1668680561,239723613,,-0.09857002988253305,-0.6157947715242852,0.07088206676343922,0.9955612156868469,0.09352316526210465,-0.004347595386304483,0.009611544820768937
1668680561.2478416,28435,1668680561,247678282,,-0.098542403906304,-0.6157687346852169,0.07088206676343922,0.9955612156868469,0.09352316526210465,-0.004347595386304483,0.009611544820768937
1668680561.2561429,28436,1668680561,255810455,,-0.0985132004098255,-0.6157412110779739,0.07088206676343922,0.9955612156868469,0.09352316526210465,-0.004347595386304483,0.009611544820768937
1668680561.2634726,28437,1668680561,263306671,,-0.09848241957756274,-0.6157122008787316,0.07088206676343922,0.9955612156868469,0.09352316526210465,-0.004347595386304483,0.009611544820768937
1668680561.272139,28438,1668680561,271817054,,-0.09845006160394415,-0.6156817042734511,0.07088206676343922,0.9955612156868469,0.09352316526210465,-0.004347595386304483,0.009611544820768937
1668680561.2804205,28439,1668680561,280060899,,-0.09841612669336028,-0.6156497214579215,0.07088206676343922,0.9955612156868469,0.09352316526210465,-0.004347595386304483,0.009611544820768937
1668680561.287825,28440,1668680561,287675785,,-0.09838061506016249,-0.615616252637803,0.07088206676343922,0.9955612156868469,0.09352316526210465,-0.004347595386304483,0.009611544820768937
1668680561.2956808,28441,1668680561,295449180,,-0.09834352692866155,-0.6155812980286723,0.07088206676343922,0.9955612156868469,0.09352316526210465,-0.004347595386304483,0.009611544820768937
1668680561.303573,28442,1668680561,303385971,,-0.09830486253312626,-0.6155448578560716,0.07088206676343922,0.9955612156868469,0.09352316526210465,-0.004347595386304483,0.009611544820768937
1668680561.3118222,28443,1668680561,311619419,,-0.09826462211778192,-0.6155069323555565,0.07088206676343922,0.9955612156868469,0.09352316526210465,-0.004347595386304483,0.009611544820768937
1668680561.320056,28444,1668680561,319836897,,-0.0982228059368089,-0.6154675217727498,0.07088206676343922,0.9955612156868469,0.09352316526210465,-0.004347595386304483,0.009611544820768937
1668680561.3277264,28445,1668680561,327526930,,-0.09817941425434093,-0.6154266263633941,0.07088206676343922,0.9955612156868469,0.09352316526210465,-0.004347595386304483,0.009611544820768937
1668680561.335526,28446,1668680561,335384297,,-0.09813444734446342,-0.6153842463934087,0.07088206676343922,0.9955612156868469,0.09352316526210465,-0.004347595386304483,0.009611544820768937
1668680561.3440523,28447,1668680561,343872586,,-0.09808790549121185,-0.6153403821389474,0.07088206676343922,0.9955612156868469,0.09352316526210465,-0.004347595386304483,0.009611544820768937
1668680561.3517842,28448,1668680561,351630327,,-0.09803978898856983,-0.6152950338864587,0.07088206676343922,0.9955612156868469,0.09352316526210465,-0.004347595386304483,0.009611544820768937
1668680561.3597121,28449,1668680561,359485197,,-0.09799009814046739,-0.615248201932748,0.07088206676343922,0.9955612156868469,0.09352316526210465,-0.004347595386304483,0.009611544820768937
1668680561.3679442,28450,1668680561,367732385,,-0.09793883326077887,-0.6151998865850422,0.07088206676343922,0.9955612156868469,0.09352316526210465,-0.004347595386304483,0.009611544820768937
1668680561.3754795,28451,1668680561,375366462,,-0.09788599467332115,-0.6151500881610557,0.07088206676343922,0.9955612156868469,0.09352316526210465,-0.004347595386304483,0.009611544820768937
1668680561.3836188,28452,1668680561,383486863,,-0.09783158271185147,-0.6150988069890589,0.07088206676343922,0.9955612156868469,0.09352316526210465,-0.004347595386304483,0.009611544820768937
1668680561.391893,28453,1668680561,391720988,,-0.09777559772006533,-0.6150460434079489,0.07088206676343922,0.9955612156868469,0.09352316526210465,-0.004347595386304483,0.009611544820768937
1668680561.4001606,28454,1668680561,399985651,,-0.0977180400515944,-0.6149917977673213,0.07088206676343922,0.9955612156868469,0.09352316526210465,-0.004347595386304483,0.009611544820768937
1668680561.4079487,28455,1668680561,407599161,,-0.09765891007000416,-0.6149360704275453,0.07088206676343922,0.9955612156868469,0.09352316526210465,-0.004347595386304483,0.009611544820768937
1668680561.4160998,28456,1668680561,415789160,,-0.09759820814879172,-0.61487886175984,0.07088206676343922,0.9955612156868469,0.09352316526210465,-0.004347595386304483,0.009611544820768937
1668680561.4239979,28457,1668680561,423642230,,-0.09753593467138338,-0.6148201721463525,0.07088206676343922,0.9955612156868469,0.09352316526210465,-0.004347595386304483,0.009611544820768937
1668680561.4317176,28458,1668680561,431539970,,-0.09747209003113233,-0.6147600019802392,0.07088206676343922,0.9955612156868469,0.09352316526210465,-0.004347595386304483,0.009611544820768937
1668680561.439872,28459,1668680561,439651225,,-0.09740667463131597,-0.6146983516657473,0.07088206676343922,0.9955612156868469,0.09352316526210465,-0.004347595386304483,0.009611544820768937
1668680561.447664,28460,1668680561,447478729,,-0.09733968888513356,-0.6146352216182998,0.07088206676343922,0.9955612156868469,0.09352316526210465,-0.004347595386304483,0.009611544820768937
1668680561.4556744,28461,1668680561,455439128,,-0.09727113321570341,-0.614570612264582,0.07088206676343922,0.9955612156868469,0.09352316526210465,-0.004347595386304483,0.009611544820768937
1668680561.4638057,28462,1668680561,463630352,,-0.09720100805606047,-0.6145045240426298,0.07088206676343922,0.9955612156868469,0.09352316526210465,-0.004347595386304483,0.009611544820768937
1668680561.4719117,28463,1668680561,471698342,,-0.09712931384915327,-0.6144369574019197,0.07088206676343922,0.9955612156868469,0.09352316526210465,-0.004347595386304483,0.009611544820768937
1668680561.4797697,28464,1668680561,479623800,,-0.09705605104784146,-0.6143679128034619,0.07088206676343922,0.9955612156868469,0.09352316526210465,-0.004347595386304483,0.009611544820768937
1668680561.4876912,28465,1668680561,487526178,,-0.09698122011489269,-0.6142973907198935,0.07088206676343922,0.9955612156868469,0.09352316526210465,-0.004347595386304483,0.009611544820768937
1668680561.4956417,28466,1668680561,495458704,,-0.0969048215229798,-0.6142253916355758,0.07088206676343922,0.9955612156868469,0.09352316526210465,-0.004347595386304483,0.009611544820768937
1668680561.50352,28467,1668680561,503322888,,-0.09682685575467781,-0.6141519160466912,0.07088206676343922,0.9955612156868469,0.09352316526210465,-0.004347595386304483,0.009611544820768937
1668680561.5119576,28468,1668680561,511779632,,-0.09674732330246089,-0.6140769644613444,0.07088206676343922,0.9955612156868469,0.09352316526210465,-0.004347595386304483,0.009611544820768937
1668680561.5197735,28469,1668680561,519518854,,-0.09666622466869923,-0.6140005373996638,0.07088206676343922,0.9955612156868469,0.09352316526210465,-0.004347595386304483,0.009611544820768937
1668680561.5277746,28470,1668680561,527628512,,-0.09658356036565591,-0.6139226353939049,0.07088206676343922,0.9955612156868469,0.09352316526210465,-0.004347595386304483,0.009611544820768937
1668680561.53585,28471,1668680561,535645667,,-0.09649933091548354,-0.6138432589885567,0.07088206676343922,0.9955612156868469,0.09352316526210465,-0.004347595386304483,0.009611544820768937
1668680561.5436277,28472,1668680561,543507133,,-0.09641353685022117,-0.6137624087404491,0.07088206676343922,0.9955612156868469,0.09352316526210465,-0.004347595386304483,0.009611544820768937
1668680561.5523894,28473,1668680561,552144234,,-0.09632617871179067,-0.613680085218862,0.07088206676343922,0.9955612156868469,0.09352316526210465,-0.004347595386304483,0.009611544820768937
1668680561.560577,28474,1668680561,560207911,,-0.09623725705199357,-0.6135962890056369,0.07088206676343922,0.9955612156868469,0.09352316526210465,-0.004347595386304483,0.009611544820768937
1668680561.568136,28475,1668680561,567907201,,-0.09614677243250741,-0.6135110206952903,0.07088206676343922,0.9955612156868469,0.09352316526210465,-0.004347595386304483,0.009611544820768937
1668680561.575514,28476,1668680561,575401994,,-0.09605472542488219,-0.613424280895128,0.07088206676343922,0.9955612156868469,0.09352316526210465,-0.004347595386304483,0.009611544820768937
1668680561.58378,28477,1668680561,583632442,,-0.09596111661053686,-0.6133360702253626,0.07088206676343922,0.9955612156868469,0.09352316526210465,-0.004347595386304483,0.009611544820768937
1668680561.591938,28478,1668680561,591739948,,-0.09586594658075553,-0.6132463893192316,0.07088206676343922,0.9955612156868469,0.09352316526210465,-0.004347595386304483,0.009611544820768937
1668680561.5999951,28479,1668680561,599696860,,-0.09576921593668389,-0.6131552388231182,0.07088206676343922,0.9955612156868469,0.09352316526210465,-0.004347595386304483,0.009611544820768937
1668680561.6079037,28480,1668680561,607763412,,-0.09567092528932525,-0.6130626193966732,0.07088206676343922,0.9955612156868469,0.09352316526210465,-0.004347595386304483,0.009611544820768937
1668680561.6154912,28481,1668680561,615336238,,-0.0955710752595367,-0.6129685317129392,0.07088206676343922,0.9955612156868469,0.09352316526210465,-0.004347595386304483,0.009611544820768937
1668680561.6237793,28482,1668680561,623636718,,-0.09546966647802535,-0.6128729764584763,0.07088206676343922,0.9955612156868469,0.09352316526210465,-0.004347595386304483,0.009611544820768937
1668680561.6320248,28483,1668680561,631854474,,-0.09536669958534419,-0.6127759543334896,0.07088206676343922,0.9955612156868469,0.09352316526210465,-0.004347595386304483,0.009611544820768937
1668680561.6397421,28484,1668680561,639587417,,-0.09526217523188801,-0.6126774660519583,0.07088206676343922,0.9955612156868469,0.09352316526210465,-0.004347595386304483,0.009611544820768937
1668680561.6482115,28485,1668680561,647959409,,-0.09515609407788952,-0.6125775123417669,0.07088206676343922,0.9955612156868469,0.09352316526210465,-0.004347595386304483,0.009611544820768937
1668680561.6557686,28486,1668680561,655612790,,-0.09504845679341486,-0.6124760939448378,0.07088206676343922,0.9955612156868469,0.09352316526210465,-0.004347595386304483,0.009611544820768937
1668680561.6641061,28487,1668680561,663864993,,-0.0949392640583597,-0.6123732116172657,0.07088206676343922,0.9955612156868469,0.09352316526210465,-0.004347595386304483,0.009611544820768937
1668680561.672166,28488,1668680561,671835806,,-0.09482851656244462,-0.6122688661294534,0.07088206676343922,0.9955612156868469,0.09352316526210465,-0.004347595386304483,0.009611544820768937
1668680561.6797383,28489,1668680561,679537702,,-0.09471621500521105,-0.6121630582662503,0.07088206676343922,0.9955612156868469,0.09352316526210465,-0.004347595386304483,0.009611544820768937
1668680561.6879566,28490,1668680561,687767162,,-0.09460236009601664,-0.6120557888270909,0.07088206676343922,0.9955612156868469,0.09352316526210465,-0.004347595386304483,0.009611544820768937
1668680561.6956322,28491,1668680561,695449986,,-0.09448695255403086,-0.6119470586261365,0.07088206676343922,0.9955612156868469,0.09352316526210465,-0.004347595386304483,0.009611544820768937
1668680561.7040515,28492,1668680561,703772204,,-0.09436999310823052,-0.6118368684924178,0.07088206676343922,0.9955612156868469,0.09352316526210465,-0.004347595386304483,0.009611544820768937
1668680561.7119925,28493,1668680561,711659604,,-0.09425148249739498,-0.6117252192699789,0.07088206676343922,0.9955612156868469,0.09352316526210465,-0.004347595386304483,0.009611544820768937
1668680561.7199123,28494,1668680561,719779261,,-0.09413142147010173,-0.6116121118180237,0.07088206676343922,0.9955612156868469,0.09352316526210465,-0.004347595386304483,0.009611544820768937
1668680561.727872,28495,1668680561,727676697,,-0.09400981078472143,-0.6114975470110631,0.07088206676343922,0.9955612156868469,0.09352316526210465,-0.004347595386304483,0.009611544820768937
1668680561.735578,28496,1668680561,735393883,,-0.09388665120941325,-0.6113815257390641,0.07088206676343922,0.9955612156868469,0.09352316526210465,-0.004347595386304483,0.009611544820768937
1668680561.743947,28497,1668680561,743721326,,-0.09376194352212006,-0.6112640489076009,0.07088206676343922,0.9955612156868469,0.09352316526210465,-0.004347595386304483,0.009611544820768937
1668680561.7517703,28498,1668680561,751643915,,-0.09363568851056334,-0.6111451174380066,0.07088206676343922,0.9955612156868469,0.09352316526210465,-0.004347595386304483,0.009611544820768937
1668680561.7599618,28499,1668680561,759722482,,-0.09350788697223839,-0.611024732267527,0.07088206676343922,0.9955612156868469,0.09352316526210465,-0.004347595386304483,0.009611544820768937
1668680561.7679887,28500,1668680561,767789689,,-0.09337853971440918,-0.6109028943494762,0.07088206676343922,0.9955612156868469,0.09352316526210465,-0.004347595386304483,0.009611544820768937
1668680561.7758727,28501,1668680561,775693161,,-0.09324764755410325,-0.6107796046533932,0.07088206676343922,0.9955612156868469,0.09352316526210465,-0.004347595386304483,0.009611544820768937
1668680561.7835283,28502,1668680561,783301733,,-0.09311521131810671,-0.6106548641652,0.07088206676343922,0.9955612156868469,0.09352316526210465,-0.004347595386304483,0.009611544820768937
1668680561.7918744,28503,1668680561,791651537,,-0.09298123184295873,-0.6105286738873617,0.07088206676343922,0.9955612156868469,0.09352316526210465,-0.004347595386304483,0.009611544820768937
1668680561.7998853,28504,1668680561,799651242,,-0.09284570997494651,-0.610401034839047,0.07088206676343922,0.9955612156868469,0.09352316526210465,-0.004347595386304483,0.009611544820768937
1668680561.807845,28505,1668680561,807614441,,-0.09270864657009983,-0.6102719480562916,0.07088206676343922,0.9955612156868469,0.09352316526210465,-0.004347595386304483,0.009611544820768937
1668680561.8157997,28506,1668680561,815630467,,-0.09257004249418563,-0.6101414145921621,0.07088206676343922,0.9955612156868469,0.09352316526210465,-0.004347595386304483,0.009611544820768937
1668680561.8236077,28507,1668680561,823434171,,-0.09242989862270262,-0.6100094355169208,0.07088206676343922,0.9955612156868469,0.09352316526210465,-0.004347595386304483,0.009611544820768937
1668680561.8319592,28508,1668680561,831794481,,-0.09228821584087563,-0.6098760119181932,0.07088206676343922,0.9955612156868469,0.09352316526210465,-0.004347595386304483,0.009611544820768937
1668680561.8397384,28509,1668680561,839569786,,-0.09214499504365012,-0.609741144901136,0.07088206676343922,0.9955612156868469,0.09352316526210465,-0.004347595386304483,0.009611544820768937
1668680561.8480313,28510,1668680561,847726220,,-0.0920002371356865,-0.6096048355886066,0.07088206676343922,0.9955612156868469,0.09352316526210465,-0.004347595386304483,0.009611544820768937
1668680561.8556015,28511,1668680561,855391356,,-0.09185394303135438,-0.609467085121334,0.07088206676343922,0.9955612156868469,0.09352316526210465,-0.004347595386304483,0.009611544820768937
1668680561.8647869,28512,1668680561,864313756,,-0.0917061136547268,-0.6093278946580911,0.07088206676343922,0.9955612156868469,0.09352316526210465,-0.004347595386304483,0.009611544820768937
1668680561.8719492,28513,1668680561,871729151,,-0.09155674993957452,-0.6091872653758683,0.07088206676343922,0.9955612156868469,0.09352316526210465,-0.004347595386304483,0.009611544820768937
1668680561.8797553,28514,1668680561,879621314,,-0.09140585282935987,-0.6090451984700479,0.07088206676343922,0.9955612156868469,0.09352316526210465,-0.004347595386304483,0.009611544820768937
1668680561.8876932,28515,1668680561,887564461,,-0.09125342327723104,-0.6089016951545805,0.07088206676343922,0.9955612156868469,0.09352316526210465,-0.004347595386304483,0.009611544820768937
1668680561.8953576,28516,1668680561,895215394,,-0.09109946224601595,-0.6087567566621623,0.07088206676343922,0.9955612156868469,0.09352316526210465,-0.004347595386304483,0.009611544820768937
1668680561.9038515,28517,1668680561,903628240,,-0.09094397070821611,-0.6086103842444135,0.07088206676343922,0.9955612156868469,0.09352316526210465,-0.004347595386304483,0.009611544820768937
1668680561.9118671,28518,1668680561,911715783,,-0.09078694964600059,-0.6084625791720581,0.07088206676343922,0.9955612156868469,0.09352316526210465,-0.004347595386304483,0.009611544820768937
1668680561.9196973,28519,1668680561,919566590,,-0.09062840005119976,-0.608313342735105,0.07088206676343922,0.9955612156868469,0.09352316526210465,-0.004347595386304483,0.009611544820768937
1668680561.9277472,28520,1668680561,927544073,,-0.09046832292529908,-0.6081626762430296,0.07088206676343922,0.9955612156868469,0.09352316526210465,-0.004347595386304483,0.009611544820768937
1668680561.935481,28521,1668680561,935243192,,-0.0903067192794326,-0.6080105810249574,0.07088206676343922,0.9955612156868469,0.09352316526210465,-0.004347595386304483,0.009611544820768937
1668680561.9437928,28522,1668680561,943667999,,-0.09014359013437681,-0.6078570584298487,0.07088206676343922,0.9955612156868469,0.09352316526210465,-0.004347595386304483,0.009611544820768937
1668680561.9520493,28523,1668680561,951812525,,-0.08997893652054403,-0.6077021098266836,0.07088206676343922,0.9955612156868469,0.09352316526210465,-0.004347595386304483,0.009611544820768937
1668680561.9598029,28524,1668680561,959613158,,-0.08981275947797604,-0.6075457366046487,0.07088206676343922,0.9955612156868469,0.09352316526210465,-0.004347595386304483,0.009611544820768937
1668680561.9678597,28525,1668680561,967712266,,-0.08964506005633727,-0.6073879401733248,0.07088206676343922,0.9955612156868469,0.09352316526210465,-0.004347595386304483,0.009611544820768937
1668680561.975544,28526,1668680561,975380317,,-0.08947583931490846,-0.6072287219628757,0.07088206676343922,0.9955612156868469,0.09352316526210465,-0.004347595386304483,0.009611544820768937
1668680561.9842842,28527,1668680561,983966146,,-0.0893050983225798,-0.607068083424238,0.07088206676343922,0.9955612156868469,0.09352316526210465,-0.004347595386304483,0.009611544820768937
1668680561.991934,28528,1668680561,991649193,,-0.08913283815784415,-0.6069060260293114,0.07088206676343922,0.9955612156868469,0.09352316526210465,-0.004347595386304483,0.009611544820768937
1668680561.9999459,28529,1668680561,999730411,,-0.08895905990879036,-0.6067425512711511,0.07088206676343922,0.9955612156868469,0.09352316526210465,-0.004347595386304483,0.009611544820768937
1668680562.008124,28530,1668680562,7727527,,-0.08878376467309626,-0.6065776606641601,0.07088206676343922,0.9955612156868469,0.09352316526210465,-0.004347595386304483,0.009611544820768937
1668680562.015963,28531,1668680562,15781565,,-0.08860695355802187,-0.6064113557442827,0.07088206676343922,0.9955612156868469,0.09352316526210465,-0.004347595386304483,0.009611544820768937
1668680562.0238128,28532,1668680562,23628200,,-0.0884286276804023,-0.6062436380692,0.07088206676343922,0.9955612156868469,0.09352316526210465,-0.004347595386304483,0.009611544820768937
1668680562.0316474,28533,1668680562,31463681,,-0.08824878816664067,-0.6060745092185242,0.07088206676343922,0.9955612156868469,0.09352316526210465,-0.004347595386304483,0.009611544820768937
1668680562.0398448,28534,1668680562,39708744,,-0.0880674361527011,-0.6059039707939956,0.07088206676343922,0.9955612156868469,0.09352316526210465,-0.004347595386304483,0.009611544820768937
1668680562.0478263,28535,1668680562,47643861,,-0.0878845727841015,-0.60573202441968,0.07088206676343922,0.9955612156868469,0.09352316526210465,-0.004347595386304483,0.009611544820768937
1668680562.055466,28536,1668680562,55322297,,-0.08770019921590627,-0.6055586717421664,0.07088206676343922,0.9955612156868469,0.09352316526210465,-0.004347595386304483,0.009611544820768937
1668680562.0639706,28537,1668680562,63793061,,-0.08751431661271905,-0.6053839144307661,0.07088206676343922,0.9955612156868469,0.09352316526210465,-0.004347595386304483,0.009611544820768937
1668680562.0717824,28538,1668680562,71546664,,-0.08732692614867543,-0.6052077541777126,0.07088206676343922,0.9955612156868469,0.09352316526210465,-0.004347595386304483,0.009611544820768937
1668680562.0797267,28539,1668680562,79572906,,-0.08713802900743542,-0.6050301926983613,0.07088206676343922,0.9955612156868469,0.09352316526210465,-0.004347595386304483,0.009611544820768937
1668680562.0876973,28540,1668680562,87567548,,-0.08694762638217601,-0.604851231731392,0.07088206676343922,0.9955612156868469,0.09352316526210465,-0.004347595386304483,0.009611544820768937
1668680562.095641,28541,1668680562,95459651,,-0.08675571947558366,-0.6046708730390096,0.07088206676343922,0.9955612156868469,0.09352316526210465,-0.004347595386304483,0.009611544820768937
1668680562.103765,28542,1668680562,103661964,,-0.0865623094998467,-0.6044891184071473,0.07088206676343922,0.9955612156868469,0.09352316526210465,-0.004347595386304483,0.009611544820768937
1668680562.1128144,28543,1668680562,112478107,,-0.08636739767664767,-0.6043059696456701,0.07088206676343922,0.9955612156868469,0.09352316526210465,-0.004347595386304483,0.009611544820768937
1668680562.119998,28544,1668680562,119792248,,-0.08617098523715555,-0.6041214285885785,0.07088206676343922,0.9955612156868469,0.09352316526210465,-0.004347595386304483,0.009611544820768937
1668680562.127769,28545,1668680562,127597683,,-0.08597307342201807,-0.6039354970942135,0.07088206676343922,0.9955612156868469,0.09352316526210465,-0.004347595386304483,0.009611544820768937
1668680562.13559,28546,1668680562,135468606,,-0.08577366348135385,-0.6037481770454612,0.07088206676343922,0.9955612156868469,0.09352316526210465,-0.004347595386304483,0.009611544820768937
1668680562.144614,28547,1668680562,144037672,,-0.08557275667474437,-0.6035594703499592,0.07088206676343922,0.9955612156868469,0.09352316526210465,-0.004347595386304483,0.009611544820768937
1668680562.1518884,28548,1668680562,151594319,,-0.0853703542712263,-0.6033693789403028,0.07088206676343922,0.9955612156868469,0.09352316526210465,-0.004347595386304483,0.009611544820768937
1668680562.1605124,28549,1668680562,160352932,,-0.08516645754928318,-0.6031779047742521,0.07088206676343922,0.9955612156868469,0.09352316526210465,-0.004347595386304483,0.009611544820768937
1668680562.1678946,28550,1668680562,167703404,,-0.08496106779683751,-0.6029850498349392,0.07088206676343922,0.9955612156868469,0.09352316526210465,-0.004347595386304483,0.009611544820768937
1668680562.1760168,28551,1668680562,175739440,,-0.08475418631124262,-0.6027908161310759,0.07088206676343922,0.9955612156868469,0.09352316526210465,-0.004347595386304483,0.009611544820768937
1668680562.183615,28552,1668680562,183472973,,-0.08454581439927442,-0.602595205697163,0.07088206676343922,0.9955612156868469,0.09352316526210465,-0.004347595386304483,0.009611544820768937
1668680562.1918242,28553,1668680562,191612904,,-0.08433595337712313,-0.6023982205936982,0.07088206676343922,0.9955612156868469,0.09352316526210465,-0.004347595386304483,0.009611544820768937
1668680562.2000651,28554,1668680562,199787919,,-0.08412460457038504,-0.6021998629073859,0.07088206676343922,0.9955612156868469,0.09352316526210465,-0.004347595386304483,0.009611544820768937
1668680562.2079458,28555,1668680562,207757924,,-0.08391176931405406,-0.6020001347513468,0.07088206676343922,0.9955612156868469,0.09352316526210465,-0.004347595386304483,0.009611544820768937
1668680562.2155828,28556,1668680562,215389837,,-0.08369744895251338,-0.6017990382653278,0.07088206676343922,0.9955612156868469,0.09352316526210465,-0.004347595386304483,0.009611544820768937
1668680562.223839,28557,1668680562,223571490,,-0.08348164483952683,-0.6015965756159121,0.07088206676343922,0.9955612156868469,0.09352316526210465,-0.004347595386304483,0.009611544820768937
1668680562.232,28558,1668680562,231864113,,-0.08326435833823051,-0.6013927489967305,0.07088206676343922,0.9955612156868469,0.09352316526210465,-0.004347595386304483,0.009611544820768937
1668680562.23982,28559,1668680562,239631867,,-0.08304559082112406,-0.601187560628672,0.07088206676343922,0.9955612156868469,0.09352316526210465,-0.004347595386304483,0.009611544820768937
1668680562.2482193,28560,1668680562,247969313,,-0.082825343670062,-0.600981012760095,0.07088206676343922,0.9955612156868469,0.09352316526210465,-0.004347595386304483,0.009611544820768937
1668680562.2557578,28561,1668680562,255620655,,-0.08260361827624507,-0.600773107667039,0.07088206676343922,0.9955612156868469,0.09352316526210465,-0.004347595386304483,0.009611544820768937
1668680562.2646084,28562,1668680562,264408093,,-0.08238041604021132,-0.6005638476534356,0.07088206676343922,0.9955612156868469,0.09352316526210465,-0.004347595386304483,0.009611544820768937
1668680562.2719636,28563,1668680562,271748372,,-0.08215573837182741,-0.6003532350513218,0.07088206676343922,0.9955612156868469,0.09352316526210465,-0.004347595386304483,0.009611544820768937
1668680562.2799,28564,1668680562,279725528,,-0.08192958669027958,-0.6001412722210501,0.07088206676343922,0.9955612156868469,0.09352316526210465,-0.004347595386304483,0.009611544820768937
1668680562.2879846,28565,1668680562,287769061,,-0.08170196242406477,-0.5999279615515024,0.07088206676343922,0.9955612156868469,0.09352316526210465,-0.004347595386304483,0.009611544820768937
1668680562.2961097,28566,1668680562,295846689,,-0.08147286701098158,-0.5997133054603013,0.07088206676343922,0.9955612156868469,0.09352316526210465,-0.004347595386304483,0.009611544820768937
1668680562.3045177,28567,1668680562,304208295,,-0.08124230189812115,-0.5994973063940227,0.07088206676343922,0.9955612156868469,0.09352316526210465,-0.004347595386304483,0.009611544820768937
1668680562.31191,28568,1668680562,311732900,,-0.08101026854185803,-0.599279966828408,0.07088206676343922,0.9955612156868469,0.09352316526210465,-0.004347595386304483,0.009611544820768937
1668680562.319846,28569,1668680562,319645747,,-0.08077676840784098,-0.5990612892685768,0.07088206676343922,0.9955612156868469,0.09352316526210465,-0.004347595386304483,0.009611544820768937
1668680562.3279085,28570,1668680562,327769944,,-0.08054180297098379,-0.5988412762492396,0.07088206676343922,0.9955612156868469,0.09352316526210465,-0.004347595386304483,0.009611544820768937
1668680562.3357143,28571,1668680562,335595358,,-0.08030537371545585,-0.5986199303349089,0.07088206676343922,0.9955612156868469,0.09352316526210465,-0.004347595386304483,0.009611544820768937
1668680562.3438466,28572,1668680562,343609044,,-0.08006748213467282,-0.5983972541201134,0.07088206676343922,0.9955612156868469,0.09352316526210465,-0.004347595386304483,0.009611544820768937
1668680562.3521461,28573,1668680562,351921817,,-0.07982812973128722,-0.5981732502296085,0.07088206676343922,0.9955612156868469,0.09352316526210465,-0.004347595386304483,0.009611544820768937
1668680562.3600934,28574,1668680562,359890429,,-0.07958731801717894,-0.5979479213185899,0.07088206676343922,0.9955612156868469,0.09352316526210465,-0.004347595386304483,0.009611544820768937
1668680562.367773,28575,1668680562,367656461,,-0.07934504851344565,-0.5977212700729042,0.07088206676343922,0.9955612156868469,0.09352316526210465,-0.004347595386304483,0.009611544820768937
1668680562.3755796,28576,1668680562,375439107,,-0.07910132275039317,-0.5974932992092618,0.07088206676343922,0.9955612156868469,0.09352316526210465,-0.004347595386304483,0.009611544820768937
1668680562.383929,28577,1668680562,383672136,,-0.07885614226752588,-0.5972640114754482,0.07088206676343922,0.9955612156868469,0.09352316526210465,-0.004347595386304483,0.009611544820768937
1668680562.3918924,28578,1668680562,391719013,,-0.078609508613537,-0.5970334096505351,0.07088206676343922,0.9955612156868469,0.09352316526210465,-0.004347595386304483,0.009611544820768937
1668680562.4002812,28579,1668680562,400080258,,-0.07836142334629873,-0.5968014965450921,0.07088206676343922,0.9955612156868469,0.09352316526210465,-0.004347595386304483,0.009611544820768937
1668680562.407804,28580,1668680562,407563403,,-0.0781118880328524,-0.596568275001397,0.07088206676343922,0.9955612156868469,0.09352316526210465,-0.004347595386304483,0.009611544820768937
1668680562.4157302,28581,1668680562,415487375,,-0.07786090424939873,-0.5963337478936466,0.07088206676343922,0.9955612156868469,0.09352316526210465,-0.004347595386304483,0.009611544820768937
1668680562.423785,28582,1668680562,423619423,,-0.07760847358128767,-0.5960979181281673,0.07088206676343922,0.9955612156868469,0.09352316526210465,-0.004347595386304483,0.009611544820768937
1668680562.4319456,28583,1668680562,431674455,,-0.07735459762300853,-0.5958607886436242,0.07088206676343922,0.9955612156868469,0.09352316526210465,-0.004347595386304483,0.009611544820768937
1668680562.4401605,28584,1668680562,439994595,,-0.07709927797817984,-0.5956223624112312,0.07088206676343922,0.9955612156868469,0.09352316526210465,-0.004347595386304483,0.009611544820768937
1668680562.4484632,28585,1668680562,448202187,,-0.07684251625953925,-0.5953826424349598,0.07088206676343922,0.9955612156868469,0.09352316526210465,-0.004347595386304483,0.009611544820768937
1668680562.4564712,28586,1668680562,456302891,,-0.07658431408893329,-0.5951416317517472,0.07088206676343922,0.9955612156868469,0.09352316526210465,-0.004347595386304483,0.009611544820768937
1668680562.464005,28587,1668680562,463806872,,-0.0763246730973072,-0.5948993334317053,0.07088206676343922,0.9955612156868469,0.09352316526210465,-0.004347595386304483,0.009611544820768937
1668680562.472433,28588,1668680562,472186613,,-0.07606359492469464,-0.5946557505783279,0.07088206676343922,0.9955612156868469,0.09352316526210465,-0.004347595386304483,0.009611544820768937
1668680562.4807572,28589,1668680562,480533014,,-0.0758010812202072,-0.5944108863286973,0.07088206676343922,0.9955612156868469,0.09352316526210465,-0.004347595386304483,0.009611544820768937
1668680562.487836,28590,1668680562,487673047,,-0.07553713364202416,-0.5941647438536912,0.07088206676343922,0.9955612156868469,0.09352316526210465,-0.004347595386304483,0.009611544820768937
1668680562.4958906,28591,1668680562,495632666,,-0.07527175385738183,-0.5939173263581887,0.07088206676343922,0.9955612156868469,0.09352316526210465,-0.004347595386304483,0.009611544820768937
1668680562.5038614,28592,1668680562,503640239,,-0.07500494354256318,-0.593668637081275,0.07088206676343922,0.9955612156868469,0.09352316526210465,-0.004347595386304483,0.009611544820768937
1668680562.5117674,28593,1668680562,511567330,,-0.07473670438288715,-0.5934186792964464,0.07088206676343922,0.9955612156868469,0.09352316526210465,-0.004347595386304483,0.009611544820768937
1668680562.5203283,28594,1668680562,520074187,,-0.07446703807269808,-0.5931674563118142,0.07088206676343922,0.9955612156868469,0.09352316526210465,-0.004347595386304483,0.009611544820768937
1668680562.5279973,28595,1668680562,527851974,,-0.07419594631535495,-0.5929149714703075,0.07088206676343922,0.9955612156868469,0.09352316526210465,-0.004347595386304483,0.009611544820768937
1668680562.535683,28596,1668680562,535480396,,-0.07392343082322061,-0.5926612281498757,0.07088206676343922,0.9955612156868469,0.09352316526210465,-0.004347595386304483,0.009611544820768937
1668680562.5438263,28597,1668680562,543704238,,-0.07364949331765103,-0.5924062297636905,0.07088206676343922,0.9955612156868469,0.09352316526210465,-0.004347595386304483,0.009611544820768937
1668680562.5517943,28598,1668680562,551649248,,-0.07337413552898439,-0.5921499797603462,0.07088206676343922,0.9955612156868469,0.09352316526210465,-0.004347595386304483,0.009611544820768937
1668680562.5597317,28599,1668680562,559591519,,-0.07309735919653015,-0.5918924816240603,0.07088206676343922,0.9955612156868469,0.09352316526210465,-0.004347595386304483,0.009611544820768937
1668680562.567752,28600,1668680562,567526804,,-0.07281916606855801,-0.5916337388748715,0.07088206676343922,0.9955612156868469,0.09352316526210465,-0.004347595386304483,0.009611544820768937
1668680562.5757945,28601,1668680562,575582275,,-0.072539557902287,-0.5913737550688392,0.07088206676343922,0.9955612156868469,0.09352316526210465,-0.004347595386304483,0.009611544820768937
1668680562.5865266,28602,1668680562,586278622,,-0.07225853646387423,-0.5911125337982398,0.07088206676343922,0.9955612156868469,0.09352316526210465,-0.004347595386304483,0.009611544820768937
1668680562.592,28603,1668680562,591787002,,-0.07197610352840386,-0.5908500786917635,0.07088206676343922,0.9955612156868469,0.09352316526210465,-0.004347595386304483,0.009611544820768937
1668680562.599904,28604,1668680562,599746080,,-0.07169226087987579,-0.5905863934147094,0.07088206676343922,0.9955612156868469,0.09352316526210465,-0.004347595386304483,0.009611544820768937
1668680562.6076622,28605,1668680562,607477265,,-0.07140701031119448,-0.5903214816691799,0.07088206676343922,0.9955612156868469,0.09352316526210465,-0.004347595386304483,0.009611544820768937
1668680562.6159112,28606,1668680562,615689408,,-0.07112035362415756,-0.5900553471942735,0.07088206676343922,0.9955612156868469,0.09352316526210465,-0.004347595386304483,0.009611544820768937
1668680562.6235244,28607,1668680562,623379611,,-0.0708322926294444,-0.5897879937662778,0.07088206676343922,0.9955612156868469,0.09352316526210465,-0.004347595386304483,0.009611544820768937
1668680562.6317408,28608,1668680562,631615497,,-0.07054282914660487,-0.5895194251988592,0.07088206676343922,0.9955612156868469,0.09352316526210465,-0.004347595386304483,0.009611544820768937
1668680562.639846,28609,1668680562,639659382,,-0.07025196500404762,-0.5892496453432545,0.07088206676343922,0.9955612156868469,0.09352316526210465,-0.004347595386304483,0.009611544820768937
1668680562.6477125,28610,1668680562,647553927,,-0.06995970203902865,-0.5889786580884578,0.07088206676343922,0.9955612156868469,0.09352316526210465,-0.004347595386304483,0.009611544820768937
1668680562.6560714,28611,1668680562,655814619,,-0.06966604209763971,-0.5887064673614092,0.07088206676343922,0.9955612156868469,0.09352316526210465,-0.004347595386304483,0.009611544820768937
1668680562.663946,28612,1668680562,663693219,,-0.06937098703479658,-0.5884330771271805,0.07088206676343922,0.9955612156868469,0.09352316526210465,-0.004347595386304483,0.009611544820768937
1668680562.6717932,28613,1668680562,671621147,,-0.06907453871422739,-0.5881584913891604,0.07088206676343922,0.9955612156868469,0.09352316526210465,-0.004347595386304483,0.009611544820768937
1668680562.6796935,28614,1668680562,679565941,,-0.06877669900846087,-0.5878827141892379,0.07088206676343922,0.9955612156868469,0.09352316526210465,-0.004347595386304483,0.009611544820768937
1668680562.6883156,28615,1668680562,688029765,,-0.06847746979881447,-0.5876057496079848,0.07088206676343922,0.9955612156868469,0.09352316526210465,-0.004347595386304483,0.009611544820768937
1668680562.6957493,28616,1668680562,695623500,,-0.06817685297538248,-0.5873276017648368,0.07088206676343922,0.9955612156868469,0.09352316526210465,-0.004347595386304483,0.009611544820768937
1668680562.703481,28617,1668680562,703278689,,-0.06787485043702418,-0.5870482748182725,0.07088206676343922,0.9955612156868469,0.09352316526210465,-0.004347595386304483,0.009611544820768937
1668680562.712367,28618,1668680562,712025473,,-0.0675714640913517,-0.5867677729659921,0.07088206676343922,0.9955612156868469,0.09352316526210465,-0.004347595386304483,0.009611544820768937
1668680562.7200797,28619,1668680562,719802474,,-0.06726669585471809,-0.586486100445094,0.07088206676343922,0.9955612156868469,0.09352316526210465,-0.004347595386304483,0.009611544820768937
1668680562.7278712,28620,1668680562,727590664,,-0.06696054765220522,-0.5862032615322496,0.07088206676343922,0.9955612156868469,0.09352316526210465,-0.004347595386304483,0.009611544820768937
1668680562.7365236,28621,1668680562,735835750,,-0.06665302141761145,-0.5859192605438771,0.07088206676343922,0.9955612156868469,0.09352316526210465,-0.004347595386304483,0.009611544820768937
1668680562.7439113,28622,1668680562,743595597,,-0.06634411909343968,-0.5856341018363143,0.07088206676343922,0.9955612156868469,0.09352316526210465,-0.004347595386304483,0.009611544820768937
1668680562.751981,28623,1668680562,751784802,,-0.06603384263088485,-0.5853477898059876,0.07088206676343922,0.9955612156868469,0.09352316526210465,-0.004347595386304483,0.009611544820768937
1668680562.7599444,28624,1668680562,759670201,,-0.06572219398982174,-0.5850603288895824,0.07088206676343922,0.9955612156868469,0.09352316526210465,-0.004347595386304483,0.009611544820768937
