Time,header.seq,header.stamp.secs,header.stamp.nsecs,header.frame_id,twist.linear.x,twist.linear.y,twist.linear.z,twist.angular.x,twist.angular.y,twist.angular.z
1668677088.8280432,2662,1668677088,827922073,,1.425130532689785e-16,1.525873746718867e-16,5.077917478294325e-17,5.677383272420958e-08,-3.5400768631182945e-08,-4.339028964558204e-08
1668677088.8352787,2663,1668677088,835079320,,1.2425873682975087e-16,1.403534989949074e-16,-4.6439089998832315e-18,5.6620479337741455e-08,-3.5305146599514856e-08,-4.327308693900919e-08
1668677088.843976,2664,1668677088,843816648,,1.0062056404321488e-16,1.5647285263754205e-16,-2.8258784678712754e-17,5.6461095535567047e-08,-3.520576436402629e-08,-4.315127539555932e-08
1668677088.8516285,2665,1668677088,851459980,,7.545116755880555e-17,1.4392620254262543e-16,-4.998560514892389e-17,5.629574958037355e-08,-3.510266448884823e-08,-4.302490718521332e-08
1668677088.859631,2666,1668677088,859518389,,5.229499372315444e-17,1.0500686029543326e-16,-6.99753901366654e-17,5.6124509951537014e-08,-3.499588967032065e-08,-4.2894034642549206e-08
1668677088.8675175,2667,1668677088,867398778,,3.783486396443822e-17,9.657562168537854e-17,-7.125739594567213e-17,5.594744534342793e-08,-3.4885482742950286e-08,-4.2758710266247297e-08
1668677088.8755047,2668,1668677088,875265594,,1.7687364528754544e-17,8.881799499897712e-17,-1.0323531753555754e-16,5.576462465312598e-08,-3.477148666404217e-08,-4.261898671143635e-08
1668677088.8834279,2669,1668677088,883311077,,5.995231909185567e-18,8.168011058126939e-17,-1.3265602738341e-16,5.557611695514815e-08,-3.46539445072989e-08,-4.247491676999091e-08
1668677088.8914933,2670,1668677088,891365335,,-1.84495728686712e-17,2.036140050551176e-17,-1.5630216909125023e-16,5.538199150870979e-08,-3.453289945813332e-08,-4.232655338082364e-08
1668677088.8996034,2671,1668677088,899384633,,-4.0939094759659075e-17,-8.67713659569893e-18,-1.5068209730891494e-16,5.518231774551182e-08,-3.440839481205132e-08,-4.217394960669671e-08
1668677088.9077277,2672,1668677088,907598558,,-5.47858469741097e-17,1.9357588180777734e-17,-1.831538841538339e-16,5.497716525767498e-08,-3.4280473958978054e-08,-4.201715862978787e-08
1668677088.9152644,2673,1668677088,915131635,,-3.67277202868532e-17,-3.6977736427141594e-17,-1.7538755949958963e-16,5.476660378206561e-08,-3.414918038488056e-08,-4.185623374666614e-08
1668677088.9236414,2674,1668677088,923456138,,-1.3270619344647882e-17,-3.405601254918245e-17,-1.7166536186582923e-16,5.455070319730303e-08,-3.401455766256677e-08,-4.169122836323545e-08
1668677088.9315097,2675,1668677088,931374413,,-3.275360541716777e-17,-5.874426563975995e-17,-1.6824183969517526e-16,5.43295335049253e-08,-3.387664944137679e-08,-4.152219598434246e-08
1668677088.939701,2676,1668677088,939523012,,-3.699043751255166e-17,-5.408267960419995e-17,-1.8904657454132125e-16,5.410316483916226e-08,-3.3735499450001984e-08,-4.13491902061077e-08
1668677088.9477682,2677,1668677088,947661922,,-3.2472719661812413e-18,-1.0454570894933077e-16,-1.9450003158902182e-16,5.387166743198614e-08,-3.35911514804036e-08,-4.117226470101348e-08
1668677088.9552667,2678,1668677088,955079229,,3.842646439113947e-18,-9.622138061425621e-17,-1.8925218532473557e-16,5.363511161172084e-08,-3.3443649386465706e-08,-4.099147323063642e-08
1668677088.964033,2679,1668677088,963896696,,1.3787089039749646e-17,-6.118814490802677e-17,-2.1180041477881468e-16,5.339356780607552e-08,-3.329303708121507e-08,-4.0806869612979404e-08
1668677088.9716172,2680,1668677088,971426730,,2.4041275287332977e-18,-5.633370781028408e-17,-2.1201392363270398e-16,5.3147106512032065e-08,-3.3139358526414617e-08,-4.0618507734905055e-08
1668677088.9794805,2681,1668677088,979259896,,5.61934081479992e-18,-1.066192171580106e-16,-2.327426888418474e-16,5.289579830628248e-08,-3.29826577284275e-08,-4.0426441524557935e-08
1668677088.9875727,2682,1668677088,987435121,,2.2264877800527252e-17,-1.2550696499645611e-16,-2.483919002074834e-16,5.2639713822146145e-08,-3.282297872879082e-08,-4.023072496350377e-08
1668677088.99531,2683,1668677088,995148836,,4.7844392912357035e-17,-1.1550876816158818e-16,-2.5252401838377076e-16,5.2378923740678876e-08,-3.266036559883957e-08,-4.0031412075865864e-08
1668677089.0036147,2684,1668677089,3498058,,5.768961151379926e-17,-7.893545737845856e-17,-2.392165064470918e-16,5.211349878633379e-08,-3.249486244029799e-08,-3.982855691642868e-08
1668677089.0115712,2685,1668677089,11471951,,5.990315207172735e-17,-7.266402952891446e-17,-2.3039616627522837e-16,5.184350971766456e-08,-3.2326513371253815e-08,-3.9622213557831806e-08
1668677089.0194657,2686,1668677089,19307371,,7.904913895444593e-17,-1.2143809840029975e-17,-2.257039526417573e-16,5.1569027317620834e-08,-3.215536252699271e-08,-3.941243609993648e-08
1668677089.0277104,2687,1668677089,27508880,,8.981939096305741e-17,1.6158820583505118e-17,-2.0769992301841911e-16,5.129012237408666e-08,-3.1981454048001773e-08,-3.919927864701315e-08
1668677089.0353687,2688,1668677089,35268739,,8.261819458163397e-17,6.957229133171603e-17,-1.8771479700330105e-16,5.1006865683027385e-08,-3.1804832081416806e-08,-3.898279530259228e-08
1668677089.0435178,2689,1668677089,43333190,,1.2047811575427996e-16,6.396127519377563e-17,-1.7617287863185897e-16,5.071932804301021e-08,-3.1625540768453655e-08,-3.876304016490678e-08
1668677089.0516155,2690,1668677089,51437091,,1.3477748983808512e-16,1.4092521622785897e-16,-1.7239862805457496e-16,5.0427580230625385e-08,-3.14436242424398e-08,-3.8540067338207376e-08
1668677089.0596602,2691,1668677089,59464740,,1.2397921518415225e-16,1.2960517710700558e-16,-1.655048572379885e-16,5.013169299657934e-08,-3.1259126620346624e-08,-3.8313930894355486e-08
1668677089.0678551,2692,1668677089,67691863,,1.1062273804793253e-16,2.01316882962902e-16,-1.694288068462711e-16,4.9831737070522876e-08,-3.107209200386775e-08,-3.808468489042216e-08
1668677089.075247,2693,1668677089,75108600,,1.257101642497498e-16,2.946668005764381e-16,-2.004147280519172e-16,4.952778313228684e-08,-3.0882564466469845e-08,-3.785238334461918e-08
1668677089.0837014,2694,1668677089,83526381,,1.156369284882206e-16,3.2579742852538907e-16,-2.0496859942832841e-16,4.921990181207221e-08,-3.0690588048906545e-08,-3.761708023599659e-08
1668677089.0916479,2695,1668677089,91527483,,5.161845538019419e-17,3.270618220661941e-16,-2.023146121786989e-16,4.8908163687725736e-08,-3.049620675869096e-08,-3.737882950941819e-08
1668677089.0996804,2696,1668677089,99530525,,3.036267203102891e-17,3.282247808005118e-16,-2.2724877532649047e-16,4.859263926906185e-08,-3.029946456437193e-08,-3.713768504163647e-08
1668677089.1075606,2697,1668677089,107433058,,-6.302423824393249e-18,3.292944620010549e-16,-2.1939105532613936e-16,4.8273398994258417e-08,-3.010040538376358e-08,-3.689370067525625e-08
1668677089.11544,2698,1668677089,115233312,,-2.976857447202671e-17,3.5765384043499896e-16,-2.5664740784617915e-16,4.795051321843394e-08,-2.9899073086733714e-08,-3.664693017519421e-08
1668677089.12354,2699,1668677089,123398687,,-1.71381327579669e-17,4.1111975920092385e-16,-2.635479899062125e-16,4.762405220171419e-08,-2.969551148390288e-08,-3.639742723737003e-08
1668677089.1316464,2700,1668677089,131494894,,-2.9471751432271e-17,4.3293272084024175e-16,-2.596309335133893e-16,4.729408609622023e-08,-2.9489764318570884e-08,-3.614524548929651e-08
1668677089.13951,2701,1668677089,139328734,,-3.739680231453251e-17,4.803759801590425e-16,-2.5260549925363784e-16,4.696068496423776e-08,-2.9281875273213134e-08,-3.5890438461082815e-08
1668677089.1476371,2702,1668677089,147478934,,-3.7844020461886096e-17,5.240236360685428e-16,-2.256106348026796e-16,4.662391873750009e-08,-2.9071887955792822e-08,-3.563305960553917e-08
1668677089.1553578,2703,1668677089,155205715,,-4.167744913520058e-17,5.094283655352372e-16,-2.384168245365948e-16,4.628385722581141e-08,-2.8859845897414793e-08,-3.537316227443537e-08
1668677089.1636248,2704,1668677089,163503654,,-4.8626169507276487e-17,5.507516144814102e-16,-2.5019863493265583e-16,4.594057010898039e-08,-2.8645792544903234e-08,-3.511079972133067e-08
1668677089.1716561,2705,1668677089,171532425,,-3.1065461584173876e-17,5.887689141694382e-16,-2.5419411809430906e-16,4.559412692478426e-08,-2.8429771258491265e-08,-3.4846025094593607e-08
1668677089.1795883,2706,1668677089,179404344,,-4.2285130761105877e-17,5.963692713163451e-16,-2.441822896858656e-16,4.524459706323293e-08,-2.8211825306859498e-08,-3.4578891428497355e-08
1668677089.1878543,2707,1668677089,187588975,,-5.260724404826e-17,5.486105622860835e-16,-2.2128371662551245e-16,4.489204975600803e-08,-2.7991997856776664e-08,-3.430945163753534e-08
1668677089.1955335,2708,1668677089,195434727,,-6.552552275303752e-17,5.594235219216251e-16,-2.378583488112067e-16,4.453655408899556e-08,-2.7770331984294513e-08,-3.40377585139926e-08
1668677089.2037354,2709,1668677089,203561575,,-7.39884057603985e-17,5.419959473376167e-16,-2.2230958566587797e-16,4.417817895260069e-08,-2.754687064697722e-08,-3.37638647143725e-08
1668677089.2118456,2710,1668677089,211645941,,-7.835232569545552e-17,4.985870937688335e-16,-1.874730844350869e-16,4.381699307620565e-08,-2.732165670028824e-08,-3.348782276687628e-08
1668677089.219666,2711,1668677089,219501591,,-8.578905044248917e-17,4.86026478847144e-16,-1.862208927409896e-16,4.345306499445209e-08,-2.7094732877325412e-08,-3.3209685045216875e-08
1668677089.2278001,2712,1668677089,227621485,,-9.947469245116798e-17,4.47095267894175e-16,-1.3031783164863997e-16,4.308646304946669e-08,-2.6866141794949026e-08,-3.292950378667614e-08
1668677089.2355568,2713,1668677089,235356177,,-6.415834365238876e-17,4.1127862954855527e-16,-1.302159825785778e-16,4.2717255395226906e-08,-2.6635925947821057e-08,-3.264733106373331e-08
1668677089.2434795,2714,1668677089,243321327,,-4.1933078538730173e-17,3.7832740278717446e-16,-1.0959055766685284e-16,4.234550995896923e-08,-2.6404127691407293e-08,-3.236321880053539e-08
1668677089.251563,2715,1668677089,251416300,,-4.8861292855400144e-17,3.480123878335308e-16,-4.6129854564900266e-17,4.197129446318385e-08,-2.6170789254022523e-08,-3.2077218761160754e-08
1668677089.2598295,2716,1668677089,259691406,,-5.523521274328481e-17,3.201226891389315e-16,2.5941885216086602e-17,4.159467641651107e-08,-2.59359527295482e-08,-3.178938253162581e-08
1668677089.267636,2717,1668677089,267485646,,-8.84746689921765e-17,2.9446431344019437e-16,9.224803876208253e-17,4.1215723092132036e-08,-2.5699660067814923e-08,-3.149976153665412e-08
1668677089.2753384,2718,1668677089,275153319,,-1.1563297295898785e-16,2.982342556331716e-16,1.1903052748902198e-16,4.083450153480217e-08,-2.546195306841982e-08,-3.120840700420253e-08
1668677089.2835917,2719,1668677089,283379601,,-1.3377467687169132e-16,2.7432727878238093e-16,1.5393642704048268e-16,4.045107852867989e-08,-2.5222873378539348e-08,-3.091536998582223e-08
1668677089.2916324,2720,1668677089,291501005,,-1.4362110873586682e-16,2.2495755564348356e-16,1.9631588745369434e-16,4.006552063154296e-08,-2.4982462497814998e-08,-3.06207013408196e-08
1668677089.2995625,2721,1668677089,299410853,,-1.8347718164727973e-16,2.0691310788430668e-16,2.3530524373584206e-16,3.967789413491014e-08,-2.4740761764000666e-08,-3.032445173870313e-08
1668677089.3075492,2722,1668677089,307395439,,-1.96191136203374e-16,1.3556145225774108e-16,2.745976385974331e-16,3.928826507034696e-08,-2.4497812348732754e-08,-3.002667164233597e-08
1668677089.3152368,2723,1668677089,315056260,,-2.249975776352387e-16,9.729365295917068e-17,3.278566065224203e-16,3.889669920014823e-08,-2.4253655259496354e-08,-2.9727411313748873e-08
1668677089.3236313,2724,1668677089,323447932,,-2.617652299795291e-16,3.4712030532052876e-17,3.8369902434235756e-16,3.8503262019172804e-08,-2.400833133440565e-08,-2.9426720810733595e-08
1668677089.3314414,2725,1668677089,331319320,,-3.024352501866328e-16,4.5127052146309915e-18,4.3849630274458494e-16,3.8108018735228236e-08,-2.3761881231321998e-08,-2.9124649966505768e-08
1668677089.3396587,2726,1668677089,339455293,,-3.3642963031276737e-16,-2.3270402244804713e-17,5.128636938013008e-16,3.771103427237757e-08,-2.3514345435404653e-08,-2.8821248402345434e-08
1668677089.3475893,2727,1668677089,347412540,,-3.642824295312889e-16,-1.3095706020068074e-16,5.607503974822229e-16,3.731237326306721e-08,-2.3265764246079832e-08,-2.8516565511405552e-08
1668677089.355477,2728,1668677089,355349430,,-3.693752637622853e-16,-1.479019806243446e-16,5.842749280315795e-16,3.6912100046618594e-08,-2.3016177779589937e-08,-2.821065046030564e-08
1668677089.3634834,2729,1668677089,363304985,,-3.843263724852812e-16,-2.1824198047251475e-16,6.093397982896279e-16,3.651027864477025e-08,-2.2765625960095596e-08,-2.790355218870922e-08
1668677089.3715868,2730,1668677089,371355310,,-4.049251599837508e-16,-3.650809452368224e-16,6.837289158023439e-16,3.6106972774883135e-08,-2.25141485184504e-08,-2.7595319393680462e-08
1668677089.3797398,2731,1668677089,379492538,,-3.965004211419964e-16,-4.1804595283118363e-16,7.316357028413868e-16,3.570224585185779e-08,-2.226178499070464e-08,-2.728600052876035e-08
1668677089.3878055,2732,1668677089,387673231,,-4.1270309902336127e-16,-4.941489042749138e-16,7.346471088878167e-16,3.529616095822959e-08,-2.2008574712039548e-08,-2.6975643810988067e-08
1668677089.395339,2733,1668677089,395224577,,-4.4129717895184984e-16,-5.367877497808168e-16,7.750593621188222e-16,3.4888780840052726e-08,-2.1754556809347743e-08,-2.6664297203752824e-08
1668677089.4035308,2734,1668677089,403370945,,-4.8813522571738365e-16,-6.307661037955708e-16,8.396145747251526e-16,3.4480167923535764e-08,-2.1499770209174274e-08,-2.635200841460867e-08
1668677089.4116123,2735,1668677089,411412571,,-5.175383460438324e-16,-6.89850295909677e-16,8.784742015272904e-16,3.407038430113985e-08,-2.124425362421222e-08,-2.6038824889179337e-08
1668677089.419809,2736,1668677089,419652069,,-5.548548756019462e-16,-6.620808629969735e-16,8.83428119051219e-16,3.365949171547125e-08,-2.0988045555181535e-08,-2.572479382430208e-08
1668677089.4275374,2737,1668677089,427423091,,-5.96029821428851e-16,-7.186590569004894e-16,9.08517814478181e-16,3.3247551553930186e-08,-2.0731184282888597e-08,-2.5409962140761892e-08
1668677089.43531,2738,1668677089,435220213,,-6.407544983145969e-16,-7.433350806341774e-16,9.008034052454426e-16,3.2834624869034345e-08,-2.047370787048084e-08,-2.509437648423492e-08
1668677089.4439497,2739,1668677089,443823719,,-6.921668621267009e-16,-8.20787580606645e-16,9.245040912817041e-16,3.242077233194515e-08,-2.0215654153165927e-08,-2.477808323498767e-08
1668677089.4517822,2740,1668677089,451640688,,-7.463099527421317e-16,-8.372924342199228e-16,9.736847494365064e-16,3.2006054265270886e-08,-1.9957060745869305e-08,-2.446112849160969e-08
1668677089.4595983,2741,1668677089,459482676,,-8.1323112566182e-16,-8.524764593287335e-16,1.0257753550258714e-15,3.15905306236219e-08,-1.9697965030763645e-08,-2.414355807776952e-08
1668677089.4675052,2742,1668677089,467295546,,-8.782203746148086e-16,-8.664452903699076e-16,1.042901828960995e-15,3.117426099400904e-08,-1.9438404160594924e-08,-2.3825417528632035e-08
1668677089.4751027,2743,1668677089,475001476,,-9.345883926040347e-16,-9.066716559457475e-16,1.0655025968608958e-15,3.0757304574809673e-08,-1.9178415048991825e-08,-2.3506752089197023e-08
1668677089.4836664,2744,1668677089,483522672,,-9.898687317160871e-16,-8.615529292919544e-16,1.0589203881998734e-15,3.033972019158233e-08,-1.8918034376544217e-08,-2.3187606712849646e-08
1668677089.4915328,2745,1668677089,491306837,,-1.0338825995240272e-15,-8.200432176741232e-16,1.0425995051304404e-15,2.9921566277656456e-08,-1.8657298577634537e-08,-2.2868026061987448e-08
1668677089.4995153,2746,1668677089,499373167,,-1.0949068154882286e-15,-8.092292898755732e-16,1.0104751878987888e-15,2.9502900876377667e-08,-1.8396243844535083e-08,-2.254805449656329e-08
1668677089.507593,2747,1668677089,507415312,,-1.133939230125114e-15,-7.992799759820296e-16,1.0117188442809953e-15,2.9083781626661177e-08,-1.8134906121795734e-08,-2.2227736072947474e-08
1668677089.5154047,2748,1668677089,515288804,,-1.149317248778387e-15,-7.627505987652699e-16,9.889100478200382e-16,2.8664265786690244e-08,-1.7873321108916516e-08,-2.1907114547998717e-08
1668677089.5237005,2749,1668677089,523595512,,-1.1805745319011535e-15,-7.565185572138672e-16,9.987239969125864e-16,2.8244410196342286e-08,-1.7611524249779683e-08,-2.1586233364770944e-08
1668677089.5315442,2750,1668677089,531407590,,-1.2195968635566379e-15,-7.781600564127585e-16,9.906437607633239e-16,2.7824271293256553e-08,-1.7349550734775415e-08,-2.1265135656185703e-08
1668677089.5395954,2751,1668677089,539439988,,-1.2520752920689653e-15,-7.98069711728151e-16,1.0413834880519673e-15,2.7403905102858015e-08,-1.7087435497489438e-08,-2.0943864241753707e-08
1668677089.5476189,2752,1668677089,547523026,,-1.2751113819952275e-15,-7.890105610868723e-16,9.854065520125021e-16,2.698336724504397e-08,-1.6825213215870928e-08,-2.0622461626528442e-08
1668677089.5552197,2753,1668677089,555036087,,-1.3407895820994522e-15,-7.533001093136662e-16,9.749716419326156e-16,2.6562712905221267e-08,-1.6562918304250652e-08,-2.0300969995200726e-08
1668677089.5637467,2754,1668677089,563570539,,-1.3772597736690485e-15,-6.930704566904918e-16,9.516844285175778e-16,2.6141996856842196e-08,-1.6300584913402493e-08,-1.997943119406368e-08
1668677089.5714798,2755,1668677089,571328744,,-1.4381876597458253e-15,-6.924096192565484e-16,9.199950177574304e-16,2.5721273430392383e-08,-1.603824692211167e-08,-1.96578867563885e-08
1668677089.5797164,2756,1668677089,579592957,,-1.4908191852294114e-15,-6.64425606166079e-16,9.147949607718644e-16,2.5300596540692497e-08,-1.5775937949221783e-08,-1.9336377888234565e-08
1668677089.5878456,2757,1668677089,587575830,,-1.4879109365839262e-15,-5.83928761864971e-16,8.689483254802332e-16,2.4880019671538214e-08,-1.551369134102907e-08,-1.9014945459164538e-08
1668677089.59531,2758,1668677089,595218503,,-1.5228764610678604e-15,-5.098711069638568e-16,8.438797605872871e-16,2.445959585897452e-08,-1.5251540169079968e-08,-1.869363001158333e-08
1668677089.6034267,2759,1668677089,603211071,,-1.5379348622226231e-15,-4.691130001956009e-16,8.51614779799978e-16,2.4039377696567813e-08,-1.4989517231225306e-08,-1.8372471732037917e-08
1668677089.6115723,2760,1668677089,611461669,,-1.52441289339407e-15,-4.0423947983876574e-16,8.382000406667765e-16,2.3619417349523337e-08,-1.472765505150591e-08,-1.8051510485904107e-08
1668677089.6193705,2761,1668677089,619222836,,-1.5256602364761189e-15,-3.9930626904782857e-16,8.155933354008792e-16,2.319976651776679e-08,-1.446598587084837e-08,-1.7730785799031778e-08
1668677089.6275728,2762,1668677089,627465877,,-1.5268075882897583e-15,-3.9476714399029e-16,8.016397198336605e-16,2.2780476464764294e-08,-1.4204541650281517e-08,-1.741033684125289e-08
1668677089.6351678,2763,1668677089,635053849,,-1.500487459103218e-15,-3.9059057768428767e-16,8.401321183957988e-16,2.2361597989380592e-08,-1.3943354066576717e-08,-1.709020244469132e-08
1668677089.643599,2764,1668677089,643439297,,-1.4865385520533367e-15,-4.414985600529389e-16,8.27638681800171e-16,2.194318145118728e-08,-1.368245451855941e-08,-1.677042108676207e-08
1668677089.6515198,2765,1668677089,651381340,,-1.5010808500151684e-15,-4.609578249563546e-16,8.229892742704766e-16,2.152527673566244e-08,-1.3421874114232071e-08,-1.6451030903230264e-08
1668677089.6596076,2766,1668677089,659445373,,-1.5213034441238077e-15,-5.336107732252329e-16,8.563538011149245e-16,2.1107933274311552e-08,-1.3161643673411892e-08,-1.6132069667911992e-08
1668677089.667476,2767,1668677089,667322214,,-1.5399080220766903e-15,-4.909489181628848e-16,8.836279158587299e-16,2.0691200035403774e-08,-1.2901793731109084e-08,-1.581357480327008e-08
1668677089.6753864,2768,1668677089,675254732,,-1.5741337243051515e-15,-5.064504285958958e-16,8.813452808415235e-16,2.027512552295975e-08,-1.2642354528203921e-08,-1.549558337757526e-08
1668677089.6835117,2769,1668677089,683388079,,-1.602199223967039e-15,-4.933357367633911e-16,8.621362600239323e-16,1.9859757759808696e-08,-1.2383356012667568e-08,-1.5178132097218145e-08
1668677089.691734,2770,1668677089,691488397,,3.1539572062211755e-07,-3.715668286493895e-07,4.5636810713454094e-17,1.9445144369335448e-08,-1.2124827661959602e-08,-1.4861257310824903e-08
1668677089.6994798,2771,1668677089,699334480,,1.5514294668107188e-06,-1.827734689213097e-06,-1.980577252775616e-14,1.9031331640625364e-08,-1.1866798211110619e-08,-1.4544995003230885e-08
1668677089.7078893,2772,1668677089,707665949,,4.263685929105018e-06,-5.023035888027613e-06,-1.648880141914334e-13,1.861836063500833e-08,-1.1609294547369965e-08,-1.4229380793927439e-08
1668677089.7155821,2773,1668677089,715343837,,8.960907323503917e-06,-1.0556816751803822e-05,-7.539851642491541e-13,1.820626021608516e-08,-1.135233933812652e-08,-1.391444994124354e-08
1668677089.7235646,2774,1668677089,723363501,,1.6107678609270963e-05,-1.8976400338321358e-05,-2.4755068572605496e-12,1.77950379002784e-08,-1.1095947919424514e-08,-1.3600237338912363e-08
1668677089.7316694,2775,1668677089,731472963,,2.6126987718228967e-05,-3.078010182097584e-05,-6.557889667017069e-12,1.7384669387259556e-08,-1.0840124735234375e-08,-1.3286777509930077e-08
1668677089.739814,2776,1668677089,739675758,,3.940266558349922e-05,-4.642010225381297e-05,-1.4938400383102645e-11,1.6975087463687914e-08,-1.0584859563280275e-08,-1.2974104616223035e-08
1668677089.7475612,2777,1668677089,747413282,,5.628171062314143e-05,-6.630518624815966e-05,-3.042031958454687e-11,1.656617087630606e-08,-1.0330123731668155e-08,-1.2662252445698333e-08
1668677089.7553775,2778,1668677089,755211696,,7.707650220014812e-05,-9.080334891972375e-05,-5.681023530027269e-11,1.6157733602935458e-08,-1.007586647497757e-08,-1.2351254418101892e-08
1668677089.7636175,2779,1668677089,763478599,,0.00010206690744717259,-0.00012024427729766112,-9.90302159744879e-11,1.5749514842732722e-08,-9.822011525489718e-09,-1.2041143594335819e-08
1668677089.7717772,2780,1668677089,771659701,,0.00013150228571280013,-0.00015492171122290712,-1.6320210061247527e-10,1.5341170018412524e-08,-9.568454058568096e-09,-1.173195265669882e-08
1668677089.7796462,2781,1668677089,779513147,,0.0001656033947547261,-0.00019509568860025825,-2.5670244454666696e-10,1.4932262959461313e-08,-9.315058030796688e-09,-1.1423713925935285e-08
1668677089.78785,2782,1668677089,787645725,,0.00020456420267720587,-0.00024099467971212975,-3.8818752348090164e-10,1.4522259367927385e-08,-9.061653959506393e-09,-1.111645934825196e-08
1668677089.7953062,2783,1668677089,795117425,,0.00024855360948192423,-0.0002928176151478418,-5.675897944561647e-10,1.4110521660545458e-08,-8.8080371618706e-09,-1.0810220501525011e-08
1668677089.8041615,2784,1668677089,804041971,,0.00029771708197689784,-0.0003507358117497791,-8.060871857982092e-10,1.3696305162194964e-08,-8.553966464294646e-09,-1.050502858345511e-08
1668677089.8115923,2785,1668677089,811416591,,0.0003521782056641563,-0.00041489480083166386,-1.1160473339539097e-09,1.3278755715811934e-08,-8.299163383550094e-09,-1.0200914434986205e-08
1668677089.8195767,2786,1668677089,819479398,,0.00041204015710681233,-0.0004854160627800971,-1.5109496360067493e-09,1.2856908599022843e-08,-8.043311750244032e-09,-9.89790851027312e-09
1668677089.8275857,2787,1668677089,827480859,,0.00047738710015682843,-0.0005623986720082103,-2.0052880005903675e-09,1.2429688752649964e-08,-7.786057787632098e-09,-9.596040892023011e-09
1668677089.835614,2788,1668677089,835423431,,0.0005482855093090237,-0.0006459208560959457,-2.614456752112566e-09,1.1995912181399354e-08,-7.527010574596521e-09,-9.295341290736434e-09
1668677089.8436275,2789,1668677089,843430331,,0.0006247854233331953,-0.0007360414728141515,-3.354623195719473e-09,1.155428850752373e-08,-7.26574290182703e-09,-8.995839032239009e-09
1668677089.851483,2790,1668677089,851358996,,0.0007069216322252503,-0.0008328014086025267,-4.242589877416636e-09,1.1103424516308423e-08,-7.001792476549033e-09,-8.697563069499231e-09
1668677089.8594697,2791,1668677089,859314945,,0.0007947148004095372,-0.0009362249019415013,-5.295648730513696e-09,1.0641828654078903e-08,-6.734663430269373e-09,-8.40054196842542e-09
1668677089.8678865,2792,1668677089,867728559,,0.0008881725290191765,-0.0010463207949366802,-6.531430517545026e-09,1.0167916326705268e-08,-6.463828113551049e-09,-8.104803913937253e-09
1668677089.875328,2793,1668677089,875146499,,0.0009872903599777625,-0.001163083716311551,-7.967751883606668e-09,9.680015942748643e-09,-6.188729128800809e-09,-7.810376710399441e-09
1668677089.8836522,2794,1668677089,883547831,,0.001092052724505704,-0.0012864951988898609,-9.622461961089854e-09,9.176375529527106e-09,-5.9087815618418275e-09,-7.517287771863918e-09
1668677089.8915544,2795,1668677089,891352037,,0.0012024338385761943,-0.0014165247345318795,-1.1513291037519288e-08,8.65516989409317e-09,-5.6233754032962956e-09,-7.2255641261897985e-09
1668677089.899769,2796,1668677089,899611309,,0.0013183985477518013,-0.0015531307693803064,-1.3657703331092912e-08,8.114508201993302e-09,-5.3318780950239596e-09,-6.935232399214036e-09
1668677089.9074845,2797,1668677089,907376908,,0.0014399031237387586,-0.0016962616421622272,-1.6072754626884603e-08,7.552441863568194e-09,-5.033637202314558e-09,-6.646318843374355e-09
1668677089.9153404,2798,1668677089,915146063,,0.001566896014907849,-0.0018458564681911105,-1.877495735604748e-08,6.966972678028847e-09,-4.72798314449165e-09,-6.358849297376928e-09
1668677089.9237397,2799,1668677089,923556735,,0.0016993185529426296,-0.0020018459716077963,-2.1780153246860996e-08,6.356061128453622e-09,-4.414231999906267e-09,-6.0728492204571716e-09
1668677089.9316494,2800,1668677089,931508395,,0.0018371056176918132,-0.0021641532683052025,-2.5103395254973252e-08,5.7176347650020624e-09,-4.091688315423225e-09,-5.788343662022077e-09
1668677089.939586,2801,1668677089,939480058,,0.0019801862622204156,-0.002332694601882311,-2.875883905837338e-08,5.049596577730547e-09,-3.759647936764777e-09,-5.505357266420707e-09
1668677089.947404,2802,1668677089,947293537,,0.002128484299974847,-0.002507380034882161,-3.275964521820203e-08,4.349833372464037e-09,-3.4174008162960855e-09,-5.223914268173702e-09
1668677089.955328,2803,1668677089,955099813,,0.0022819188559005414,-0.0026881140974789504,-3.711789162706328e-08,3.6162239732903407e-09,-3.064233771127127e-09,-4.944038507585791e-09
1668677089.9637563,2804,1668677089,963507237,,0.0024404048832761182,-0.0028747963956920544,-4.184449742317879e-08,2.8466473203983805e-09,-2.69943320608645e-09,-4.665753413832241e-09
1668677089.971641,2805,1668677089,971451415,,0.002603853647955815,-0.0030673221811191665,-4.694915758976311e-08,2.038990324997568e-09,-2.32228775737199e-09,-4.389081996285238e-09
1668677089.9796026,2806,1668677089,979468329,,0.002772173181642486,-0.003265582884102948,-5.244028907926403e-08,1.1911555359146557e-09,-1.9320908384203982e-09,-4.1140468549222264e-09
1668677089.9875054,2807,1668677089,987339603,,0.0029452687057462297,-0.003469466612162561,-5.832498737651751e-08,3.010684491289292e-10,-1.5281431232450158e-09,-3.840670181193273e-09
1668677089.9957824,2808,1668677089,995605987,,0.0031230430273183644,-0.003678858615448671,-6.460899418993104e-08,-6.333153955689202e-10,-1.1097548948584349e-09,-3.568973740673831e-09
1668677090.0034616,2809,1668677090,3320779,,0.0033053969084875833,-0.0038936417209043113,-7.12966750441898e-08,-1.6140037310396083e-09,-6.762483016327456e-10,-3.298978872197378e-09
1668677090.0114489,2810,1668677090,11325828,,0.003492229410764682,-0.004113696736745236,-7.839100732054171e-08,-2.6429611678320314e-09,-2.2695947695544096e-10,-3.0307065112741838e-09
1668677090.0195227,2811,1668677090,19353204,,0.003683438215523677,-0.004338902828802489,-8.589357721678743e-08,-3.722103204962374e-09,2.3875945334315626e-10,-2.764177147590585e-09
1668677090.027472,2812,1668677090,27281660,,0.003878919921909883,-0.004569137870205288,-9.380458602268956e-08,-4.8532906028438474e-09,7.215384844239028e-10,-2.4994108675097104e-09
1668677090.0352745,2813,1668677090,35124472,,0.00407857032337231,-0.004804278765816924,-1.0212286471082224e-07,-6.038324127182978e-09,1.2219879908577803e-09,-2.2364273072339458e-09
1668677090.043842,2814,1668677090,43700536,,0.004282284663963975,-0.005044201752775755,-1.1084589619806572e-07,-7.278939690330858e-09,1.740697120461692e-09,-1.9752456927035755e-09
1668677090.0516694,2815,1668677090,51396227,,0.004489957875503695,-0.005288782678433683,-1.19969844856758e-07,-8.576803921714186e-09,2.278232305499145e-09,-1.715884816178015e-09
1668677090.0596445,2816,1668677090,59416111,,0.004701484796644112,-0.00553789725692577,-1.2948959250333316e-07,-9.93351007600883e-09,2.8351359076443736e-09,-1.4583630258274694e-09
1668677090.0676816,2817,1668677090,67485304,,0.004916760374843564,-0.005791421305551672,-1.393987804808395e-07,-1.135057434194643e-08,3.4119250079314017e-09,-1.202698256957957e-09
1668677090.0753562,2818,1668677090,75254189,,0.00513567985219436,-0.00604923096209387,-1.4968985677677119e-07,-1.2829432558401541e-08,4.009090317727169e-09,-9.48907997316839e-10
1668677090.0834694,2819,1668677090,83333949,,0.005358138936016435,-0.006311202884148642,-1.6035412801938106e-07,-1.4371437290555873e-08,4.627095186252863e-09,-6.970093148483958e-10
1668677090.0958564,2820,1668677090,95499679,,0.005584033955083413,-0.006577214431494321,-1.7138181535222881e-07,-1.5977855247288055e-08,5.266374805375836e-09,-4.4701882473408006e-10
1668677090.101698,2821,1668677090,101292051,,0.005813262002308072,-0.006847143832475803,-1.8276211395167542e-07,-1.764986510726697e-08,5.927335453188853e-09,-1.9895271888281663e-10
1668677090.1081388,2822,1668677090,107912801,,0.006045721064675295,-0.0071208703353365915,-1.9448325517107927e-07,-1.9388555632494182e-08,6.610353892304993e-09,4.7173228864827443e-11
1668677090.1155212,2823,1668677090,115308334,,0.006281310141173744,-0.007398274345388043,-2.0653257110736388e-07,-2.1194924172172696e-08,7.3157768879839914e-09,2.913437078394532e-10
1668677090.1236062,2824,1668677090,123427668,,0.0065199293494413845,-0.00767923754886132,-2.1889656118340632e-07,-2.3069875430172383e-08,8.043920806733492e-09,5.335438254400193e-10
1668677090.1315627,2825,1668677090,131367871,,0.006761480021805727,-0.007963643024247796,-2.3156095956010641e-07,-2.5014220568787804e-08,8.79507133333228e-09,7.737591140727362e-10
1668677090.13962,2826,1668677090,139477634,,0.007005864791367492,-0.008251375341895795,-2.445108036947478e-07,-2.702867660102934e-08,9.56948327556547e-09,1.011975564110812e-09
1668677090.1478264,2827,1668677090,147632363,,0.0072529876687433634,-0.008542320652591624,-2.577305032361482e-07,-2.9113866052175928e-08,1.0367380484210386e-08,1.248179583995812e-09
1668677090.1554933,2828,1668677090,155338098,,0.0075027541100549135,-0.008836366765819895,-2.7120390872753034e-07,-3.1270316885805374e-08,1.1188955810806887e-08,1.482358014115448e-09
1668677090.1634357,2829,1668677090,163282118,,0.0077550710767202114,-0.009133403218361752,-2.849143800476673e-07,-3.349846267910984e-08,1.203437119856772e-08,1.7144981129257886e-09
1668677090.171505,2830,1668677090,171337505,,0.008009847087577699,-0.00943332133385727,-2.9884485388446044e-07,-3.579864299328641e-08,1.290375782419216e-08,1.944587595115177e-09
1668677090.1794765,2831,1668677090,179287398,,0.00826699226384503,-0.009736014273927668,-3.129779103056527e-07,-3.817110403266425e-08,1.3797216307604929e-08,2.172614570888909e-09
1668677090.1879704,2832,1668677090,187860785,,0.008526418367389548,-0.010041377081420175,-3.2729583781748893e-07,-4.061599943310933e-08,1.471481698956615e-08,2.3985675910720428e-09
1668677090.1951973,2833,1668677090,195099754,,0.00878803883276337,-0.010349306716312737,-3.417806968243826e-07,-4.31333912744795e-08,1.565660028658494e-08,2.622435643639953e-09
1668677090.2036698,2834,1668677090,203468665,,0.009051768793431865,-0.010659702084785009,-3.564143813367002e-07,-4.572325121762733e-08,1.662257709505576e-08,2.84420810861552e-09
1668677090.2123075,2835,1668677090,212056692,,0.009317525102602406,-0.010972464061937403,-3.711786780541717e-07,-4.838546191092202e-08,1.761272921604884e-08,3.0638748135802807e-09
1668677090.2204618,2836,1668677090,220256385,,0.009585226349038469,-0.01128749550861364,-3.860553241024302e-07,-5.111981839727277e-08,1.8627009862716773e-08,3.281425971224383e-09
1668677090.2275755,2837,1668677090,227403560,,0.009854792868223845,-0.011604701282758274,-4.0102606144484756e-07,-5.392602972969845e-08,1.966534422407967e-08,3.496852248735527e-09
1668677090.235141,2838,1668677090,235019533,,0.010126146749221819,-0.011923988245717368,-4.1607268936802084e-07,-5.6803720722368306e-08,2.0727630001217325e-08,3.710144691471129e-09
1668677090.2434509,2839,1668677090,243328887,,0.010399211837555824,-0.012245265263868281,-4.311771140553163e-07,-5.975243374533603e-08,2.1813738040714348e-08,3.921294764591687e-09
1668677090.2517517,2840,1668677090,251628848,,0.010673913734420047,-0.012568443205943067,-4.463213956463305e-07,-6.277163066924609e-08,2.2923512973472074e-08,4.130294349591335e-09
1668677090.259808,2841,1668677090,259695415,,0.010950179792511009,-0.012893434936390332,-4.614877922629303e-07,-6.58606948321849e-08,2.4056773877101888e-08,4.337135716542262e-09
1668677090.2674804,2842,1668677090,267289337,,0.011227939108755048,-0.01322015530510035,-4.7665880137956073e-07,-6.901893317265884e-08,2.521331497415142e-08,4.54181153450306e-09
1668677090.2751615,2843,1668677090,275069989,,0.011507122514191746,-0.013548521133800598,-4.91817198389799e-07,-7.224557831497585e-08,2.6392906308375652e-08,4.7443148923353995e-09
1668677090.2838564,2844,1668677090,283682463,,0.01178766256125664,-0.013878451199409888,-5.06946072267703e-07,-7.553979077201895e-08,2.7595294507798407e-08,4.94463924666233e-09
1668677090.2915318,2845,1668677090,291406352,,0.01206949350869487,-0.0142098662146247,-5.220288583865567e-07,-7.890066116227707e-08,2.882020350006894e-08,5.142778446154406e-09
1668677090.299667,2846,1668677090,299545758,,0.01235255130432178,-0.014542688805992788,-5.370493685932774e-07,-8.23272125009811e-08,3.0067335269994e-08,5.338726741938027e-09
1668677090.3075752,2847,1668677090,307385107,,0.012636773565834527,-0.014876843489716168,-5.519918183635007e-07,-8.58184024957122e-08,3.133637057597862e-08,5.532478752900971e-09
1668677090.3157022,2848,1668677090,315525395,,0.012922099559866878,-0.015212256645409141,-5.668408515072552e-07,-8.937312580983652e-08,3.262696975005891e-08,5.724029465692393e-09
1668677090.323689,2849,1668677090,323478703,,0.013208470179467005,-0.015548856488025302,-5.815815619724265e-07,-9.299021641332654e-08,3.393877345055519e-08,5.913374262478399e-09
1668677090.332117,2850,1668677090,331983234,,0.013495827920166906,-0.01588657303815224,-5.961995130514658e-07,-9.666844989905058e-08,3.527140341483357e-08,6.1005089070642615e-09
1668677090.3398037,2851,1668677090,339625533,,0.01378411685480268,-0.016225338090861498,-6.106807541693973e-07,-1.0040654581367197e-07,3.6624463189841375e-08,6.285429478974924e-09
1668677090.347654,2852,1668677090,347448470,,0.014073282607233305,-0.016565085183289145,-6.250118352372951e-07,-1.0420316996222916e-07,3.7997538965424925e-08,6.468132477538413e-09
1668677090.355327,2853,1668677090,355190511,,0.014363272325097275,-0.016905749561111075,-6.391798184754896e-07,-1.0805693674434749e-07,3.939020023070554e-08,6.648614721271873e-09
1668677090.3634005,2854,1668677090,363287743,,0.014654034651736711,-0.017247268144066182,-6.531722882139949e-07,-1.1196641140032658e-07,4.0802000601217366e-08,6.826873399923272e-09
1668677090.3715367,2855,1668677090,371356043,,0.01494551969741006,-0.017589579490670932,-6.669773583560896e-07,-1.1593011232312019e-07,4.223247847257288e-08,7.002906053654723e-09
1668677090.3808494,2856,1668677090,380717023,,0.01523767900990667,-0.017932623762258498,-6.80583677815365e-07,-1.1994651323647123e-07,4.368115780477473e-08,7.176710538348008e-09
1668677090.3885138,2857,1668677090,388296726,,0.015530465544668397,-0.018276342686467124,-6.939804339901013e-07,-1.2401404547802476e-07,4.5147548848631196e-08,7.348285119279652e-09
1668677090.395129,2858,1668677090,395021804,,0.01582383363451638,-0.01862067952029353,-7.071573542870602e-07,-1.2813110017480668e-07,4.663114877925551e-08,7.51762833234304e-09
1668677090.4033656,2859,1668677090,403231179,,0.01611773895907376,-0.018965579012818756,-7.201047061133237e-07,-1.322960303492052e-07,4.813144247213779e-08,7.684739060376256e-09
1668677090.4115367,2860,1668677090,411420197,,0.016412138513969325,-0.019310987367706322,-7.328132949240317e-07,-1.3650715307024475e-07,4.964790311810449e-08,7.849616533162074e-09
1668677090.4195645,2861,1668677090,419416537,,0.016706990579899512,-0.019656852205565022,-7.452744609245938e-07,-1.4076275153021263e-07,5.1179992903872124e-08,8.012260271916816e-09
1668677090.427808,2862,1668677090,427600202,,0.017002254691622035,-0.02000312252626195,-7.574800742328831e-07,-1.450610770342784e-07,5.272716368902308e-08,8.172670193373754e-09
1668677090.4352858,2863,1668677090,435182874,,0.017297891606947034,-0.0203497486712648,-7.694225288085095e-07,-1.4940035108676995e-07,5.428885763462607e-08,8.330846408555193e-09
1668677090.4437475,2864,1668677090,443556014,,0.01759386327578804,-0.02069668228608572,-7.810947348720275e-07,-1.537787672508512e-07,5.5864507796294684e-08,8.486789410122597e-09
1668677090.4519355,2865,1668677090,451799775,,0.017890132809328822,-0.02104387628289423,-7.924901105535375e-07,-1.5819449306238298e-07,5.7453538748471027e-08,8.64049998217098e-09
1668677090.459624,2866,1668677090,459497113,,0.01818666444935788,-0.021391284803359913,-8.036025721140142e-07,-1.6264567197189165e-07,5.9055367182580046e-08,8.791979234923364e-09
1668677090.4677982,2867,1668677090,467493955,,0.018483423537818566,-0.0217388631817811,-8.144265236727523e-07,-1.6713042506324646e-07,6.066940248306615e-08,8.941228514525168e-09
1668677090.4753387,2868,1668677090,475141564,,0.018780376486617702,-0.02208656790855146,-8.249568454975377e-07,-1.716468529053142e-07,6.229504726700062e-08,9.088249514066504e-09
1668677090.4834,2869,1668677090,483227638,,0.019077490747732077,-0.02243435659400984,-8.351888821523917e-07,-1.761930371912187e-07,6.393169790916073e-08,9.233044169498772e-09
1668677090.4920723,2870,1668677090,491932987,,0.01937473478364844,-0.022782187932716875,-8.451184294508493e-07,-1.807670424795152e-07,6.557874515980815e-08,9.37561473596249e-09
1668677090.4994955,2871,1668677090,499321212,,0.019672078038169623,-0.023130021668195586,-8.547417210817533e-07,-1.8536691776877738e-07,6.7235574533267e-08,9.515963711459463e-09
1668677090.5078938,2872,1668677090,507777076,,0.019969490907615062,-0.02347781855817091,-8.640554147114165e-07,-1.899906981952409e-07,6.890156689892245e-08,9.654093892363935e-09
1668677090.5150664,2873,1668677090,514931632,,0.020266944712442024,-0.023825540340338493,-8.730565775440591e-07,-1.9463640637856945e-07,7.057609889148282e-08,9.790008338728118e-09
1668677090.5236063,2874,1668677090,523456803,,0.020564411669310667,-0.024173149698690083,-8.817426716732661e-07,-1.9930205407878675e-07,7.225854344863544e-08,9.923710346526615e-09
1668677090.531546,2875,1668677090,531349920,,0.02086186486361257,-0.024520610230420372,-8.901115388310037e-07,-2.0398564360031828e-07,7.394827017457965e-08,1.0055203461534212e-08
1668677090.5398185,2876,1668677090,539624973,,0.021159278222481565,-0.024867886413435132,-8.981613853282002e-07,-2.0868516914995458e-07,7.564464585177021e-08,1.0184491548714814e-08
1668677090.5475097,2877,1668677090,547320769,,0.02145662648830117,-0.025214943574480727,-9.058907665774158e-07,-2.1339861822923783e-07,7.734703482309858e-08,1.0311578653443565e-08
1668677090.5552118,2878,1668677090,555056351,,0.021753885192722994,-0.025561747857909725,-9.132985713781451e-07,-2.1812397295854378e-07,7.905479937179733e-08,1.0436469105590263e-08
1668677090.5634577,2879,1668677090,563317813,,0.02205103063120621,-0.02590826619509632,-9.203840066270569e-07,-2.2285921133838836e-07,8.076730017994929e-08,1.0559167470947095e-08
1668677090.5717223,2880,1668677090,571550611,,0.02234803983808851,-0.026254466274513256,-9.271465814878365e-07,-2.2760230841944442e-07,8.2483896626101e-08,1.0679678516534175e-08
1668677090.5797327,2881,1668677090,579530657,,0.022644890562194965,-0.026600316512478576,-9.335860920292819e-07,-2.3235123761941373e-07,8.420394723889293e-08,1.0798007266110687e-08
1668677090.5875895,2882,1668677090,587375242,,0.022941561242991525,-0.026945786024579737,-9.397026056425103e-07,-2.3710397176521627e-07,8.592680995531642e-08,1.0914158958541531e-08
1668677090.5951426,2883,1668677090,595019767,,0.02323803098728686,-0.027290844597780993,-9.45496445796629e-07,-2.418584842874558e-07,8.765184250159389e-08,1.1028139096369571e-08
1668677090.6034424,2884,1668677090,603337460,,0.02353427954648574,-0.02763546266321657,-9.509681769796323e-07,-2.466127502090496e-07,8.937840275790448e-08,1.1139953279282189e-08
1668677090.611653,2885,1668677090,611436888,,0.02383028729439569,-0.027979611269672657,-9.561185897012791e-07,-2.5136474721484817e-07,9.110584900666636e-08,1.1249607460850353e-08
1668677090.6196253,2886,1668677090,619476588,,0.024126035205586573,-0.02832326205775912,-9.609486859077844e-07,-2.561124567350783e-07,9.283354023372804e-08,1.1357107775056274e-08
1668677090.6274364,2887,1668677090,627324066,,0.024421504834303408,-0.028666387234769004,-9.654596646970407e-07,-2.608538647966589e-07,9.456083651152546e-08,1.1462460446087785e-08
1668677090.6354105,2888,1668677090,635200359,,0.024716678293929616,-0.029008959550225637,-9.696529079295047e-07,-2.655869629888453e-07,9.62870991307041e-08,1.1565671996505156e-08
1668677090.6439066,2889,1668677090,643788960,,0.025011538236998605,-0.029350952272113418,-9.735299669022279e-07,-2.703097494431857e-07,9.801169103596831e-08,1.1666749143157684e-08
1668677090.6515281,2890,1668677090,651403490,,0.025306067835749905,-0.029692339163788335,-9.770925486852899e-07,-2.7502022960330464e-07,9.97339769212742e-08,1.1765698748611442e-08
1668677090.6596854,2891,1668677090,659550529,,0.02560025076322541,-0.0300330944615639,-9.803425031898013e-07,-2.7971641712121274e-07,1.0145332363467076e-07,1.1862527904415998e-08
1668677090.6677387,2892,1668677090,667525121,,0.02589407117490056,-0.030373192852966427,-9.83281810455163e-07,-2.843963346775059e-07,1.0316910031209041e-07,1.195724382008212e-08
1668677090.675145,2893,1668677090,675016499,,0.026187513690845106,-0.030712609455652733,-9.859125685996009e-07,-2.89058014719761e-07,1.0488067861543979e-07,1.204985396879854e-08
1668677090.68357,2894,1668677090,683385379,,0.026480563378406242,-0.031051319796983803,-9.882369818990017e-07,-2.9369950023101863e-07,1.0658743303942897e-07,1.2140365913959617e-08
1668677090.6919765,2895,1668677090,691810560,,0.026773205735408524,-0.03138929979424635,-9.90257349289218e-07,-2.983188455547522e-07,1.0828874099939184e-07,1.2228787454882095e-08
1668677090.6997983,2896,1668677090,699574058,,0.027065426673861775,-0.031726525735513524,-9.919760537405004e-07,-3.029141169188089e-07,1.0998398317237611e-07,1.2315126501905027e-08
1668677090.7084198,2897,1668677090,708210167,,0.027357212504170232,-0.03206297426113616,-9.933955513309416e-07,-3.074833933267864e-07,1.1167254358366262e-07,1.239939113883981e-08
1668677090.7156322,2898,1668677090,715508537,,0.02764854991983451,-0.03239862234585545,-9.945183615047734e-07,-3.120247669993032e-07,1.133538098723949e-07,1.2481589650725766e-08
1668677090.7240973,2899,1668677090,723962611,,0.02793942598263749,-0.032733447281526835,-9.953470573294102e-07,-3.1653634421311685e-07,1.1502717346244945e-07,1.2561730378113367e-08
1668677090.7318172,2900,1668677090,731657985,,0.028229828108306022,-0.03306742666044524,-9.958842562422441e-07,-3.210162457895028e-07,1.1669202969210625e-07,1.2639821925231054e-08
1668677090.7395952,2901,1668677090,739490908,,0.02851974405263896,-0.03340053835926127,-9.961326115300365e-07,-3.254626077119787e-07,1.1834777802395037e-07,1.271587291712395e-08
1668677090.7475774,2902,1668677090,747399804,,0.028809161898092295,-0.03373276052347801,-9.960948038837056e-07,-3.2987358172001336e-07,1.1999382224826827e-07,1.2789892277209614e-08
1668677090.7551956,2903,1668677090,755072547,,0.029098070040812298,-0.03406407155251727,-9.957735337971216e-07,-3.342473358971523e-07,1.2162957059060064e-07,1.286188888033335e-08
1668677090.7640836,2904,1668677090,763885726,,0.029386457178106975,-0.034394450085344114,-9.951715138782507e-07,-3.3858205509190503e-07,1.2325443587155385e-07,1.2931871913590687e-08
1668677090.7715166,2905,1668677090,771374346,,0.029674312296345907,-0.03472387498663897,-9.94291462171624e-07,-3.4287594155867117e-07,1.2486783567723647e-07,1.2999850529382684e-08
1668677090.7795503,2906,1668677090,779386031,,0.029961624659279224,-0.03505232533350588,-9.93136095604235e-07,-3.471272154111538e-07,1.2646919248871305e-07,1.3065834109093899e-08
1668677090.7877827,2907,1668677090,787578465,,0.03024838379676553,-0.035379780402705376,-9.917081237477326e-07,-3.5133411509528836e-07,1.2805793386653531e-07,1.3129832110436723e-08
1668677090.7954955,2908,1668677090,795296570,,0.03053457949389903,-0.03570621965840076,-9.900102434027197e-07,-3.554948979550337e-07,1.296334924535611e-07,1.319185413684032e-08
1668677090.8035195,2909,1668677090,803305382,,0.030820201780526368,-0.03603162274040646,-9.880451332927588e-07,-3.5960784049946523e-07,1.3119530629674553e-07,1.3251909888878366e-08
1668677090.8115656,2910,1668677090,811423248,,0.031105240921142363,-0.03635596945292681,-9.858154491499045e-07,-3.6367123896753574e-07,1.327428188386843e-07,1.3310009219780206e-08
1668677090.819679,2911,1668677090,819517485,,0.03138968740515628,-0.03667923975377442,-9.833238193093907e-07,-3.6768340988025967e-07,1.3427547911688993e-07,1.336616199665297e-08
1668677090.8273816,2912,1668677090,827273158,,0.03167353193751759,-0.03700141374405571,-9.805728406102814e-07,-3.71642690156018e-07,1.357927417937159e-07,1.3420378253137244e-08
1668677090.8351543,2913,1668677090,835010879,,0.03195676542969199,-0.03732247165831342,-9.77565074893774e-07,-3.75547437779782e-07,1.372940673244078e-07,1.3472668092262552e-08
1668677090.8434987,2914,1668677090,843386873,,0.032239378990978236,-0.03764239385511453,-9.74303045485737e-07,-3.793960320842469e-07,1.3877892218760492e-07,1.3523041783591871e-08
1668677090.8513594,2915,1668677090,851242618,,0.03252136392015618,-0.0379611608080721,-9.707892344417673e-07,-3.831868741428551e-07,1.4024677871707185e-07,1.3571509610565968e-08
1668677090.8596318,2916,1668677090,859454547,,0.032802711697455855,-0.03827875309729066,-9.670260796968047e-07,-3.8691838707299343e-07,1.4169711550979236e-07,1.3618081939892335e-08
1668677090.8675208,2917,1668677090,867374570,,0.033065776377156846,-0.038784284636923474,1.7100922475056275e-05,-3.916255549370911e-07,1.434806636449286e-07,1.366344867803626e-08
1668677090.8752565,2918,1668677090,875140226,,0.03332025913229606,-0.039373370547326036,4.3234424950811085e-05,-3.967352623455837e-07,1.4540386366365503e-07,1.3707277646268778e-08
1668677090.883514,2919,1668677090,883392746,,0.033576165515821585,-0.03993867377637461,6.722765416351489e-05,-4.016528989227771e-07,1.4726553580865671e-07,1.3749194130441289e-08
1668677090.8916721,2920,1668677090,891558170,,0.03306479405824617,-0.04181900962405165,0.00046779420797068885,-3.969137134539661e-07,1.4585846235632902e-07,1.378264657958539e-08
1668677090.899569,2921,1668677090,899352218,,0.03223965049691198,-0.044483372968438094,0.0011908016292614977,-3.901024489846947e-07,1.4374663267363065e-07,1.3812632204679431e-08
1668677090.9079103,2922,1668677090,907797706,,0.03130536348623983,-0.04743468616256865,0.002042398487354554,-3.825959295795521e-07,1.4139525855954953e-07,1.384007283777855e-08
1668677090.9152355,2923,1668677090,915075740,,0.031010687043912303,-0.05105732962400566,0.0025495851521277683,-3.9705935930519406e-07,1.4648439436199152e-07,1.388151915637792e-08
1668677090.9237483,2924,1668677090,923556337,,0.030767655985066734,-0.05439587589661205,0.0030116957949812458,-4.105533934780194e-07,1.5125459396406714e-07,1.3920771049780178e-08
1668677090.9314628,2925,1668677090,931306421,,0.03085806802134479,-0.05794065709225667,0.003286525308517298,-4.3475107487482307e-07,1.5966071984776717e-07,1.3966646811303107e-08
1668677090.9396563,2926,1668677090,939442233,,0.03123271443278344,-0.06170168387223641,0.0032807135585506213,-4.689239439299329e-07,1.7146273892506766e-07,1.4019041275070698e-08
1668677090.9474547,2927,1668677090,947287676,,0.03193001533174526,-0.06599926839016486,0.002524387372331716,-5.176602766651661e-07,1.8822165193457807e-07,1.4082003757520667e-08
1668677090.9554596,2928,1668677090,955312931,,0.0327715429574547,-0.07038218065871912,0.0014288195792212994,-5.727656982341001e-07,2.0717152039392318e-07,1.414967755464236e-08
1668677090.9637427,2929,1668677090,963589335,,0.033573757650244555,-0.07438528072579904,0.0004171095897312479,-6.245885509815639e-07,2.250489620184322e-07,1.4214581525728853e-08
1668677090.9715312,2930,1668677090,971337232,,0.03482764002799637,-0.07863558589891795,-0.00019114947249917644,-6.94587393140181e-07,2.491207219878708e-07,1.4294431471828517e-08
1668677090.979442,2931,1668677090,979307582,,0.03608910435436791,-0.082648604171141,-7.864608084812533e-06,-7.646039306522271e-07,2.732522819235035e-07,1.4374865700550465e-08
1668677090.9878607,2932,1668677090,987725221,,0.03731652590485634,-0.08636630178414863,0.0005540653511446759,-8.322628232380891e-07,2.9664220451992157e-07,1.445396546895239e-08
1668677090.9953494,2933,1668677090,995243070,,0.038712832450908945,-0.09000035207971945,0.0017531465196511655,-9.067223431035798e-07,3.223916358254149e-07,1.4539777673516774e-08
1668677091.003563,2934,1668677091,3382595,,0.040016379434039705,-0.09327744591889041,0.0028543864989693324,-9.755282520992458e-07,3.4629290784730926e-07,1.4621627131283788e-08
1668677091.0115666,2935,1668677091,11376548,,0.04136245157807421,-0.09636430763753838,0.004224365004513568,-1.0451237893638245e-06,3.7052485656443104e-07,1.4705223760902442e-08
1668677091.0196743,2936,1668677091,19512783,,0.042752401519468686,-0.09925321886551634,0.0057300825422990816,-1.1153712525937632e-06,3.950439950730321e-07,1.4790604213610337e-08
1668677091.0275788,2937,1668677091,27352570,,0.04436599551718382,-0.10197204390140932,0.00732867932525115,-1.1938736856191047e-06,4.2242590128551555e-07,1.488518103220926e-08
1668677091.0352116,2938,1668677091,35119034,,0.04603108521712221,-0.10446081601807448,0.008905295725063019,-1.2731229083717257e-06,4.501403818523396e-07,1.498227333862623e-08
1668677091.043585,2939,1668677091,43417542,,0.047569845805570665,-0.1066569031548104,0.01034009793083137,-1.3445218754456556e-06,4.7528288304402727e-07,1.5073516518304686e-08
1668677091.0519736,2940,1668677091,51799783,,0.04930340289172802,-0.10848594014005807,0.01169950678619058,-1.4207381239085895e-06,5.02133374951589e-07,1.5171416040127284e-08
1668677091.0605357,2941,1668677091,60367281,,0.051123081054173555,-0.11001493594115803,0.012936276516509455,-1.497957325868578e-06,5.294091119591345e-07,1.5272458492310292e-08
1668677091.0676622,2942,1668677091,67430816,,0.05291361423567083,-0.11128961904926056,0.014054342306902272,-1.5714126142842271e-06,5.555018149929446e-07,1.5371791589613437e-08
1668677091.0752473,2943,1668677091,75049858,,0.054693806683966895,-0.1122926678190105,0.01504209975564875,-1.64148317748883e-06,5.805384198525644e-07,1.546969988219793e-08
1668677091.083998,2944,1668677091,83777492,,0.056323713615613356,-0.11310709146599612,0.01592231612038321,-1.7023188560647256e-06,6.025397152348982e-07,1.5559591476366208e-08
1668677091.0917501,2945,1668677091,91596456,,0.05788544005957098,-0.11371300407036464,0.016694433157762485,-1.7572491550478476e-06,6.226231969233553e-07,1.5644680884108197e-08
1668677091.0994725,2946,1668677091,99304560,,0.05941393955681035,-0.11414828614636875,0.017376006405693187,-1.8083314017345664e-06,6.41479356088253e-07,1.5727011359878418e-08
1668677091.107468,2947,1668677091,107331522,,0.061077684436540436,-0.11446173104473392,0.018008326170608647,-1.8646815502121761e-06,6.621867822726064e-07,1.5817146870045207e-08
1668677091.115356,2948,1668677091,115194324,,0.06273429222548058,-0.11465120426766572,0.018575829501572497,-1.9191224356023126e-06,6.8232725411628e-07,1.5906924638597886e-08
1668677091.1238472,2949,1668677091,123639055,,0.06423679085688495,-0.11471359328927005,0.019061934320441103,-1.9638678053609995e-06,6.992683677753235e-07,1.598670792968271e-08
1668677091.1316519,2950,1668677091,131488786,,0.06603436082077452,-0.11462984306579835,0.019562576711648603,-2.0221144592549693e-06,7.208395577857664e-07,1.608498345628817e-08
1668677091.1395957,2951,1668677091,139436978,,0.06811235764964059,-0.11443353767659559,0.020246999517628723,-2.094052063322414e-06,7.471231784910055e-07,1.6203151043114872e-08
1668677091.1479175,2952,1668677091,147721824,,0.07023235251371424,-0.11413802615249405,0.02097596144932605,-2.1673800465853155e-06,7.739817929064419e-07,1.63263141617076e-08
1668677091.1554036,2953,1668677091,155268569,,0.07260049747085966,-0.11370191238211842,0.022140130353045052,-2.252981883035061e-06,8.050970377211641e-07,1.6469270974761585e-08
1668677091.1636748,2954,1668677091,163443884,,0.07474094885842601,-0.11319186495507273,0.023168493911592293,-2.3254420329584836e-06,8.319006212891e-07,1.6598503960185695e-08
1668677091.1716547,2955,1668677091,171500364,,0.07690707222401647,-0.11258622057440819,0.024352530865971743,-2.3984459783382706e-06,8.590013618626352e-07,1.673210930919211e-08
1668677091.1797922,2956,1668677091,179657700,,0.07900876931351243,-0.1118012491492805,0.02582109542881969,-2.465431552876006e-06,8.841856877217502e-07,1.6860939061613678e-08
1668677091.1877286,2957,1668677091,187522595,,0.0807003272126894,-0.11108711674010542,0.027251042259631916,-2.5097511598655767e-06,9.01824275765465e-07,1.696044543697539e-08
1668677091.1952996,2958,1668677091,195182958,,0.08210152837348299,-0.1103874073116757,0.028581745127755215,-2.5370816971134226e-06,9.138041394030245e-07,1.703712690370729e-08
1668677091.2036314,2959,1668677091,203474558,,0.08333498893096013,-0.1096428223947512,0.029750693280721236,-2.5535750010662658e-06,9.221794542613355e-07,1.7098825300099207e-08
1668677091.2116458,2960,1668677091,211442697,,0.08439185360177437,-0.10889357161221262,0.030698755665867997,-2.5592516692404203e-06,9.269417736231141e-07,1.7144652753042777e-08
1668677091.2197104,2961,1668677091,219507763,,0.0854063491959232,-0.10808911331190735,0.03144239587811288,-2.561383679414728e-06,9.305314733788761e-07,1.718508665926599e-08
1668677091.2273705,2962,1668677091,227254222,,0.08633213292744786,-0.10724435647928689,0.03202842056098021,-2.5574068833612417e-06,9.320774040908787e-07,1.7215741165976794e-08
1668677091.2351274,2963,1668677091,234992435,,0.08732286641533554,-0.10621862693312155,0.032391477601845776,-2.554473121688409e-06,9.339860910935992e-07,1.7247746147974752e-08
1668677091.2434907,2964,1668677091,243386876,,0.08817021524351736,-0.1051834183057438,0.032661783978944266,-2.54262560631254e-06,9.328962710165346e-07,1.7264702362185247e-08
1668677091.2514994,2965,1668677091,251365653,,0.08899102937271448,-0.10406000827376831,0.03278581237744149,-2.5278067664865136e-06,9.308014767058642e-07,1.7275863573029682e-08
1668677091.2594132,2966,1668677091,259302963,,0.0898460478968883,-0.10290972560937683,0.0327957248539375,-2.5147392592580944e-06,9.292923637783598e-07,1.728910581366705e-08
1668677091.2676218,2967,1668677091,267473413,,0.09075355746271259,-0.10184189252385957,0.03260276248351677,-2.506250165874987e-06,9.293266612681213e-07,1.7309564143141998e-08
1668677091.2756338,2968,1668677091,275499381,,0.09161890760452668,-0.10081712253683627,0.032288299315175926,-2.495868671003546e-06,9.287258967527294e-07,1.7326159368336036e-08
1668677091.2834065,2969,1668677091,283264027,,0.09234436934864373,-0.09979474831083714,0.031934910395445604,-2.4769345941242672e-06,9.252375267770375e-07,1.732667331832971e-08
1668677091.2916946,2970,1668677091,291545545,,0.09323064428495216,-0.09853206852247696,0.031610793279557285,-2.4643250444353598e-06,9.238735034374466e-07,1.7337749902424093e-08
1668677091.299514,2971,1668677091,299368098,,0.0942311315828615,-0.09704499330202147,0.03135275388585504,-2.455469129632225e-06,9.237754178556892e-07,1.735518273537906e-08
1668677091.3076456,2972,1668677091,307469872,,0.09521379931013325,-0.09547244874408291,0.031107377570927425,-2.44437197088475e-06,9.229242475712607e-07,1.7367929899814172e-08
1668677091.315419,2973,1668677091,315242930,,0.09632542821410979,-0.09336659100977762,0.030916480927183215,-2.4334001431538903e-06,9.221159903939277e-07,1.7380386602150466e-08
1668677091.3234406,2974,1668677091,323297081,,0.09727062841399414,-0.09136434901820042,0.030679390710802296,-2.413981804287764e-06,9.184553566533513e-07,1.7375733241120628e-08
1668677091.3319645,2975,1668677091,331784636,,0.09821130384429144,-0.0891490274253252,0.030451329703540263,-2.3914545357849037e-06,9.137320047445351e-07,1.7363858823005174e-08
1668677091.3399224,2976,1668677091,339800542,,0.0998684820594762,-0.08588343654348761,0.030195075263887344,-2.3984355125442405e-06,9.189595267097492e-07,1.7410651559357504e-08
1668677091.3476896,2977,1668677091,347529820,,0.10189311732516813,-0.08221983292690307,0.029902419730397173,-2.4232505866723843e-06,9.302412385262318e-07,1.7494879739343716e-08
1668677091.355116,2978,1668677091,354986841,,0.10397797435183756,-0.07848414467518626,0.029575121536157753,-2.4516661796629684e-06,9.427977396068814e-07,1.7588520501155003e-08
1668677091.3636482,2979,1668677091,363477868,,0.10580661299951966,-0.07501104643378202,0.02921474745623563,-2.4685733366091363e-06,9.515319634172299e-07,1.7659901485611584e-08
1668677091.371493,2980,1668677091,371352963,,0.10756951755351646,-0.07173543779296418,0.02871067621963653,-2.4850259116562714e-06,9.601599774053914e-07,1.773178534558717e-08
1668677091.3793879,2981,1668677091,379208282,,0.10908046900754471,-0.06862085545722106,0.028110268263465455,-2.48836335700023e-06,9.644052268793953e-07,1.7776486255227653e-08
1668677091.3878179,2982,1668677091,387632720,,0.11036395570787041,-0.06569775866704501,0.027459568080259518,-2.4805029468155052e-06,9.64894304726193e-07,1.779701935822331e-08
1668677091.3953276,2983,1668677091,395107054,,0.11147428827939157,-0.06312036811497403,0.026744828709602885,-2.467189005677566e-06,9.635492146196217e-07,1.7805251273372846e-08
1668677091.403974,2984,1668677091,403768161,,0.11239243217413224,-0.060745451800386624,0.026033549061586368,-2.444927523506885e-06,9.591807679388414e-07,1.7792689654960725e-08
1668677091.4115343,2985,1668677091,411386065,,0.1131483656153539,-0.05862596021927332,0.025294846740577703,-2.41641094911294e-06,9.526834597469412e-07,1.7764710313894483e-08
1668677091.4195666,2986,1668677091,419407376,,0.11375348011815566,-0.056757365029810915,0.024533385969489466,-2.382254639196439e-06,9.442545745473249e-07,1.772215793560683e-08
1668677091.4274468,2987,1668677091,427276562,,0.1142427353268851,-0.055125288034247884,0.023518741793867443,-2.3444782287758512e-06,9.345667521579691e-07,1.766929894064795e-08
1668677091.435745,2988,1668677091,435606920,,0.11460584786740624,-0.05367808454361932,0.022397778974147606,-2.3016074605869494e-06,9.231157329114316e-07,1.7602229090973864e-08
1668677091.4439805,2989,1668677091,443755385,,0.11483127529234798,-0.05236353028951593,0.0213211418541462,-2.2521288564401713e-06,9.093814446296811e-07,1.7516754408086754e-08
1668677091.4516647,2990,1668677091,451456915,,0.11507893208972908,-0.05131517453459693,0.020177132037647146,-2.208375590579542e-06,8.975193353634794e-07,1.744280297977241e-08
