Time,header.seq,header.stamp.secs,header.stamp.nsecs,header.frame_id,pose.position.x,pose.position.y,pose.position.z,pose.orientation.x,pose.orientation.y,pose.orientation.z,pose.orientation.w
1668677088.8280349,2662,1668677088,827922073,,-0.09527882848404934,-0.6129483043652589,0.06366311187275991,0.9955576664043668,0.09355155146335162,-0.004345526442704064,0.009703426313792776
1668677088.835278,2663,1668677088,835079320,,-0.09527882848404931,-0.612948304365259,0.0636631118727598,0.9955576664233969,0.09355155129040812,-0.004345526282385802,0.009703426100487519
1668677088.843967,2664,1668677088,843816648,,-0.0952788284840493,-0.6129483043652589,0.0636631118727598,0.9955576664423745,0.09355155111794167,-0.004345526122509769,0.009703425887770671
1668677088.851623,2665,1668677088,851459980,,-0.0952788284840493,-0.6129483043652588,0.0636631118727598,0.9955576664612977,0.09355155094597035,-0.0043455259630927326,0.009703425675664653
1668677088.8596225,2666,1668677088,859518389,,-0.09527882848404932,-0.6129483043652589,0.06366311187275973,0.9955576664801644,0.09355155077451245,-0.004345525804151669,0.009703425464191893
1668677088.8675056,2667,1668677088,867398778,,-0.0952788284840493,-0.6129483043652589,0.06366311187275986,0.9955576664989726,0.09355155060358586,-0.004345525645703079,0.009703425253374502
1668677088.8755052,2668,1668677088,875265594,,-0.09527882848404932,-0.6129483043652589,0.06366311187275986,0.9955576665177204,0.09355155043320804,-0.004345525487763243,0.009703425043233876
1668677088.8834195,2669,1668677088,883311077,,-0.09527882848404927,-0.6129483043652587,0.06366311187275984,0.9955576665364059,0.09355155026339668,-0.004345525330348336,0.009703424833791703
1668677088.8914845,2670,1668677088,891365335,,-0.09527882848404927,-0.6129483043652588,0.06366311187275973,0.9955576665550271,0.09355155009416886,-0.004345525173474492,0.009703424625069327
1668677088.899599,2671,1668677088,899384633,,-0.0952788284840493,-0.612948304365259,0.06366311187275989,0.9955576665735822,0.0935515499255416,-0.004345525017157347,0.009703424417087806
1668677088.9077206,2672,1668677088,907598558,,-0.09527882848404942,-0.6129483043652587,0.06366311187275973,0.9955576665920696,0.09355154975753166,-0.0043455248614125835,0.009703424209867735
1668677088.915255,2673,1668677088,915131635,,-0.09527882848404945,-0.6129483043652589,0.06366311187275975,0.9955576666104871,0.09355154959015577,-0.004345524706255602,0.009703424003429691
1668677088.9236362,2674,1668677088,923456138,,-0.09527882848404928,-0.6129483043652588,0.06366311187275975,0.9955576666288329,0.09355154942343036,-0.004345524551701468,0.009703423797793716
1668677088.9315014,2675,1668677088,931374413,,-0.09527882848404934,-0.6129483043652589,0.06366311187275984,0.9955576666471054,0.09355154925737157,-0.004345524397765377,0.009703423592980178
1668677088.939699,2676,1668677088,939523012,,-0.09527882848404949,-0.6129483043652587,0.06366311187275979,0.9955576666653029,0.0935515490919952,-0.0043455242444619575,0.009703423389008436
1668677088.9477587,2677,1668677088,947661922,,-0.0952788284840494,-0.6129483043652589,0.06366311187275975,0.9955576666834235,0.0935515489273174,-0.0043455240918058,0.009703423185897828
1668677088.955263,2678,1668677088,955079229,,-0.09527882848404941,-0.612948304365259,0.06366311187275986,0.9955576667014656,0.09355154876335335,-0.004345523939811447,0.00970342298366783
1668677088.9640257,2679,1668677088,963896696,,-0.09527882848404932,-0.6129483043652589,0.06366311187275978,0.9955576667194275,0.09355154860011859,-0.004345523788493044,0.009703422782337004
1668677088.9715834,2680,1668677088,971426730,,-0.09527882848404938,-0.6129483043652587,0.06366311187275986,0.9955576667373074,0.09355154843762788,-0.004345523637864659,0.009703422581924298
1668677088.979464,2681,1668677088,979259896,,-0.09527882848404944,-0.6129483043652588,0.06366311187275984,0.9955576667551038,0.09355154827589633,-0.004345523487940007,0.009703422382447967
1668677088.987562,2682,1668677088,987435121,,-0.09527882848404948,-0.6129483043652589,0.0636631118727598,0.995557666772815,0.09355154811493874,-0.004345523338732625,0.009703422183926025
1668677088.9953,2683,1668677088,995148836,,-0.09527882848404942,-0.612948304365259,0.06366311187275973,0.9955576667904396,0.09355154795476953,-0.004345523190256066,0.009703421986376358
1668677089.0035965,2684,1668677089,3498058,,-0.0952788284840494,-0.6129483043652589,0.06366311187275975,0.9955576668079756,0.09355154779540274,-0.004345523042523435,0.009703421789816608
1668677089.011562,2685,1668677089,11471951,,-0.09527882848404946,-0.6129483043652592,0.06366311187275976,0.9955576668254219,0.09355154763685268,-0.00434552289554783,0.009703421594264126
1668677089.0194557,2686,1668677089,19307371,,-0.09527882848404944,-0.612948304365259,0.0636631118727597,0.9955576668427769,0.09355154747913305,-0.004345522749341941,0.0097034213997357
1668677089.027689,2687,1668677089,27508880,,-0.09527882848404937,-0.6129483043652592,0.06366311187275969,0.995557666860039,0.09355154732225728,-0.004345522603918503,0.009703421206248198
1668677089.0353594,2688,1668677089,35268739,,-0.09527882848404955,-0.6129483043652589,0.06366311187275972,0.9955576668772068,0.0935515471662387,-0.004345522459289857,0.00970342101381837
1668677089.043512,2689,1668677089,43333190,,-0.09527882848404946,-0.6129483043652593,0.06366311187275975,0.9955576668942787,0.09355154701109102,-0.004345522315468203,0.009703420822462202
1668677089.0515943,2690,1668677089,51437091,,-0.09527882848404937,-0.6129483043652589,0.06366311187275973,0.9955576669112535,0.09355154685682666,-0.004345522172465472,0.009703420632195574
1668677089.0596514,2691,1668677089,59464740,,-0.09527882848404935,-0.6129483043652593,0.06366311187275978,0.9955576669281295,0.09355154670345875,-0.004345522030293634,0.009703420443034514
1668677089.0678458,2692,1668677089,67691863,,-0.09527882848404946,-0.6129483043652594,0.06366311187275989,0.9955576669449058,0.09355154655099947,-0.004345521888964183,0.009703420254994172
1668677089.0752392,2693,1668677089,75108600,,-0.09527882848404937,-0.6129483043652592,0.06366311187275979,0.9955576669615804,0.09355154639946109,-0.004345521748488452,0.00970342006808972
1668677089.0836937,2694,1668677089,83526381,,-0.09527882848404914,-0.612948304365259,0.06366311187275976,0.9955576669781525,0.09355154624885607,-0.004345521608877754,0.009703419882336226
1668677089.0916393,2695,1668677089,91527483,,-0.0952788284840493,-0.612948304365259,0.06366311187275987,0.9955576669946207,0.09355154609919569,-0.004345521470143165,0.009703419697748277
1668677089.0996695,2696,1668677089,99530525,,-0.09527882848404923,-0.612948304365259,0.06366311187275975,0.9955576670109835,0.09355154595049232,-0.004345521332295371,0.009703419514340365
1668677089.1075497,2697,1668677089,107433058,,-0.09527882848404927,-0.6129483043652592,0.06366311187275993,0.9955576670272398,0.09355154580275699,-0.004345521195345109,0.009703419332126598
1668677089.1154327,2698,1668677089,115233312,,-0.09527882848404941,-0.6129483043652593,0.06366311187275982,0.9955576670433884,0.09355154565600096,-0.004345521059302713,0.009703419151120728
1668677089.1235316,2699,1668677089,123398687,,-0.09527882848404931,-0.6129483043652592,0.06366311187275978,0.9955576670594278,0.09355154551023548,-0.004345520924178207,0.009703418971336105
1668677089.1316366,2700,1668677089,131494894,,-0.09527882848404932,-0.6129483043652593,0.06366311187275976,0.9955576670753573,0.0935515453654709,-0.004345520789981873,0.009703418792786595
1668677089.1394954,2701,1668677089,139328734,,-0.09527882848404935,-0.6129483043652593,0.06366311187275968,0.9955576670911753,0.09355154522171814,-0.004345520656723406,0.00970341861548481
1668677089.1476204,2702,1668677089,147478934,,-0.09527882848404934,-0.612948304365259,0.06366311187275983,0.9955576671068809,0.09355154507898741,-0.004345520524412451,0.009703418439443617
1668677089.155347,2703,1668677089,155205715,,-0.09527882848404932,-0.6129483043652593,0.06366311187275983,0.995557667122473,0.09355154493728897,-0.004345520393058378,0.009703418264675622
1668677089.1636147,2704,1668677089,163503654,,-0.09527882848404942,-0.6129483043652593,0.0636631118727598,0.9955576671379504,0.09355154479663277,-0.004345520262670415,0.009703418091193024
1668677089.1716466,2705,1668677089,171532425,,-0.09527882848404931,-0.6129483043652592,0.06366311187275975,0.995557667153312,0.09355154465702854,-0.004345520133257612,0.00970341791900783
1668677089.1795828,2706,1668677089,179404344,,-0.09527882848404931,-0.6129483043652589,0.06366311187275969,0.9955576671685566,0.09355154451848578,-0.0043455200048286334,0.009703417748131715
1668677089.187829,2707,1668677089,187588975,,-0.0952788284840493,-0.6129483043652592,0.06366311187275984,0.9955576671836837,0.0935515443810139,-0.004345519877392503,0.009703417578576666
1668677089.1955242,2708,1668677089,195434727,,-0.09527882848404931,-0.612948304365259,0.06366311187275972,0.9955576671986918,0.09355154424462177,-0.004345519750957211,0.009703417410353177
1668677089.203725,2709,1668677089,203561575,,-0.09527882848404932,-0.6129483043652589,0.06366311187275964,0.9955576672135801,0.0935515441093186,-0.004345519625531327,0.009703417243472725
1668677089.211841,2710,1668677089,211645941,,-0.09527882848404931,-0.612948304365259,0.06366311187275976,0.9955576672283476,0.09355154397511262,-0.004345519501122665,0.009703417077945734
1668677089.2196555,2711,1668677089,219501591,,-0.09527882848404928,-0.6129483043652589,0.06366311187275954,0.9955576672429935,0.09355154384201267,-0.004345519377739202,0.009703416913782658
1668677089.227793,2712,1668677089,227621485,,-0.09527882848404948,-0.6129483043652589,0.06366311187275975,0.9955576672575169,0.09355154371002664,-0.004345519255388712,0.009703416750994051
1668677089.2355309,2713,1668677089,235356177,,-0.09527882848404944,-0.6129483043652589,0.06366311187275966,0.9955576672719166,0.09355154357916284,-0.004345519134078292,0.00970341658958927
1668677089.2434494,2714,1668677089,243321327,,-0.09527882848404932,-0.6129483043652589,0.06366311187275948,0.9955576672861921,0.09355154344942933,-0.004345519013815441,0.009703416429578265
1668677089.2515545,2715,1668677089,251416300,,-0.09527882848404932,-0.6129483043652589,0.06366311187275943,0.9955576673003423,0.09355154332083342,-0.0043455188946073765,0.009703416270970674
1668677089.2598228,2716,1668677089,259691406,,-0.09527882848404921,-0.6129483043652589,0.06366311187275943,0.9955576673143666,0.09355154319338291,-0.0043455187764609,0.009703416113775454
1668677089.2676299,2717,1668677089,267485646,,-0.09527882848404923,-0.612948304365259,0.06366311187275957,0.9955576673282639,0.09355154306708453,-0.004345518659382627,0.009703415958001718
1668677089.2753232,2718,1668677089,275153319,,-0.09527882848404925,-0.6129483043652589,0.06366311187275953,0.9955576673420339,0.09355154294194558,-0.004345518543378952,0.00970341580365755
1668677089.2835624,2719,1668677089,283379601,,-0.09527882848404928,-0.6129483043652588,0.06366311187275948,0.9955576673556754,0.09355154281797275,-0.004345518428456481,0.009703415650752013
1668677089.2916248,2720,1668677089,291501005,,-0.09527882848404916,-0.6129483043652589,0.06366311187275948,0.9955576673691879,0.09355154269517287,-0.004345518314621223,0.009703415499292928
1668677089.2995532,2721,1668677089,299410853,,-0.09527882848404925,-0.6129483043652587,0.06366311187275947,0.9955576673825706,0.09355154257355207,-0.004345518201879027,0.009703415349288242
1668677089.3075297,2722,1668677089,307395439,,-0.09527882848404919,-0.6129483043652588,0.0636631118727594,0.995557667395823,0.09355154245311674,-0.004345518090235733,0.009703415200745566
1668677089.3151565,2723,1668677089,315056260,,-0.09527882848404914,-0.6129483043652587,0.06366311187275937,0.9955576674089441,0.09355154233387297,-0.004345517979696966,0.009703415053672507
1668677089.3236222,2724,1668677089,323447932,,-0.09527882848404912,-0.6129483043652588,0.06366311187275936,0.9955576674219336,0.09355154221582634,-0.004345517870267929,0.00970341490807603
1668677089.3314316,2725,1668677089,331319320,,-0.09527882848404913,-0.6129483043652588,0.06366311187275926,0.9955576674347907,0.09355154209898259,-0.004345517761954006,0.009703414763963114
1668677089.3396626,2726,1668677089,339455293,,-0.09527882848404914,-0.6129483043652585,0.06366311187275935,0.9955576674475148,0.09355154198334704,-0.004345517654760108,0.009703414621340471
1668677089.347577,2727,1668677089,347412540,,-0.09527882848404923,-0.6129483043652588,0.06366311187275943,0.9955576674601054,0.09355154186892493,-0.004345517548691164,0.009703414480214681
1668677089.3554645,2728,1668677089,355349430,,-0.09527882848404919,-0.6129483043652586,0.06366311187275941,0.9955576674725619,0.09355154175572142,-0.004345517443751721,0.009703414340591517
1668677089.3634794,2729,1668677089,363304985,,-0.09527882848404916,-0.6129483043652583,0.0636631118727592,0.995557667484884,0.09355154164374119,-0.0043455173399462544,0.009703414202477105
1668677089.3715332,2730,1668677089,371355310,,-0.09527882848404927,-0.6129483043652586,0.06366311187275929,0.9955576674970708,0.09355154153298878,-0.004345517237279157,0.00970341406587755
1668677089.379727,2731,1668677089,379492538,,-0.09527882848404917,-0.6129483043652585,0.06366311187275946,0.995557667509122,0.0935515414234689,-0.004345517135754487,0.009703413930797974
1668677089.3877902,2732,1668677089,387673231,,-0.09527882848404912,-0.6129483043652586,0.0636631118727593,0.995557667521037,0.09355154131518569,-0.004345517035376002,0.009703413797243323
1668677089.3953288,2733,1668677089,395224577,,-0.09527882848404903,-0.6129483043652584,0.06366311187275919,0.9955576675328157,0.09355154120814309,-0.004345516936147703,0.009703413665218949
1668677089.4035184,2734,1668677089,403370945,,-0.09527882848404909,-0.6129483043652585,0.06366311187275928,0.9955576675444574,0.09355154110234487,-0.004345516838073074,0.009703413534729732
1668677089.4116123,2735,1668677089,411412571,,-0.09527882848404905,-0.6129483043652588,0.0636631118727594,0.9955576675559618,0.09355154099779511,-0.004345516741155544,0.009703413405779978
1668677089.4198008,2736,1668677089,419652069,,-0.09527882848404902,-0.6129483043652585,0.06366311187275932,0.9955576675673283,0.09355154089449695,-0.004345516645398233,0.00970341327837376
1668677089.4275274,2737,1668677089,427423091,,-0.09527882848404899,-0.6129483043652586,0.06366311187275944,0.9955576675785568,0.09355154079245356,-0.004345516550804314,0.009703413152515694
1668677089.4353006,2738,1668677089,435220213,,-0.09527882848404895,-0.6129483043652584,0.06366311187275932,0.9955576675896468,0.09355154069166823,-0.004345516457376454,0.009703413028208893
1668677089.4439409,2739,1668677089,443823719,,-0.09527882848404892,-0.6129483043652586,0.0636631118727592,0.9955576676005982,0.09355154059214385,-0.004345516365117595,0.009703412905457398
1668677089.4517713,2740,1668677089,451640688,,-0.09527882848404885,-0.6129483043652586,0.06366311187275918,0.9955576676114105,0.09355154049388321,-0.004345516274030156,0.009703412784264578
1668677089.4595897,2741,1668677089,459482676,,-0.09527882848404884,-0.6129483043652586,0.0636631118727593,0.9955576676220834,0.09355154039688886,-0.00434551618411661,0.009703412664633725
1668677089.4674952,2742,1668677089,467295546,,-0.09527882848404885,-0.6129483043652585,0.06366311187275928,0.9955576676326168,0.09355154030116308,-0.004345516095379004,0.009703412546567427
1668677089.4751024,2743,1668677089,475001476,,-0.09527882848404884,-0.6129483043652588,0.06366311187275939,0.9955576676430102,0.09355154020670801,-0.004345516007819541,0.009703412430068638
1668677089.4836447,2744,1668677089,483522672,,-0.09527882848404887,-0.6129483043652588,0.06366311187275943,0.9955576676532638,0.09355154011352589,-0.004345515921439903,0.009703412315139673
1668677089.4915245,2745,1668677089,491306837,,-0.09527882848404878,-0.6129483043652587,0.0636631118727595,0.9955576676633769,0.09355154002161835,-0.004345515836241835,0.009703412201782802
1668677089.4995062,2746,1668677089,499373167,,-0.09527882848404885,-0.6129483043652587,0.06366311187275937,0.9955576676733496,0.09355153993098703,-0.0043455157522268,0.009703412089999777
1668677089.5075748,2747,1668677089,507415312,,-0.09527882848404894,-0.6129483043652588,0.06366311187275947,0.9955576676831819,0.09355153984163354,-0.004345515669396333,0.00970341197979298
1668677089.5153952,2748,1668677089,515288804,,-0.09527882848404887,-0.6129483043652587,0.06366311187275935,0.9955576676928733,0.09355153975355902,-0.0043455155877514815,0.009703411871163565
1668677089.5236905,2749,1668677089,523595512,,-0.09527882848404882,-0.6129483043652586,0.06366311187275941,0.9955576677024238,0.09355153966676469,-0.0043455155072933144,0.009703411764113082
1668677089.5315359,2750,1668677089,531407590,,-0.09527882848404884,-0.6129483043652586,0.06366311187275918,0.9955576677118334,0.0935515395812515,-0.004345515428022709,0.00970341165864269
1668677089.5395846,2751,1668677089,539439988,,-0.09527882848404887,-0.6129483043652587,0.0636631118727596,0.9955576677211019,0.0935515394970203,-0.004345515349940525,0.009703411554753641
1668677089.5476096,2752,1668677089,547523026,,-0.09527882848404869,-0.6129483043652588,0.06366311187275943,0.9955576677302292,0.09355153941407175,-0.004345515273047214,0.009703411452446232
1668677089.555214,2753,1668677089,555036087,,-0.09527882848404878,-0.6129483043652589,0.06366311187275948,0.9955576677392155,0.09355153933240579,-0.004345515197343226,0.009703411351721343
1668677089.5637383,2754,1668677089,563570539,,-0.09527882848404867,-0.6129483043652587,0.06366311187275953,0.9955576677480606,0.09355153925202313,-0.004345515122828583,0.009703411252578821
1668677089.5714617,2755,1668677089,571328744,,-0.09527882848404869,-0.6129483043652588,0.06366311187275943,0.9955576677567645,0.09355153917292387,-0.004345515049503679,0.009703411155019236
1668677089.5797086,2756,1668677089,579592957,,-0.0952788284840489,-0.612948304365259,0.0636631118727596,0.9955576677653271,0.09355153909510783,-0.0043455149773684145,0.009703411059042596
1668677089.587823,2757,1668677089,587575830,,-0.09527882848404874,-0.612948304365259,0.06366311187275953,0.9955576677737484,0.09355153901857505,-0.004345514906422472,0.009703410964648308
1668677089.5953,2758,1668677089,595218503,,-0.09527882848404881,-0.6129483043652589,0.0636631118727594,0.9955576677820288,0.09355153894332442,-0.00434551483666553,0.009703410871835834
1668677089.60341,2759,1668677089,603211071,,-0.09527882848404892,-0.612948304365259,0.06366311187275948,0.995557667790168,0.0935515388693561,-0.004345514768097211,0.009703410780604963
1668677089.611564,2760,1668677089,611461669,,-0.09527882848404887,-0.6129483043652588,0.06366311187275953,0.9955576677981662,0.09355153879666937,-0.004345514700716668,0.009703410690954276
1668677089.61935,2761,1668677089,619222836,,-0.09527882848404887,-0.6129483043652588,0.0636631118727595,0.9955576678060235,0.093551538725263,-0.004345514634523157,0.009703410602883109
1668677089.627554,2762,1668677089,627465877,,-0.09527882848404898,-0.6129483043652588,0.06366311187275929,0.9955576678137401,0.09355153865513624,-0.004345514569515644,0.009703410516389862
1668677089.6351562,2763,1668677089,635053849,,-0.09527882848404894,-0.6129483043652586,0.06366311187275948,0.9955576678213158,0.09355153858628769,-0.004345514505693278,0.009703410431473559
1668677089.6435897,2764,1668677089,643439297,,-0.09527882848404882,-0.6129483043652587,0.06366311187275946,0.9955576678287511,0.09355153851871631,-0.004345514443054634,0.009703410348132113
1668677089.6515086,2765,1668677089,651381340,,-0.0952788284840488,-0.6129483043652585,0.0636631118727593,0.9955576678360462,0.09355153845242033,-0.004345514381598337,0.009703410266363911
1668677089.6595998,2766,1668677089,659445373,,-0.0952788284840488,-0.6129483043652589,0.06366311187275932,0.995557667843201,0.09355153838739823,-0.004345514321323021,0.009703410186166956
1668677089.6674664,2767,1668677089,667322214,,-0.09527882848404873,-0.6129483043652587,0.06366311187275943,0.9955576678502158,0.09355153832364829,-0.00434551426222694,0.009703410107539128
1668677089.6753776,2768,1668677089,675254732,,-0.09527882848404874,-0.6129483043652588,0.0636631118727595,0.9955576678570909,0.09355153826116844,-0.00434551420430825,0.009703410030477672
1668677089.683501,2769,1668677089,683388079,,-0.09527882848404871,-0.6129483043652587,0.06366311187275966,0.9955576678638265,0.09355153819995675,-0.0043455141475650634,0.009703409954980365
1668677089.6917028,2770,1668677089,691488397,,-0.09527882722246586,-0.6129483058515262,0.06366311187275951,0.9955576678704227,0.09355153814001085,-0.0043455140919953315,0.009703409881044194
1668677089.69947,2771,1668677089,699334480,,-0.09527881975516525,-0.6129483146487322,0.0636631118727595,0.9955576678768799,0.09355153808132839,-0.004345514037596902,0.009703409808666442
1668677089.7078855,2772,1668677089,707665949,,-0.0952787964947043,-0.6129483420518149,0.06366311187275901,0.9955576678831984,0.09355153802390695,-0.004345513984367359,0.009703409737843905
1668677089.7155414,2773,1668677089,715343837,,-0.09527874359633375,-0.6129484043712267,0.06366311187275614,0.9955576678893784,0.09355153796774388,-0.004345513932304261,0.009703409668573318
1668677089.7235603,2774,1668677089,723363501,,-0.09527864332199723,-0.6129485225040983,0.063663111872746,0.9955576678954202,0.09355153791283623,-0.004345513881405134,0.009703409600851476
1668677089.731664,2775,1668677089,731472963,,-0.095278474383349,-0.6129487215301153,0.06366311187271595,0.9955576679013242,0.09355153785918129,-0.004345513831667321,0.009703409534674948
1668677089.7398043,2776,1668677089,739675758,,-0.09527821226477096,-0.6129490303309484,0.06366311187264252,0.9955576679070908,0.0935515378067757,-0.0043455137830882605,0.009703409470040648
1668677089.7475522,2777,1668677089,747413282,,-0.09527782952733156,-0.6129494812321337,0.06366311187248484,0.99555766791272,0.09355153775561632,-0.004345513735665713,0.009703409406946025
1668677089.755367,2778,1668677089,755211696,,-0.0952772960945924,-0.6129501096663285,0.06366311187217667,0.9955576679182127,0.09355153770570003,-0.004345513689397252,0.009703409345388636
1668677089.763609,2779,1668677089,763478599,,-0.09527657952113505,-0.6129509538569206,0.06366311187161879,0.9955576679235687,0.09355153765702309,-0.004345513644280945,0.009703409285366888
1668677089.7717693,2780,1668677089,771659701,,-0.09527564524464056,-0.6129520545210083,0.06366311187067057,0.9955576679287886,0.09355153760958207,-0.004345513600315301,0.009703409226880523
1668677089.779636,2781,1668677089,779513147,,-0.09527445682232864,-0.6129534545908049,0.06366311186913927,0.9955576679338728,0.0935515375633732,-0.004345513557499442,0.009703409169930628
1668677089.7878277,2782,1668677089,787645725,,-0.0952729761525224,-0.6129551989525588,0.06366311186677087,0.9955576679388215,0.09355153751839256,-0.004345513515833279,0.009703409114520441
1668677089.7952983,2783,1668677089,795117425,,-0.0952711636820804,-0.612957334202126,0.06366311186323986,0.9955576679436352,0.09355153747463593,-0.004345513475317525,0.00970340906065473
1668677089.8041515,2784,1668677089,804041971,,-0.09526897860040129,-0.6129599084163562,0.06366311185813868,0.9955576679483139,0.0935515374320997,-0.00434551343595422,0.009703409008341407
1668677089.8115695,2785,1668677089,811416591,,-0.09526637902068288,-0.6129629709394949,0.06366311185096851,0.9955576679528582,0.09355153739077919,-0.004345513397746349,0.00970340895759097
1668677089.8195677,2786,1668677089,819479398,,-0.09526332214908295,-0.6129665721838398,0.06366311184113083,0.9955576679572683,0.09355153735067012,-0.0043455133606989296,0.009703408908417855
1668677089.8275762,2787,1668677089,827480859,,-0.09525976444240575,-0.6129707634439098,0.0636631118279175,0.9955576679615441,0.09355153731176807,-0.004345513324818174,0.00970340886083982
1668677089.8356051,2788,1668677089,835423431,,-0.09525566175491026,-0.6129755967234374,0.06366311181050376,0.9955576679656862,0.09355153727406831,-0.004345513290112367,0.009703408814879457
1668677089.8436055,2789,1668677089,843430331,,-0.09525096947481082,-0.6129811245744994,0.0636631117879423,0.9955576679696946,0.09355153723756614,-0.004345513256591873,0.009703408770563474
1668677089.8514597,2790,1668677089,851358996,,-0.0952456426510144,-0.6129873999481538,0.06366311175915604,0.9955576679735693,0.09355153720225662,-0.004345513224269225,0.009703408727924105
1668677089.8594618,2791,1668677089,859314945,,-0.09523963611061809,-0.6129944760559611,0.06366311172293448,0.9955576679773104,0.09355153716813472,-0.004345513193159396,0.009703408686998804
1668677089.867877,2792,1668677089,867728559,,-0.09523290456766402,-0.6130024062418097,0.0636631116779307,0.9955576679809177,0.09355153713519544,-0.00434551316328017,0.00970340864783147
1668677089.875306,2793,1668677089,875146499,,-0.09522540272362942,-0.6130112438634726,0.0636631116226579,0.9955576679843915,0.09355153710343353,-0.004345513134651601,0.00970340861047148
1668677089.8836462,2794,1668677089,883547831,,-0.09521708536010492,-0.6130210421833734,0.06366311155548886,0.9955576679877313,0.09355153707284362,-0.004345513107296944,0.009703408574975035
1668677089.8915362,2795,1668677089,891352037,,-0.09520790742409951,-0.6130318542680365,0.06366311147465731,0.9955576679909371,0.09355153704341997,-0.0043455130812424135,0.009703408541405379
1668677089.8997579,2796,1668677089,899611309,,-0.09519782410638111,-0.6130437328957428,0.06366311137825706,0.9955576679940086,0.0935515370151575,-0.00434551305651747,0.009703408509832418
1668677089.907475,2797,1668677089,907376908,,-0.09518679091325405,-0.6130567304719129,0.06366311126424684,0.9955576679969453,0.09355153698805004,-0.004345513033154586,0.009703408480333808
1668677089.9153183,2798,1668677089,915146063,,-0.09517476373214696,-0.6130708989517881,0.06366311113045216,0.9955576679997469,0.09355153696209234,-0.004345513011189943,0.009703408452994614
1668677089.9237158,2799,1668677089,923556735,,-0.09516169889137266,-0.6130862897699684,0.06366311097457103,0.9955576680024127,0.09355153693727807,-0.004345512990662819,0.009703408427907756
1668677089.9316406,2800,1668677089,931508395,,-0.09514755321440166,-0.6131029537764153,0.06366311079417887,0.9955576680049424,0.09355153691360113,-0.0043455129716160265,0.009703408405173733
1668677089.9395745,2801,1668677089,939480058,,-0.09513228406897575,-0.6131209411785316,0.06366311058673627,0.995557668007335,0.09355153689105539,-0.004345512954096286,0.009703408384901654
1668677089.947393,2802,1668677089,947293537,,-0.09511584941137322,-0.6131403014889448,0.06366311034959454,0.99555766800959,0.09355153686963477,-0.004345512938153411,0.009703408367208196
1668677089.9553227,2803,1668677089,955099813,,-0.09509820782612115,-0.6131610834786537,0.0636631100800057,0.9955576680117062,0.09355153684933304,-0.004345512923841334,0.009703408352218456
1668677089.9637277,2804,1668677089,963507237,,-0.09507931856143538,-0.6131833351352047,0.06366310977512957,0.9955576680136831,0.09355153683014336,-0.004345512911217166,0.009703408340065264
1668677089.9716368,2805,1668677089,971451415,,-0.09505914156065597,-0.6132071036255735,0.06366310943204492,0.9955576680155193,0.09355153681205947,-0.004345512900341983,0.009703408330890447
1668677089.9795918,2806,1668677089,979468329,,-0.09503763748993349,-0.6132324352634647,0.06366310904775743,0.9955576680172138,0.09355153679507477,-0.004345512891280211,0.009703408324842943
1668677089.9874902,2807,1668677089,987339603,,-0.09501476776240632,-0.6132593754807341,0.06366310861921165,0.9955576680187654,0.09355153677918229,-0.004345512884100166,0.009703408322080572
1668677089.9957714,2808,1668677089,995605987,,-0.09499049455909835,-0.6132879688026687,0.06366310814329983,0.9955576680201731,0.09355153676437511,-0.00434551287887333,0.009703408322768529
1668677090.0034513,2809,1668677090,3320779,,-0.09496478084675586,-0.6133182588268632,0.06366310761687463,0.9955576680214349,0.09355153675064676,-0.004345512875675008,0.00970340832708033
1668677090.0114362,2810,1668677090,11325828,,-0.09493759039282995,-0.6133502882054528,0.06366310703675804,0.99555766802255,0.09355153673798951,-0.004345512874583673,0.009703408335196645
1668677090.0195138,2811,1668677090,19353204,,-0.09490888777779767,-0.6133840986304673,0.06366310639975362,0.9955576680235166,0.09355153672639689,-0.004345512875681166,0.009703408347305844
1668677090.027447,2812,1668677090,27281660,,-0.09487863840501248,-0.6134197308220926,0.06366310570265743,0.995557668024333,0.09355153671586114,-0.004345512879052874,0.009703408363603842
1668677090.0352628,2813,1668677090,35124472,,-0.09484680850825515,-0.6134572245196255,0.06366310494226834,0.9955576680249977,0.09355153670637543,-0.004345512884787174,0.009703408384293614
1668677090.0438328,2814,1668677090,43700536,,-0.09481336515715343,-0.6134966184749284,0.06366310411539915,0.9955576680255088,0.09355153669793197,-0.004345512892975339,0.009703408409584405
1668677090.0516644,2815,1668677090,51396227,,-0.09477827626062871,-0.613537950448202,0.06366310321888684,0.9955576680258648,0.09355153669052343,-0.004345512903711661,0.009703408439692543
1668677090.059598,2816,1668677090,59416111,,-0.094741510568517,-0.6135812572058904,0.06366310224960359,0.9955576680260634,0.09355153668414241,-0.004345512917093475,0.009703408474840712
1668677090.0676603,2817,1668677090,67485304,,-0.09470303767150642,-0.6136265745205627,0.06366310120446579,0.9955576680261028,0.09355153667878109,-0.0043455129332206415,0.009703408515257523
1668677090.0753486,2818,1668677090,75254189,,-0.09466282799952305,-0.613673937172606,0.06366310008044462,0.9955576680259811,0.09355153667443192,-0.004345512952195634,0.009703408561176869
1668677090.0834615,2819,1668677090,83333949,,-0.09462085281869134,-0.6137233789535876,0.06366309887457458,0.9955576680256962,0.09355153667108679,-0.004345512974123444,0.009703408612839106
1668677090.095829,2820,1668677090,95499679,,-0.09457708422698699,-0.6137749326711418,0.06366309758396312,0.9955576680252459,0.09355153666873811,-0.004345512999111215,0.009703408670488646
1668677090.1016784,2821,1668677090,101292051,,-0.09453149514869438,-0.6138286301552545,0.06366309620579806,0.9955576680246282,0.09355153666737798,-0.004345513027268416,0.009703408734375148
1668677090.1081247,2822,1668677090,107912801,,-0.094484059327774,-0.6138845022658151,0.06366309473735596,0.9955576680238407,0.09355153666699842,-0.004345513058706313,0.009703408804752579
1668677090.115512,2823,1668677090,115308334,,-0.09443475132023783,-0.6139425789013254,0.06366309317601034,0.9955576680228811,0.09355153666759115,-0.004345513093538245,0.009703408881879066
1668677090.1235902,2824,1668677090,123427668,,-0.09438354648562602,-0.6140028890086522,0.06366309151923683,0.9955576680217474,0.09355153666914838,-0.004345513131879078,0.009703408966016335
1668677090.1315398,2825,1668677090,131367871,,-0.09433042097767454,-0.6140654605937172,0.06366308976462087,0.9955576680204371,0.0935515366716616,-0.004345513173845415,0.00970340905742951
1668677090.1396108,2826,1668677090,139477634,,-0.09427535173425206,-0.6141303207330371,0.0636630879098634,0.995557668018948,0.09355153667512257,-0.004345513219554981,0.009703409156386775
1668677090.1478093,2827,1668677090,147632363,,-0.09421831646664776,-0.6141974955860098,0.0636630859527855,0.9955576680172773,0.0935515366795232,-0.004345513269126878,0.009703409263158692
1668677090.1554837,2828,1668677090,155338098,,-0.09415929364827852,-0.6142670104078722,0.06366308389133386,0.995557668015423,0.09355153668485514,-0.00434551332268123,0.009703409378018347
1668677090.1634257,2829,1668677090,163282118,,-0.09409826250288612,-0.6143388895632452,0.0636630817235842,0.9955576680133826,0.09355153669110977,-0.004345513380339164,0.009703409501240722
1668677090.1714957,2830,1668677090,171337505,,-0.0940352029922862,-0.6144131565401874,0.06366307944774566,0.9955576680111535,0.09355153669827873,-0.00434551344222248,0.009703409633102065
1668677090.1794596,2831,1668677090,179287398,,-0.09397009580372881,-0.6144898339646975,0.06366307706216347,0.9955576680087336,0.09355153670635351,-0.004345513508453466,0.00970340977388008
1668677090.1879616,2832,1668677090,187860785,,-0.09390292233692663,-0.6145689436155894,0.06366307456532175,0.9955576680061202,0.09355153671532548,-0.004345513579155097,0.009703409923853323
1668677090.1951883,2833,1668677090,195099754,,-0.09383366469080143,-0.6146505064396866,0.06366307195584603,0.9955576680033108,0.09355153672518618,-0.004345513654450597,0.009703410083300697
1668677090.2036595,2834,1668677090,203468665,,-0.09376230564999787,-0.6147345425672741,0.06366306923250291,0.9955576680003032,0.09355153673592691,-0.0043455137344629155,0.009703410252500915
1668677090.2122827,2835,1668677090,212056692,,-0.09368882867120899,-0.6148210713277608,0.06366306639420442,0.9955576679970947,0.09355153674753898,-0.004345513819315556,0.009703410431733032
1668677090.220456,2836,1668677090,220256385,,-0.09361321786935511,-0.6149101112654969,0.06366306344000539,0.9955576679936831,0.0935515367600137,-0.004345513909131546,0.009703410621275235
1668677090.2275515,2837,1668677090,227403560,,-0.09353545800365433,-0.6150016801557056,0.06366306036910574,0.9955576679900656,0.09355153677334226,-0.004345514004033657,0.009703410821404551
1668677090.2351186,2838,1668677090,235019533,,-0.09345553446362158,-0.6150957950204851,0.06366305718084951,0.9955576679862403,0.09355153678751583,-0.0043455141041441395,0.009703411032397167
1668677090.2434344,2839,1668677090,243328887,,-0.09337343325502907,-0.6151924721448429,0.0636630538747246,0.9955576679822047,0.09355153680252543,-0.004345514209584689,0.0097034112545276
1668677090.2517433,2840,1668677090,251628848,,-0.09328914098585732,-0.6152917270927245,0.06366305045036112,0.9955576679779561,0.09355153681836254,-0.004345514320476405,0.009703411488068393
1668677090.2597969,2841,1668677090,259695415,,-0.09320264485226619,-0.6153935747230069,0.06366304690753039,0.9955576679734924,0.09355153683501831,-0.004345514436939237,0.00970341173328988
1668677090.2674682,2842,1668677090,267289337,,-0.09311393262461341,-0.6154980292054214,0.06366304324614337,0.9955576679688116,0.0935515368524832,-0.0043455145590924815,0.009703411990459964
1668677090.2751524,2843,1668677090,275069989,,-0.0930229926335393,-0.6156051040363855,0.0636630394662485,0.9955576679639111,0.09355153687074894,-0.004345514687054007,0.009703412259843858
1668677090.2838426,2844,1668677090,283682463,,-0.09292981375614666,-0.6157148120547076,0.06366303556802924,0.9955576679587888,0.09355153688980639,-0.00434551482094061,0.0097034125417036
1668677090.291522,2845,1668677090,291406352,,-0.0928343854022894,-0.6158271654571544,0.06366303155180157,0.9955576679534421,0.0935515369096464,-0.004345514960867655,0.00970341283629787
1668677090.2996583,2846,1668677090,299545758,,-0.09273669750099035,-0.6159421758138469,0.0636630274180108,0.9955576679478696,0.09355153693026019,-0.004345515106949011,0.009703413143881574
1668677090.307563,2847,1668677090,307385107,,-0.09263674048700679,-0.6160598540834764,0.06366302316722956,0.9955576679420687,0.09355153695163881,-0.004345515259297161,0.009703413464706243
1668677090.3156946,2848,1668677090,315525395,,-0.092534505287555,-0.6161802106283151,0.0636630188001532,0.9955576679360375,0.09355153697377287,-0.004345515418022681,0.009703413799019045
1668677090.3236787,2849,1668677090,323478703,,-0.0924299833092078,-0.6163032552290119,0.06366301431759686,0.9955576679297741,0.09355153699665385,-0.004345515583234438,0.009703414147062663
1668677090.3320994,2850,1668677090,331983234,,-0.09232316642498073,-0.6164289970991566,0.06366300972049183,0.9955576679232764,0.09355153702027215,-0.004345515755039279,0.00970341450907518
1668677090.3397973,2851,1668677090,339625533,,-0.09221404696161169,-0.6165574448996003,0.06366300500988205,0.9955576679165424,0.09355153704461912,-0.004345515933542075,0.009703414885290333
1668677090.3476384,2852,1668677090,347448470,,-0.09210261768704855,-0.6166886067525215,0.06366300018691938,0.9955576679095706,0.09355153706968558,-0.004345516118845696,0.00970341527593611
1668677090.3553164,2853,1668677090,355190511,,-0.09198887179814998,-0.6168224902552285,0.06366299525286057,0.9955576679023592,0.09355153709546228,-0.00434551631105101,0.009703415681235944
1668677090.3633916,2854,1668677090,363287743,,-0.0918728029086069,-0.6169591024936899,0.06366299020906256,0.9955576678949062,0.09355153712194025,-0.004345516510256158,0.009703416101407236
1668677090.3715265,2855,1668677090,371356043,,-0.091754405037093,-0.6170984500557861,0.06366298505697846,0.9955576678872102,0.09355153714911049,-0.0043455167165575214,0.00970341653666246
1668677090.3808398,2856,1668677090,380717023,,-0.09163367259564642,-0.617240539044276,0.06366297979815323,0.9955576678792697,0.09355153717696361,-0.00434551693004843,0.009703416987207966
1668677090.3884377,2857,1668677090,388296726,,-0.09151060037828948,-0.6173853750894728,0.0636629744342192,0.995557667871083,0.09355153720549089,-0.004345517150820267,0.009703417453243848
1668677090.3951206,2858,1668677090,395021804,,-0.09138518354988827,-0.6175329633616274,0.06366296896689279,0.9955576678626489,0.0935515372346831,-0.004345517378961488,0.009703417934964738
1668677090.4033573,2859,1668677090,403231179,,-0.09125741763525688,-0.6176833085830136,0.0636629633979688,0.9955576678539658,0.09355153726453107,-0.004345517614558341,0.009703418432558428
1668677090.4115264,2860,1668677090,411420197,,-0.09112729850850498,-0.6178364150397156,0.06366295772931718,0.9955576678450326,0.09355153729502601,-0.004345517857693848,0.009703418946206471
1668677090.4195566,2861,1668677090,419416537,,-0.09099482238263486,-0.6179922865931136,0.06366295196287833,0.9955576678358481,0.09355153732615831,-0.004345518108448717,0.009703419476084187
1668677090.4278028,2862,1668677090,427600202,,-0.09085998579938373,-0.6181509266910684,0.06366294610065926,0.995557667826411,0.09355153735791942,-0.004345518366900615,0.009703420022359906
1668677090.4352765,2863,1668677090,435182874,,-0.09072278561931682,-0.6183123383788062,0.0636629401447284,0.9955576678167203,0.09355153739030021,-0.0043455186331245385,0.00970342058519515
1668677090.4437308,2864,1668677090,443556014,,-0.09058321901216607,-0.618476524309499,0.06366293409721287,0.9955576678067752,0.09355153742329153,-0.004345518907192538,0.009703421164744645
1668677090.4519236,2865,1668677090,451799775,,-0.09044128344741574,-0.6186434867545492,0.06366292796029312,0.9955576677965746,0.09355153745688438,-0.004345519189173468,0.009703421761156109
1668677090.4596157,2866,1668677090,459497113,,-0.090296976685137,-0.6188132276135746,0.06366292173620029,0.9955576677861179,0.09355153749106974,-0.004345519479133542,0.009703422374570222
1668677090.4677746,2867,1668677090,467493955,,-0.0901502967670636,-0.6189857484240946,0.06366291542721043,0.995557667775404,0.0935515375258387,-0.004345519777135678,0.009703423005120162
1668677090.475318,2868,1668677090,475141564,,-0.09000124200791193,-0.619161050370928,0.06366290903564291,0.9955576677644328,0.093551537561182,-0.004345520083240087,0.009703423652932171
1668677090.483395,2869,1668677090,483227638,,-0.08984981098694056,-0.619339134295295,0.06366290256385458,0.9955576677532032,0.09355153759709109,-0.004345520397503545,0.009703424318125155
1668677090.4920638,2870,1668677090,491932987,,-0.08969600253974855,-0.6195200007036353,0.06366289601423741,0.9955576677417151,0.09355153763355671,-0.004345520719979785,0.009703425000810164
1668677090.4994862,2871,1668677090,499321212,,-0.08953981575030799,-0.6197036497761401,0.06366288938921487,0.9955576677299679,0.09355153767056981,-0.0043455210507192515,0.009703425701091192
1668677090.5078826,2872,1668677090,507777076,,-0.08938124994322826,-0.6198900813750047,0.06366288269123763,0.9955576677179613,0.09355153770812209,-0.0043455213897696295,0.00970342641906447
1668677090.5150607,2873,1668677090,514931632,,-0.08922030467625058,-0.6200792950524062,0.06366287592278166,0.9955576677056953,0.09355153774620395,-0.004345521737175097,0.009703427154818776
1668677090.5235965,2874,1668677090,523456803,,-0.08905697973296517,-0.6202712900582067,0.06366286908634324,0.9955576676931693,0.09355153778480702,-0.0043455220929763715,0.009703427908434904
1668677090.5315225,2875,1668677090,531349920,,-0.0888912751157533,-0.620466065347394,0.06366286218443767,0.9955576676803838,0.09355153782392225,-0.0043455224572114684,0.009703428679986458
1668677090.5398147,2876,1668677090,539624973,,-0.08872319103894383,-0.620663619587255,0.06366285521959514,0.9955576676673386,0.09355153786354084,-0.004345522829914759,0.00970342946953905
1668677090.5475025,2877,1668677090,547320769,,-0.0885527279221866,-0.6208639511642949,0.06366284819435793,0.9955576676540336,0.09355153790365398,-0.004345523211117365,0.009703430277150246
1668677090.5552022,2878,1668677090,555056351,,-0.08837988638403345,-0.621067058190903,0.06366284111127885,0.9955576676404695,0.09355153794425289,-0.004345523600847386,0.009703431102870605
1668677090.5634496,2879,1668677090,563317813,,-0.08820466723572662,-0.6212729385117705,0.06366283397291697,0.9955576676266461,0.09355153798532892,-0.004345523999129443,0.00970343194674215
1668677090.5717103,2880,1668677090,571550611,,-0.08802707147518755,-0.621481589710068,0.0636628267818366,0.995557667612564,0.09355153802687326,-0.004345524405984712,0.009703432808799494
1668677090.5797265,2881,1668677090,579530657,,-0.0878471002812041,-0.6216930091133852,0.06366281954060374,0.9955576675982238,0.09355153806887737,-0.004345524821431242,0.009703433689069297
1668677090.5875607,2882,1668677090,587375242,,-0.0876647550078092,-0.6219071937994382,0.06366281225178476,0.9955576675836261,0.09355153811133242,-0.00434552524548384,0.009703434587570345
1668677090.5951252,2883,1668677090,595019767,,-0.08748003717884953,-0.6221241406015535,0.06366280491794395,0.9955576675687711,0.09355153815423022,-0.004345525678153969,0.009703435504313915
1668677090.603433,2884,1668677090,603337460,,-0.08729294848273836,-0.6223438461139305,0.06366279754164146,0.99555766755366,0.09355153819756158,-0.004345526119449604,0.009703436439302987
1668677090.6116512,2885,1668677090,611436888,,-0.08710349076738588,-0.6225663066966854,0.06366279012543154,0.9955576675382936,0.09355153824131818,-0.004345526569375428,0.009703437392533014
1668677090.6196077,2886,1668677090,619476588,,-0.0869116660353084,-0.6227915184806945,0.06366278267186136,0.9955576675226724,0.09355153828549151,-0.004345527027933111,0.009703438363991838
1668677090.627429,2887,1668677090,627324066,,-0.08671747643890547,-0.6230194773722237,0.0636627751834675,0.9955576675067979,0.09355153833007339,-0.004345527495120802,0.00970343935365896
1668677090.6354027,2888,1668677090,635200359,,-0.0865209242759052,-0.6232501790573662,0.06366276766277729,0.9955576674906709,0.09355153837505507,-0.004345527970933301,0.009703440361506764
1668677090.6438975,2889,1668677090,643788960,,-0.086322011984971,-0.6234836190062855,0.06366276011230489,0.9955576674742926,0.09355153842042832,-0.0043455284553621945,0.009703441387499403
1668677090.6515183,2890,1668677090,651403490,,-0.08612074214146613,-0.6237197924772695,0.06366275253455132,0.9955576674576644,0.09355153846618465,-0.004345528948395823,0.009703442431593717
1668677090.6596663,2891,1668677090,659550529,,-0.08591711745337158,-0.6239586945206044,0.06366274493200262,0.9955576674407874,0.09355153851231575,-0.004345529450019156,0.009703443493738396
1668677090.6677318,2892,1668677090,667525121,,-0.08571114075735373,-0.6242003199822717,0.06366273730712951,0.9955576674236634,0.09355153855881314,-0.004345529960214131,0.00970344457387478
1668677090.6751204,2893,1668677090,675016499,,-0.08550281501497511,-0.6244446635074743,0.06366272966238577,0.9955576674062936,0.09355153860566887,-0.004345530478959095,0.00970344567193671
1668677090.6835306,2894,1668677090,683385379,,-0.08529214330904843,-0.6246917195439933,0.06366272200020717,0.9955576673886797,0.09355153865287451,-0.004345531006229439,0.009703446787850005
1668677090.691962,2895,1668677090,691810560,,-0.08507912884012436,-0.624941482345389,0.06366271432301195,0.9955576673708234,0.09355153870042202,-0.0043455315419974345,0.009703447921533595
1668677090.6997924,2896,1668677090,699574058,,-0.08486377492311317,-0.6251939459740431,0.06366270663319797,0.9955576673527264,0.0935515387483032,-0.004345532086231721,0.00970344907289819
1668677090.7084153,2897,1668677090,708210167,,-0.08464608498403531,-0.6254491043040502,0.0636626989331443,0.9955576673343908,0.09355153879650992,-0.00434553263889827,0.009703450241847723
1668677090.7156246,2898,1668677090,715508537,,-0.08442606255689386,-0.6257069510239648,0.06366269122520919,0.9955576673158181,0.09355153884503428,-0.004345533199959411,0.009703451428278352
1668677090.7240875,2899,1668677090,723962611,,-0.08420371128067049,-0.6259674796394081,0.06366268351172993,0.9955576672970107,0.09355153889386818,-0.004345533769374599,0.009703452632078724
1668677090.731806,2900,1668677090,731657985,,-0.08397903489643614,-0.626230683475538,0.06366267579502322,0.9955576672779703,0.09355153894300358,-0.004345534347100276,0.009703453853130768
1668677090.7395868,2901,1668677090,739490908,,-0.08375203724457428,-0.6264965556793871,0.06366266807738359,0.9955576672586997,0.09355153899243257,-0.004345534933089505,0.009703455091308951
1668677090.747572,2902,1668677090,747399804,,-0.08352272226211487,-0.6267650892220765,0.06366266036108462,0.9955576672392005,0.09355153904214748,-0.004345535527292476,0.009703456346480403
1668677090.7551877,2903,1668677090,755072547,,-0.08329109398017288,-0.6270362769009068,0.06366265264837677,0.9955576672194754,0.09355153909214035,-0.004345536129656375,0.009703457618505195
1668677090.7640743,2904,1668677090,763885726,,-0.08305715652148828,-0.6273101113413325,0.06366264494148942,0.9955576671995265,0.09355153914240312,-0.004345536740125014,0.009703458907236513
1668677090.7714956,2905,1668677090,771374346,,-0.082820914098066,-0.6275865849988215,0.06366263724262938,0.9955576671793567,0.09355153919292847,-0.004345537358639624,0.009703460212520441
1668677090.779532,2906,1668677090,779386031,,-0.08258237100890943,-0.6278656901606088,0.06366262955398104,0.9955576671589682,0.0935515392437086,-0.0043455379851382306,0.009703461534196187
1668677090.7877765,2907,1668677090,787578465,,-0.08234153163784666,-0.628147418947345,0.06366262187770719,0.9955576671383639,0.09355153929473584,-0.004345538619555762,0.009703462872095964
1668677090.7954733,2908,1668677090,795296570,,-0.0820984004514461,-0.6284317633146441,0.06366261421594846,0.9955576671175463,0.09355153934600231,-0.004345539261824748,0.009703464226045844
1668677090.8035142,2909,1668677090,803305382,,-0.08185298199701449,-0.6287187150545356,0.06366260657082327,0.9955576670965183,0.09355153939750081,-0.0043455399118743215,0.00970346559586444
1668677090.8115566,2910,1668677090,811423248,,-0.08160528090068135,-0.6290082657968241,0.06366259894442816,0.9955576670752828,0.09355153944922352,-0.004345540569630609,0.00970346698136418
1668677090.8196623,2911,1668677090,819517485,,-0.08135530186555974,-0.6293004070103628,0.06366259133883828,0.9955576670538426,0.09355153950116323,-0.004345541235017597,0.009703468382350608
1668677090.8273807,2912,1668677090,827273158,,-0.08110304966998425,-0.6295951300042405,0.06366258375610771,0.9955576670322008,0.0935515395533126,-0.004345541907955788,0.009703469798623203
1668677090.8351424,2913,1668677090,835010879,,-0.08084852916582358,-0.6298924259288875,0.06366257619826891,0.9955576670103604,0.09355153960566412,-0.004345542588363261,0.009703471229975228
1668677090.843489,2914,1668677090,843386873,,-0.08059174527686266,-0.6301922857771068,0.06366256866733419,0.9955576669883246,0.09355153965821035,-0.004345543276155415,0.00970347267619272
1668677090.85135,2915,1668677090,851242618,,-0.08033270299725301,-0.6304947003850296,0.0636625611652946,0.9955576669660966,0.09355153971094407,-0.004345543971244631,0.009703474137056621
1668677090.8596277,2916,1668677090,859454547,,-0.08007140739003016,-0.6307996604330016,0.0636625536941217,0.9955576669436795,0.09355153976385822,-0.004345544673540714,0.009703475612340898
1668677090.8675065,2917,1668677090,867374570,,-0.07980793441557292,-0.6311079130698514,0.06366261868351679,0.9955576669210614,0.09355153981694478,-0.004345545383545737,0.009703477103144153
1668677090.8752432,2918,1668677090,875140226,,-0.07954239138577703,-0.6314205442238982,0.06366286056264185,0.9955576668982075,0.09355153987019571,-0.004345546102621332,0.009703478612486128
1668677090.8835034,2919,1668677090,883392746,,-0.0792748067754739,-0.6317377929307441,0.0636633029351877,0.9955576668751094,0.09355153992360334,-0.004345546831132313,0.009703480141151839
1668677090.8916614,2920,1668677090,891558170,,-0.0790082455226871,-0.6320648244727041,0.06366544474260201,0.9955576668519178,0.0935515399771658,-0.004345547563327338,0.009703481676246071
1668677090.8995543,2921,1668677090,899352218,,-0.07874703138328784,-0.6324100352760468,0.0636720815854971,0.995557666828954,0.09355154003088617,-0.0043455482869443314,0.009703483190323759
1668677090.9079003,2922,1668677090,907797706,,-0.07849285540046903,-0.6327777091590399,0.06368501723047068,0.9955576668062907,0.09355154008475856,-0.004345548999195843,0.009703484677177956
1668677090.9152255,2923,1668677090,915075740,,-0.07824359712935376,-0.6331716799004589,0.06370338921230782,0.9955576667836207,0.09355154013876556,-0.004345549711878793,0.009703486163226088
1668677090.9237196,2924,1668677090,923556337,,-0.07799648944127756,-0.6335934954552309,0.06372563833709946,0.9955576667603013,0.09355154019288088,-0.004345550449646493,0.009703487703618197
1668677090.9314518,2925,1668677090,931306421,,-0.07774999318119863,-0.634042844857259,0.06375083590658613,0.995557666736202,0.0935515402470957,-0.004345551217554044,0.009703489309571076
1668677090.939646,2926,1668677090,939442233,,-0.07750163769477639,-0.6345214179664025,0.06377711043886597,0.9955576667108533,0.09355154030139248,-0.004345552033646483,0.009703491021345647
1668677090.947445,2927,1668677090,947287676,,-0.07724899617026233,-0.6350322260848626,0.06380033848152399,0.9955576666837388,0.0935515403557546,-0.004345552917780996,0.009703492883192125
1668677090.9554484,2928,1668677090,955312931,,-0.07699020014728787,-0.6355777564846042,0.06381616008123667,0.995557666654326,0.09355154041016714,-0.004345553890443109,0.009703494940700176
1668677090.9637294,2929,1668677090,963589335,,-0.07672482876379363,-0.6361568308483521,0.0638235523998926,0.9955576666224721,0.09355154046462709,-0.004345554957222283,0.009703497206050425
1668677090.9715095,2930,1668677090,971337232,,-0.07645123484590526,-0.6367689199782344,0.0638244652631995,0.995557666588004,0.09355154051913209,-0.004345556124872322,0.009703499693986333
1668677090.9794312,2931,1668677090,979307582,,-0.07616757968056424,-0.6374140629541224,0.06382367715883903,0.995557666550375,0.09355154057367276,-0.004345557414477227,0.009703502451293032
1668677090.9878511,2932,1668677090,987725221,,-0.07587396874886118,-0.6380901289978085,0.06382586909158071,0.9955576665096183,0.09355154062825442,-0.004345558824925014,0.009703505474974793
1668677090.99534,2933,1668677090,995243070,,-0.07556986361831124,-0.6387956028963113,0.06383510413613251,0.9955576664657021,0.0935515406828818,-0.004345560357610109,0.009703508767623248
1668677091.0035572,2934,1668677091,3382595,,-0.07525495836617906,-0.6395287211250527,0.06385353997632692,0.9955576664185053,0.09355154073755823,-0.004345562017355641,0.0097035123394833
1668677091.0115612,2935,1668677091,11376548,,-0.07492945465814133,-0.6402872955397182,0.06388185991543066,0.9955576663681844,0.0935515407922932,-0.004345563798370575,0.009703516176985885
1668677091.0196645,2936,1668677091,19512783,,-0.07459300679563183,-0.6410697732957088,0.06392168199321344,0.9955576663147047,0.09355154084709262,-0.004345565702187675,0.009703520282964657
1668677091.027559,2937,1668677091,27352570,,-0.07424454512306836,-0.6418746824101254,0.06397392072747297,0.9955576662579215,0.09355154090196294,-0.0043455677345368305,0.009703524669621374
1668677091.0352044,2938,1668677091,35119034,,-0.07388296846334541,-0.6427004219419167,0.0640388597835377,0.9955576661975738,0.0935515409569102,-0.004345569905610574,0.009703529359108662
1668677091.043573,2939,1668677091,43417542,,-0.07350857544340379,-0.6435449004676872,0.06411584407689114,0.9955576661337548,0.09355154101194565,-0.0043455722120996085,0.009703534343265539
1668677091.0519612,2940,1668677091,51799783,,-0.07312109263665326,-0.6444054792230574,0.06420400435423157,0.9955576660666261,0.09355154106708068,-0.004345574648069374,0.009703539608032177
1668677091.0605261,2941,1668677091,60367281,,-0.0727193962559011,-0.6452794897455505,0.06430254877241116,0.9955576659960259,0.09355154112232547,-0.0043455772199399115,0.009703545167040974
1668677091.0676553,2942,1668677091,67430816,,-0.07230325821678711,-0.6461647145373723,0.06441051210509628,0.9955576659219781,0.09355154117769217,-0.004345579927054663,0.009703551018012803
1668677091.0752256,2943,1668677091,75049858,,-0.07187283638864425,-0.6470590497262095,0.06452689827530284,0.9955576658446442,0.09355154123319309,-0.0043455827635126894,0.0097035571468972
1668677091.08399,2944,1668677091,83777492,,-0.0714287731853688,-0.6479606542652582,0.06465075610455595,0.9955576657642624,0.09355154128883983,-0.004345585720498148,0.009703563533126177
1668677091.091737,2945,1668677091,91596456,,-0.07097194256402596,-0.6488679396170307,0.06478122295728742,0.9955576656811964,0.09355154134464258,-0.004345588784377087,0.009703570145362633
1668677091.0994673,2946,1668677091,99304560,,-0.0705027503518359,-0.6497793893271478,0.06491750431935624,0.9955576655956795,0.09355154140061007,-0.004345591946482887,0.009703576963468276
1668677091.1074588,2947,1668677091,107331522,,-0.07002078906021938,-0.6506938338806133,0.06505904100365582,0.9955576655077464,0.09355154145675189,-0.004345595205706041,0.00970358398427775
1668677091.115351,2948,1668677091,115194324,,-0.06952554587897578,-0.6516102898284271,0.06520537679969995,0.9955576654172658,0.09355154151307876,-0.0043455985672793945,0.009703591218845257
1668677091.1238413,2949,1668677091,123639055,,-0.06901766540067743,-0.6525277527020686,0.06535592691582143,0.9955576653244382,0.09355154156959862,-0.004345602023775479,0.009703598649801823
1668677091.1316435,2950,1668677091,131488786,,-0.06849658483510121,-0.6534451303101696,0.0655104235433757,0.9955576652293511,0.09355154162632051,-0.004345605572105118,0.009703606269520531
1668677091.139586,2951,1668677091,139436978,,-0.06796000233712414,-0.6543613882349621,0.06566965971657435,0.9955576651313904,0.09355154168326527,-0.0043456092358551395,0.009703614130196282
1668677091.147904,2952,1668677091,147721824,,-0.06740662760002332,-0.6552756789237406,0.06583454910389169,0.9955576650301211,0.09355154174045484,-0.004345613031870672,0.009703622268745363
1668677091.1553965,2953,1668677091,155268569,,-0.0668353005397157,-0.6561870440321009,0.06600700976002948,0.9955576649253136,0.0935515417979112,-0.0043456169691831635,0.009703630704420096
1668677091.163666,2954,1668677091,163443884,,-0.06624593816428774,-0.6570946238987693,0.0661882407425544,0.9955576648167928,0.09355154185565728,-0.004345621054798085,0.009703639451870144
1668677091.171646,2955,1668677091,171500364,,-0.06563934921795672,-0.6579977412295409,0.06637832082982542,0.9955576647049424,0.09355154191370353,-0.004345625274458877,0.009703648477972542
1668677091.1797829,2956,1668677091,179657700,,-0.06501568823424253,-0.6588952962332061,0.0665790104038843,0.9955576645898334,0.09355154197206693,-0.004345629625798484,0.009703657776360605
1668677091.1877234,2957,1668677091,187522595,,-0.06437685349446275,-0.6597868543576291,0.06679129444809202,0.9955576644719848,0.09355154203074957,-0.004345634089409144,0.009703667302458805
1668677091.1952877,2958,1668677091,195182958,,-0.06372564703222283,-0.6606727565650302,0.06701462145383934,0.9955576643523323,0.09355154208973619,-0.004345638630012027,0.009703676976211646
1668677091.203624,2959,1668677091,203474558,,-0.06306390126432815,-0.6615528809651121,0.06724794737211985,0.9955576642315488,0.09355154214901265,-0.0043456432222405035,0.009703686740056956
1668677091.2116413,2960,1668677091,211442697,,-0.062392993649872525,-0.662427029322006,0.0674897418449358,0.9955576641101228,0.0935515422085664,-0.004345647847698481,0.009703696552265273
1668677091.2196927,2961,1668677091,219507763,,-0.06171380016517668,-0.6632949622698491,0.0677383034552972,0.9955576639884328,0.09355154226838538,-0.004345652492118968,0.009703706380506095
1668677091.2273607,2962,1668677091,227254222,,-0.061026845113597405,-0.6641562978095671,0.06799218400060453,0.9955576638666771,0.09355154232846201,-0.004345657148037474,0.009703716207827414
1668677091.2351182,2963,1668677091,234992435,,-0.06033222329542482,-0.6650101506658395,0.06824986092513242,0.9955576637450241,0.09355154238878859,-0.004345661809129054,0.009703726019884607
1668677091.2434826,2964,1668677091,243386876,,-0.05963024873880386,-0.6658557593020223,0.06851007152807138,0.9955576636235766,0.09355154244935912,-0.004345666471522697,0.009703735807901546
1668677091.2514904,2965,1668677091,251365653,,-0.05892160104562049,-0.6666927329172349,0.06877185959484985,0.9955576635026484,0.0935515425101557,-0.004345671123349963,0.009703745545183627
1668677091.2594051,2966,1668677091,259302963,,-0.05820624993102955,-0.6675206115436213,0.06903418360652759,0.995557663382303,0.09355154257117172,-0.004345675762204692,0.009703755226358158
1668677091.2676127,2967,1668677091,267473413,,-0.05748384903705541,-0.6683396176108682,0.06929577597912417,0.9955576632624189,0.09355154263241028,-0.0043456803926947675,0.009703764861803061
1668677091.2756133,2968,1668677091,275499381,,-0.056754356721917094,-0.6691502530585871,0.06955533898052552,0.9955576631428865,0.09355154269387515,-0.004345685018970329,0.009703774460838213
1668677091.2833962,2969,1668677091,283264027,,-0.05601850085890111,-0.6699526995945162,0.0698122306807271,0.9955576630238927,0.09355154275555255,-0.004345689633977601,0.0097037840076197
1668677091.2916858,2970,1668677091,291545545,,-0.055276197458533995,-0.6707460057516662,0.07006641179692306,0.9955576629056001,0.09355154281742908,-0.004345694231546722,0.009703793488327958
1668677091.2995074,2971,1668677091,299368098,,-0.05452634639795587,-0.6715283127578111,0.07031826372701609,0.9955576627877616,0.09355154287951732,-0.004345698821028984,0.009703802924018403
1668677091.3076222,2972,1668677091,307469872,,-0.053768562354955814,-0.6722983811131542,0.07056810184611235,0.995557662670298,0.09355154294182043,-0.004345703405434011,0.009703812321445791
1668677091.31541,2973,1668677091,315242930,,-0.0530023993370737,-0.6730537350702154,0.07081619378355469,0.995557662553275,0.09355154300433219,-0.004345707982281268,0.009703821675019177
1668677091.3234236,2974,1668677091,323297081,,-0.05222800907383045,-0.6737926564927801,0.07106257415984735,0.9955576624368172,0.09355154306704047,-0.004345712546875591,0.009703830974210601
1668677091.3319595,2975,1668677091,331784636,,-0.05144607450616835,-0.6745147072676616,0.07130709361009462,0.9955576623212268,0.09355154312991895,-0.004345717087759194,0.009703840193353278
1668677091.3399167,2976,1668677091,339800542,,-0.05065374582214334,-0.6752148337619411,0.07154967401565976,0.995557662206152,0.09355154319299226,-0.004345721618231285,0.009703849362377419
1668677091.347683,2977,1668677091,347529820,,-0.04984668897837327,-0.6758872436775475,0.07179005839149322,0.9955576620904306,0.09355154325635613,-0.004345726182257607,0.009703858579905756
