Time,header.seq,header.stamp.secs,header.stamp.nsecs,header.frame_id,wrench.force.x,wrench.force.y,wrench.force.z,wrench.torque.x,wrench.torque.y,wrench.torque.z
1668677088.8309596,2662,1668677088,827922073,,0.0,0.0,0.0,0.0,0.0,0.0
1668677088.8353722,2663,1668677088,835079320,,0.0,0.0,0.0,0.0,0.0,0.0
1668677088.844086,2664,1668677088,843816648,,0.0,0.0,0.0,0.0,0.0,0.0
1668677088.8516676,2665,1668677088,851459980,,0.0,0.0,0.0,0.0,0.0,0.0
1668677088.8597155,2666,1668677088,859518389,,0.0,0.0,0.0,0.0,0.0,0.0
1668677088.8676074,2667,1668677088,867398778,,0.0,0.0,0.0,0.0,0.0,0.0
1668677088.8755443,2668,1668677088,875265594,,0.0,0.0,0.0,0.0,0.0,0.0
1668677088.8835232,2669,1668677088,883311077,,0.0,0.0,0.0,0.0,0.0,0.0
1668677088.891617,2670,1668677088,891365335,,0.0,0.0,0.0,0.0,0.0,0.0
1668677088.8996398,2671,1668677088,899384633,,0.0,0.0,0.0,0.0,0.0,0.0
1668677088.907827,2672,1668677088,907598558,,0.0,0.0,0.0,0.0,0.0,0.0
1668677088.9153368,2673,1668677088,915131635,,0.0,0.0,0.0,0.0,0.0,0.0
1668677088.9236815,2674,1668677088,923456138,,0.0,0.0,0.0,0.0,0.0,0.0
1668677088.9316063,2675,1668677088,931374413,,0.0,0.0,0.0,0.0,0.0,0.0
1668677088.9397323,2676,1668677088,939523012,,0.0,0.0,0.0,0.0,0.0,0.0
1668677088.9478557,2677,1668677088,947661922,,0.0,0.0,0.0,0.0,0.0,0.0
1668677088.9553425,2678,1668677088,955079229,,0.0,0.0,0.0,0.0,0.0,0.0
1668677088.9641316,2679,1668677088,963896696,,0.0,0.0,0.0,0.0,0.0,0.0
1668677088.971812,2680,1668677088,971426730,,0.0,0.0,0.0,0.0,0.0,0.0
1668677088.9795294,2681,1668677088,979259896,,0.0,0.0,0.0,0.0,0.0,0.0
1668677088.9876242,2682,1668677088,987435121,,0.0,0.0,0.0,0.0,0.0,0.0
1668677088.9953463,2683,1668677088,995148836,,0.0,0.0,0.0,0.0,0.0,0.0
1668677089.003704,2684,1668677089,3498058,,0.0,0.0,0.0,0.0,0.0,0.0
1668677089.011697,2685,1668677089,11471951,,0.0,0.0,0.0,0.0,0.0,0.0
1668677089.0195093,2686,1668677089,19307371,,0.0,0.0,0.0,0.0,0.0,0.0
1668677089.0277576,2687,1668677089,27508880,,0.0,0.0,0.0,0.0,0.0,0.0
1668677089.0355399,2688,1668677089,35268739,,0.0,0.0,0.0,0.0,0.0,0.0
1668677089.043591,2689,1668677089,43333190,,0.0,0.0,0.0,0.0,0.0,0.0
1668677089.0516562,2690,1668677089,51437091,,0.0,0.0,0.0,0.0,0.0,0.0
1668677089.059713,2691,1668677089,59464740,,0.0,0.0,0.0,0.0,0.0,0.0
1668677089.067909,2692,1668677089,67691863,,0.0,0.0,0.0,0.0,0.0,0.0
1668677089.0753524,2693,1668677089,75108600,,0.0,0.0,0.0,0.0,0.0,0.0
1668677089.0837471,2694,1668677089,83526381,,0.0,0.0,0.0,0.0,0.0,0.0
1668677089.0917346,2695,1668677089,91527483,,0.0,0.0,0.0,0.0,0.0,0.0
1668677089.0997305,2696,1668677089,99530525,,0.0,0.0,0.0,0.0,0.0,0.0
1668677089.107659,2697,1668677089,107433058,,0.0,0.0,0.0,0.0,0.0,0.0
1668677089.1154919,2698,1668677089,115233312,,0.0,0.0,0.0,0.0,0.0,0.0
1668677089.1235952,2699,1668677089,123398687,,0.0,0.0,0.0,0.0,0.0,0.0
1668677089.131773,2700,1668677089,131494894,,0.0,0.0,0.0,0.0,0.0,0.0
1668677089.139608,2701,1668677089,139328734,,0.0,0.0,0.0,0.0,0.0,0.0
1668677089.1477425,2702,1668677089,147478934,,0.0,0.0,0.0,0.0,0.0,0.0
1668677089.155433,2703,1668677089,155205715,,0.0,0.0,0.0,0.0,0.0,0.0
1668677089.1637266,2704,1668677089,163503654,,0.0,0.0,0.0,0.0,0.0,0.0
1668677089.1717358,2705,1668677089,171532425,,0.0,0.0,0.0,0.0,0.0,0.0
1668677089.1796398,2706,1668677089,179404344,,0.0,0.0,0.0,0.0,0.0,0.0
1668677089.187907,2707,1668677089,187588975,,0.0,0.0,0.0,0.0,0.0,0.0
1668677089.1956403,2708,1668677089,195434727,,0.0,0.0,0.0,0.0,0.0,0.0
1668677089.20382,2709,1668677089,203561575,,0.0,0.0,0.0,0.0,0.0,0.0
1668677089.2119446,2710,1668677089,211645941,,0.0,0.0,0.0,0.0,0.0,0.0
1668677089.2197065,2711,1668677089,219501591,,0.0,0.0,0.0,0.0,0.0,0.0
1668677089.2278712,2712,1668677089,227621485,,0.0,0.0,0.0,0.0,0.0,0.0
1668677089.235631,2713,1668677089,235356177,,0.0,0.0,0.0,0.0,0.0,0.0
1668677089.2435515,2714,1668677089,243321327,,0.0,0.0,0.0,0.0,0.0,0.0
1668677089.2516615,2715,1668677089,251416300,,0.0,0.0,0.0,0.0,0.0,0.0
1668677089.259911,2716,1668677089,259691406,,0.0,0.0,0.0,0.0,0.0,0.0
1668677089.2677197,2717,1668677089,267485646,,0.0,0.0,0.0,0.0,0.0,0.0
1668677089.27542,2718,1668677089,275153319,,0.0,0.0,0.0,0.0,0.0,0.0
1668677089.2836847,2719,1668677089,283379601,,0.0,0.0,0.0,0.0,0.0,0.0
1668677089.2917194,2720,1668677089,291501005,,0.0,0.0,0.0,0.0,0.0,0.0
1668677089.2996724,2721,1668677089,299410853,,0.0,0.0,0.0,0.0,0.0,0.0
1668677089.3076265,2722,1668677089,307395439,,0.0,0.0,0.0,0.0,0.0,0.0
1668677089.3152845,2723,1668677089,315056260,,0.0,0.0,0.0,0.0,0.0,0.0
1668677089.323675,2724,1668677089,323447932,,0.0,0.0,0.0,0.0,0.0,0.0
1668677089.3315334,2725,1668677089,331319320,,0.0,0.0,0.0,0.0,0.0,0.0
1668677089.339718,2726,1668677089,339455293,,0.0,0.0,0.0,0.0,0.0,0.0
1668677089.3476357,2727,1668677089,347412540,,0.0,0.0,0.0,0.0,0.0,0.0
1668677089.3555706,2728,1668677089,355349430,,0.0,0.0,0.0,0.0,0.0,0.0
1668677089.363546,2729,1668677089,363304985,,0.0,0.0,0.0,0.0,0.0,0.0
1668677089.3716052,2730,1668677089,371355310,,0.0,0.0,0.0,0.0,0.0,0.0
1668677089.3797865,2731,1668677089,379492538,,0.0,0.0,0.0,0.0,0.0,0.0
1668677089.3879461,2732,1668677089,387673231,,0.0,0.0,0.0,0.0,0.0,0.0
1668677089.3954122,2733,1668677089,395224577,,0.0,0.0,0.0,0.0,0.0,0.0
1668677089.403575,2734,1668677089,403370945,,0.0,0.0,0.0,0.0,0.0,0.0
1668677089.4117057,2735,1668677089,411412571,,0.0,0.0,0.0,0.0,0.0,0.0
1668677089.4199173,2736,1668677089,419652069,,0.0,0.0,0.0,0.0,0.0,0.0
1668677089.427631,2737,1668677089,427423091,,0.0,0.0,0.0,0.0,0.0,0.0
1668677089.4354262,2738,1668677089,435220213,,0.0,0.0,0.0,0.0,0.0,0.0
1668677089.4440517,2739,1668677089,443823719,,0.0,0.0,0.0,0.0,0.0,0.0
1668677089.451877,2740,1668677089,451640688,,0.0,0.0,0.0,0.0,0.0,0.0
1668677089.4597611,2741,1668677089,459482676,,0.0,0.0,0.0,0.0,0.0,0.0
1668677089.467547,2742,1668677089,467295546,,0.0,0.0,0.0,0.0,0.0,0.0
1668677089.47518,2743,1668677089,475001476,,0.0,0.0,0.0,0.0,0.0,0.0
1668677089.4837847,2744,1668677089,483522672,,0.0,0.0,0.0,0.0,0.0,0.0
1668677089.491578,2745,1668677089,491306837,,0.0,0.0,0.0,0.0,0.0,0.0
1668677089.4996111,2746,1668677089,499373167,,0.0,0.0,0.0,0.0,0.0,0.0
1668677089.5076468,2747,1668677089,507415312,,0.0,0.0,0.0,0.0,0.0,0.0
1668677089.5154734,2748,1668677089,515288804,,0.0,0.0,0.0,0.0,0.0,0.0
1668677089.523791,2749,1668677089,523595512,,0.0,0.0,0.0,0.0,0.0,0.0
1668677089.531585,2750,1668677089,531407590,,0.0,0.0,0.0,0.0,0.0,0.0
1668677089.5396745,2751,1668677089,539439988,,0.0,0.0,0.0,0.0,0.0,0.0
1668677089.5477068,2752,1668677089,547523026,,0.0,0.0,0.0,0.0,0.0,0.0
1668677089.5552673,2753,1668677089,555036087,,0.0,0.0,0.0,0.0,0.0,0.0
1668677089.563801,2754,1668677089,563570539,,0.0,0.0,0.0,0.0,0.0,0.0
1668677089.5715678,2755,1668677089,571328744,,0.0,0.0,0.0,0.0,0.0,0.0
1668677089.5798059,2756,1668677089,579592957,,0.0,0.0,0.0,0.0,0.0,0.0
1668677089.5879014,2757,1668677089,587575830,,0.0,0.0,0.0,0.0,0.0,0.0
1668677089.595403,2758,1668677089,595218503,,0.0,0.0,0.0,0.0,0.0,0.0
1668677089.6034856,2759,1668677089,603211071,,0.0,0.0,0.0,0.0,0.0,0.0
1668677089.6116576,2760,1668677089,611461669,,0.0,0.0,0.0,0.0,0.0,0.0
1668677089.6194713,2761,1668677089,619222836,,0.0,0.0,0.0,0.0,0.0,0.0
1668677089.62773,2762,1668677089,627465877,,0.0,0.0,0.0,0.0,0.0,0.0
1668677089.6352608,2763,1668677089,635053849,,0.0,0.0,0.0,0.0,0.0,0.0
1668677089.643634,2764,1668677089,643439297,,0.0,0.0,0.0,0.0,0.0,0.0
1668677089.6516209,2765,1668677089,651381340,,0.0,0.0,0.0,0.0,0.0,0.0
1668677089.65965,2766,1668677089,659445373,,0.0,0.0,0.0,0.0,0.0,0.0
1668677089.6675289,2767,1668677089,667322214,,0.0,0.0,0.0,0.0,0.0,0.0
1668677089.6754768,2768,1668677089,675254732,,0.0,0.0,0.0,0.0,0.0,0.0
1668677089.6835847,2769,1668677089,683388079,,0.0,0.0,0.0,0.0,0.0,0.0
1668677089.69181,2770,1668677089,691488397,,0.0,0.0,0.0,0.0,0.0,0.0
1668677089.6995816,2771,1668677089,699334480,,0.0,0.0,0.0,0.0,0.0,0.0
1668677089.7080014,2772,1668677089,707665949,,0.0,0.0,0.0,0.0,0.0,0.0
1668677089.7156227,2773,1668677089,715343837,,0.0,0.0,0.0,0.0,0.0,0.0
1668677089.7236211,2774,1668677089,723363501,,0.0,0.0,0.0,0.0,0.0,0.0
1668677089.7317457,2775,1668677089,731472963,,0.0,0.0,0.0,0.0,0.0,0.0
1668677089.7398634,2776,1668677089,739675758,,0.0,0.0,0.0,0.0,0.0,0.0
1668677089.747641,2777,1668677089,747413282,,0.0,0.0,0.0,0.0,0.0,0.0
1668677089.7554429,2778,1668677089,755211696,,0.0,0.0,0.0,0.0,0.0,0.0
1668677089.7636602,2779,1668677089,763478599,,0.0,0.0,0.0,0.0,0.0,0.0
1668677089.7718692,2780,1668677089,771659701,,0.0,0.0,0.0,0.0,0.0,0.0
1668677089.7797244,2781,1668677089,779513147,,0.0,0.0,0.0,0.0,0.0,0.0
1668677089.787884,2782,1668677089,787645725,,0.0,0.0,0.0,0.0,0.0,0.0
1668677089.7953975,2783,1668677089,795117425,,0.0,0.0,0.0,0.0,0.0,0.0
1668677089.8042872,2784,1668677089,804041971,,0.0,0.0,0.0,0.0,0.0,0.0
1668677089.81164,2785,1668677089,811416591,,0.0,0.0,0.0,0.0,0.0,0.0
1668677089.8196588,2786,1668677089,819479398,,0.0,0.0,0.0,0.0,0.0,0.0
1668677089.8276546,2787,1668677089,827480859,,0.0,0.0,0.0,0.0,0.0,0.0
1668677089.8356938,2788,1668677089,835423431,,0.0,0.0,0.0,0.0,0.0,0.0
1668677089.843669,2789,1668677089,843430331,,0.0,0.0,0.0,0.0,0.0,0.0
1668677089.8515575,2790,1668677089,851358996,,0.0,0.0,0.0,0.0,0.0,0.0
1668677089.8595245,2791,1668677089,859314945,,0.0,0.0,0.0,0.0,0.0,0.0
1668677089.867926,2792,1668677089,867728559,,0.0,0.0,0.0,0.0,0.0,0.0
1668677089.8753657,2793,1668677089,875146499,,0.0,0.0,0.0,0.0,0.0,0.0
1668677089.883766,2794,1668677089,883547831,,0.0,0.0,0.0,0.0,0.0,0.0
1668677089.8916013,2795,1668677089,891352037,,0.0,0.0,0.0,0.0,0.0,0.0
1668677089.899829,2796,1668677089,899611309,,0.0,0.0,0.0,0.0,0.0,0.0
1668677089.9075816,2797,1668677089,907376908,,0.0,0.0,0.0,0.0,0.0,0.0
1668677089.9153838,2798,1668677089,915146063,,0.0,0.0,0.0,0.0,0.0,0.0
1668677089.9237926,2799,1668677089,923556735,,0.0,0.0,0.0,0.0,0.0,0.0
1668677089.9317138,2800,1668677089,931508395,,0.0,0.0,0.0,0.0,0.0,0.0
1668677089.9396572,2801,1668677089,939480058,,0.0,0.0,0.0,0.0,0.0,0.0
1668677089.9475086,2802,1668677089,947293537,,0.0,0.0,0.0,0.0,0.0,0.0
1668677089.955374,2803,1668677089,955099813,,0.0,0.0,0.0,0.0,0.0,0.0
1668677089.963804,2804,1668677089,963507237,,0.0,0.0,0.0,0.0,0.0,0.0
1668677089.971693,2805,1668677089,971451415,,0.0,0.0,0.0,0.0,0.0,0.0
1668677089.9797006,2806,1668677089,979468329,,0.0,0.0,0.0,0.0,0.0,0.0
1668677089.98759,2807,1668677089,987339603,,0.0,0.0,0.0,0.0,0.0,0.0
1668677089.996301,2808,1668677089,995605987,,0.0,0.0,0.0,0.0,0.0,0.0
1668677090.0034955,2809,1668677090,3320779,,0.0,0.0,0.0,0.0,0.0,0.0
1668677090.0114977,2810,1668677090,11325828,,0.0,0.0,0.0,0.0,0.0,0.0
1668677090.019564,2811,1668677090,19353204,,0.0,0.0,0.0,0.0,0.0,0.0
1668677090.0275135,2812,1668677090,27281660,,0.0,0.0,0.0,0.0,0.0,0.0
1668677090.0353072,2813,1668677090,35124472,,0.0,0.0,0.0,0.0,0.0,0.0
1668677090.0439417,2814,1668677090,43700536,,0.0,0.0,0.0,0.0,0.0,0.0
1668677090.0517085,2815,1668677090,51396227,,0.0,0.0,0.0,0.0,0.0,0.0
1668677090.0597036,2816,1668677090,59416111,,0.0,0.0,0.0,0.0,0.0,0.0
1668677090.0677264,2817,1668677090,67485304,,0.0,0.0,0.0,0.0,0.0,0.0
1668677090.075481,2818,1668677090,75254189,,0.0,0.0,0.0,0.0,0.0,0.0
1668677090.0835693,2819,1668677090,83333949,,0.0,0.0,0.0,0.0,0.0,0.0
1668677090.096012,2820,1668677090,95499679,,0.0,0.0,0.0,0.0,0.0,0.0
1668677090.1017964,2821,1668677090,101292051,,0.0,0.0,0.0,0.0,0.0,0.0
1668677090.1082315,2822,1668677090,107912801,,0.0,0.0,0.0,0.0,0.0,0.0
1668677090.115577,2823,1668677090,115308334,,0.0,0.0,0.0,0.0,0.0,0.0
1668677090.1236544,2824,1668677090,123427668,,0.0,0.0,0.0,0.0,0.0,0.0
1668677090.1316104,2825,1668677090,131367871,,0.0,0.0,0.0,0.0,0.0,0.0
1668677090.139705,2826,1668677090,139477634,,0.0,0.0,0.0,0.0,0.0,0.0
1668677090.1478708,2827,1668677090,147632363,,0.0,0.0,0.0,0.0,0.0,0.0
1668677090.1555395,2828,1668677090,155338098,,0.0,0.0,0.0,0.0,0.0,0.0
1668677090.1634972,2829,1668677090,163282118,,0.0,0.0,0.0,0.0,0.0,0.0
1668677090.1715505,2830,1668677090,171337505,,0.0,0.0,0.0,0.0,0.0,0.0
1668677090.179518,2831,1668677090,179287398,,0.0,0.0,0.0,0.0,0.0,0.0
1668677090.188062,2832,1668677090,187860785,,0.0,0.0,0.0,0.0,0.0,0.0
1668677090.1953144,2833,1668677090,195099754,,0.0,0.0,0.0,0.0,0.0,0.0
1668677090.2037237,2834,1668677090,203468665,,0.0,0.0,0.0,0.0,0.0,0.0
1668677090.212395,2835,1668677090,212056692,,0.0,0.0,0.0,0.0,0.0,0.0
1668677090.220517,2836,1668677090,220256385,,0.0,0.0,0.0,0.0,0.0,0.0
1668677090.227616,2837,1668677090,227403560,,0.0,0.0,0.0,0.0,0.0,0.0
1668677090.2351804,2838,1668677090,235019533,,0.0,0.0,0.0,0.0,0.0,0.0
1668677090.2435312,2839,1668677090,243328887,,0.0,0.0,0.0,0.0,0.0,0.0
1668677090.2519014,2840,1668677090,251628848,,0.0,0.0,0.0,0.0,0.0,0.0
1668677090.2599359,2841,1668677090,259695415,,0.0,0.0,0.0,0.0,0.0,0.0
1668677090.2675266,2842,1668677090,267289337,,0.0,0.0,0.0,0.0,0.0,0.0
1668677090.2752726,2843,1668677090,275069989,,0.0,0.0,0.0,0.0,0.0,0.0
1668677090.2838998,2844,1668677090,283682463,,0.0,0.0,0.0,0.0,0.0,0.0
1668677090.2915912,2845,1668677090,291406352,,0.0,0.0,0.0,0.0,0.0,0.0
1668677090.2997763,2846,1668677090,299545758,,0.0,0.0,0.0,0.0,0.0,0.0
1668677090.3076155,2847,1668677090,307385107,,0.0,0.0,0.0,0.0,0.0,0.0
1668677090.3157942,2848,1668677090,315525395,,0.0,0.0,0.0,0.0,0.0,0.0
1668677090.3237293,2849,1668677090,323478703,,0.0,0.0,0.0,0.0,0.0,0.0
1668677090.3321965,2850,1668677090,331983234,,0.0,0.0,0.0,0.0,0.0,0.0
1668677090.339869,2851,1668677090,339625533,,0.0,0.0,0.0,0.0,0.0,0.0
1668677090.3476999,2852,1668677090,347448470,,0.0,0.0,0.0,0.0,0.0,0.0
1668677090.35536,2853,1668677090,355190511,,0.0,0.0,0.0,0.0,0.0,0.0
1668677090.3634727,2854,1668677090,363287743,,0.0,0.0,0.0,0.0,0.0,0.0
1668677090.3715963,2855,1668677090,371356043,,0.0,0.0,0.0,0.0,0.0,0.0
1668677090.380945,2856,1668677090,380717023,,0.0,0.0,0.0,0.0,0.0,0.0
1668677090.388563,2857,1668677090,388296726,,0.0,0.0,0.0,0.0,0.0,0.0
1668677090.3952084,2858,1668677090,395021804,,0.0,0.0,0.0,0.0,0.0,0.0
1668677090.4034133,2859,1668677090,403231179,,0.0,0.0,0.0,0.0,0.0,0.0
1668677090.411632,2860,1668677090,411420197,,0.0,0.0,0.0,0.0,0.0,0.0
1668677090.419697,2861,1668677090,419416537,,0.0,0.0,0.0,0.0,0.0,0.0
1668677090.4278562,2862,1668677090,427600202,,0.0,0.0,0.0,0.0,0.0,0.0
1668677090.435383,2863,1668677090,435182874,,0.0,0.0,0.0,0.0,0.0,0.0
1668677090.4438004,2864,1668677090,443556014,,0.0,0.0,0.0,0.0,0.0,0.0
1668677090.4520152,2865,1668677090,451799775,,0.0,0.0,0.0,0.0,0.0,0.0
1668677090.459789,2866,1668677090,459497113,,0.0,0.0,0.0,0.0,0.0,0.0
1668677090.4678407,2867,1668677090,467493955,,0.0,0.0,0.0,0.0,0.0,0.0
1668677090.4753897,2868,1668677090,475141564,,0.0,0.0,0.0,0.0,0.0,0.0
1668677090.483457,2869,1668677090,483227638,,0.0,0.0,0.0,0.0,0.0,0.0
1668677090.4921231,2870,1668677090,491932987,,0.0,0.0,0.0,0.0,0.0,0.0
1668677090.4995568,2871,1668677090,499321212,,0.0,0.0,0.0,0.0,0.0,0.0
1668677090.5079715,2872,1668677090,507777076,,0.0,0.0,0.0,0.0,0.0,0.0
1668677090.5151546,2873,1668677090,514931632,,0.0,0.0,0.0,0.0,0.0,0.0
1668677090.5236769,2874,1668677090,523456803,,0.0,0.0,0.0,0.0,0.0,0.0
1668677090.5315955,2875,1668677090,531349920,,0.0,0.0,0.0,0.0,0.0,0.0
1668677090.5398743,2876,1668677090,539624973,,0.0,0.0,0.0,0.0,0.0,0.0
1668677090.5475576,2877,1668677090,547320769,,0.0,0.0,0.0,0.0,0.0,0.0
1668677090.5553265,2878,1668677090,555056351,,0.0,0.0,0.0,0.0,0.0,0.0
1668677090.5635076,2879,1668677090,563317813,,0.0,0.0,0.0,0.0,0.0,0.0
1668677090.57179,2880,1668677090,571550611,,0.0,0.0,0.0,0.0,0.0,0.0
1668677090.5797718,2881,1668677090,579530657,,0.0,0.0,0.0,0.0,0.0,0.0
1668677090.5876312,2882,1668677090,587375242,,0.0,0.0,0.0,0.0,0.0,0.0
1668677090.5952337,2883,1668677090,595019767,,0.0,0.0,0.0,0.0,0.0,0.0
1668677090.6035156,2884,1668677090,603337460,,0.0,0.0,0.0,0.0,0.0,0.0
1668677090.6117053,2885,1668677090,611436888,,0.0,0.0,0.0,0.0,0.0,0.0
1668677090.6196618,2886,1668677090,619476588,,0.0,0.0,0.0,0.0,0.0,0.0
1668677090.627523,2887,1668677090,627324066,,0.0,0.0,0.0,0.0,0.0,0.0
1668677090.6355288,2888,1668677090,635200359,,0.0,0.0,0.0,0.0,0.0,0.0
1668677090.6440024,2889,1668677090,643788960,,0.0,0.0,0.0,0.0,0.0,0.0
1668677090.651637,2890,1668677090,651403490,,0.0,0.0,0.0,0.0,0.0,0.0
1668677090.6597404,2891,1668677090,659550529,,0.0,0.0,0.0,0.0,0.0,0.0
1668677090.6677725,2892,1668677090,667525121,,0.0,0.0,0.0,0.0,0.0,0.0
1668677090.6752841,2893,1668677090,675016499,,0.0,0.0,0.0,0.0,0.0,0.0
1668677090.6837656,2894,1668677090,683385379,,0.0,0.0,0.0,0.0,0.0,0.0
1668677090.6920574,2895,1668677090,691810560,,0.0,0.0,0.0,0.0,0.0,0.0
1668677090.699918,2896,1668677090,699574058,,0.0,0.0,0.0,0.0,0.0,0.0
1668677090.7084763,2897,1668677090,708210167,,0.0,0.0,0.0,0.0,0.0,0.0
1668677090.7156959,2898,1668677090,715508537,,0.0,0.0,0.0,0.0,0.0,0.0
1668677090.7241614,2899,1668677090,723962611,,0.0,0.0,0.0,0.0,0.0,0.0
1668677090.731868,2900,1668677090,731657985,,0.0,0.0,0.0,0.0,0.0,0.0
1668677090.7397087,2901,1668677090,739490908,,0.0,0.0,0.0,0.0,0.0,0.0
1668677090.7476356,2902,1668677090,747399804,,0.0,0.0,0.0,0.0,0.0,0.0
1668677090.7552273,2903,1668677090,755072547,,0.0,0.0,0.0,0.0,0.0,0.0
1668677090.7641444,2904,1668677090,763885726,,0.0,0.0,0.0,0.0,0.0,0.0
1668677090.7715638,2905,1668677090,771374346,,0.0,0.0,0.0,0.0,0.0,0.0
1668677090.7796016,2906,1668677090,779386031,,0.0,0.0,0.0,0.0,0.0,0.0
1668677090.787829,2907,1668677090,787578465,,0.0,0.0,0.0,0.0,0.0,0.0
1668677090.7955909,2908,1668677090,795296570,,0.0,0.0,0.0,0.0,0.0,0.0
1668677090.8035703,2909,1668677090,803305382,,0.0,0.0,0.0,0.0,0.0,0.0
1668677090.8117082,2910,1668677090,811423248,,0.0,0.0,0.0,0.0,0.0,0.0
1668677090.8197708,2911,1668677090,819517485,,0.0,0.0,0.0,0.0,0.0,0.0
1668677090.827451,2912,1668677090,827273158,,0.0,0.0,0.0,0.0,0.0,0.0
1668677090.8351903,2913,1668677090,835010879,,0.0,0.0,0.0,0.0,0.0,0.0
1668677090.843589,2914,1668677090,843386873,,0.0,0.0,0.0,0.0,0.0,0.0
1668677090.8513987,2915,1668677090,851242618,,0.0,0.0,0.0,0.0,0.0,0.0
1668677090.8596802,2916,1668677090,859454547,,-0.022308251270698135,-0.23650092600867142,0.022740578766105846,0.0,0.0,0.0
1668677090.8676593,2917,1668677090,867374570,,-0.03412693667790813,-0.36164825212975227,0.034727674507409816,0.0,0.0,0.0
1668677090.8753355,2918,1668677090,875140226,,-0.03412693667790813,-0.36164825212975227,0.034727674507409816,0.0,0.0,0.0
1668677090.8835843,2919,1668677090,883392746,,-0.9962695238213005,-2.0338355030160784,0.5090903211164634,0.0,0.0,0.0
1668677090.8917716,2920,1668677090,891558170,,-1.4687677360374645,-3.176331696980802,0.9535421104233135,0.0,0.0,0.0
1668677090.8996296,2921,1668677090,899352218,,-1.718536150031524,-3.780791316497095,1.1889822827791428,0.0,0.0,0.0
1668677090.9080024,2922,1668677090,907797706,,-1.0473641735487327,-4.901353464193565,0.8487216992672539,0.0,-0.021310531147788383,0.0
1668677090.91529,2923,1668677090,915075740,,-1.0473641735487327,-4.901353464193565,0.8487216992672539,0.0,-0.021310531147788383,0.0
1668677090.923783,2924,1668677090,923556337,,-0.6923253689959288,-5.494283459192955,0.6683218791280434,0.0,-0.03258569387820721,0.0
1668677090.931513,2925,1668677090,931306421,,-0.3662939888365171,-6.128179405126186,0.35359427502643953,0.0,-0.1249442968209009,0.0
1668677090.939757,2926,1668677090,939442233,,0.03547512301823322,-7.192581951866506,-0.575132498558922,0.0,-0.3567063483527671,0.0
1668677090.9475079,2927,1668677090,947287676,,0.24806149905728703,-7.755701530662141,-1.0666056906019883,0.0,-0.4793275033408333,0.0
1668677090.9555607,2928,1668677090,955312931,,0.24806149905728703,-7.755701530662141,-1.0666056906019883,0.0,-0.4793275033408333,0.0
1668677090.9638486,2929,1668677090,963589335,,0.8572208574723152,-8.512390760684216,-0.6607892056306066,0.0,-0.6471060744984368,0.0
1668677090.9715676,2930,1668677090,971337232,,0.9599660738713978,-8.697239735196774,0.26711805962662394,0.0,-0.6887843813606527,0.0
1668677090.9795144,2931,1668677090,979307582,,1.0142901637360064,-8.795116042659519,0.7577561839089406,0.0,-0.7108357149385514,0.0
1668677090.987924,2932,1668677090,987725221,,1.3204906421093425,-9.137626599532801,1.6102059944657023,0.0,-0.7976954302206647,0.0
1668677090.9954286,2933,1668677090,995243070,,1.3204906421093425,-9.137626599532801,1.6102059944657023,0.0,-0.7976954302206647,0.0
1668677091.00362,2934,1668677091,3382595,,1.4823988207919525,-9.318865706299839,2.061217859279569,0.0,-0.8436508476441951,0.0
1668677091.0116525,2935,1668677091,11376548,,1.6530210570023471,-9.478630848013838,2.3760188968398817,0.0,-0.8980425444056189,0.0
1668677091.0198193,2936,1668677091,19512783,,2.055137178657171,-9.660411952405106,2.6544046754751376,0.0,-0.9597622484657058,0.0
1668677091.0276313,2937,1668677091,27352570,,2.2681374503249607,-9.756251367497772,2.802394369567857,0.0,-0.9924137563467624,0.0
1668677091.0353208,2938,1668677091,35119034,,2.2681374503249607,-9.756251367497772,2.802394369567857,0.0,-0.9924137563467624,0.0
1668677091.0436752,2939,1668677091,43417542,,2.6598838067456794,-9.639441382957262,2.8745564724918893,0.0,-0.9992458363454537,0.0
1668677091.0520787,2940,1668677091,51799783,,2.9388457509575936,-9.57404312398414,2.883833772000755,0.0,-1.0099539602069627,0.0
1668677091.0605838,2941,1668677091,60367281,,3.0863256966536223,-9.539354105937509,2.8891030873710557,0.0,-1.0156201903170368,0.0
1668677091.067708,2942,1668677091,67430816,,3.2583579446033744,-9.460454733791629,2.870873325203087,0.0,-1.021889394438276,0.0
1668677091.0753767,2943,1668677091,75049858,,3.2583579446033744,-9.460454733791629,2.870873325203087,0.0,-1.021889394438276,0.0
1668677091.0840378,2944,1668677091,83777492,,3.3495246940196557,-9.418488744780642,2.8616550532617264,0.0,-1.0252008076472863,0.0
1668677091.091834,2945,1668677091,91596456,,3.4807649869937975,-9.404390726919898,2.865663037305391,0.0,-1.0360866923753562,0.0
1668677091.099528,2946,1668677091,99304560,,3.8219866783829892,-9.435355537344993,2.914023664201797,0.0,-1.0722434523913305,0.0
1668677091.107527,2947,1668677091,107331522,,4.002497422428094,-9.451719117981161,2.939689852924115,0.0,-1.0913758024590001,0.0
1668677091.1153996,2948,1668677091,115194324,,4.002497422428094,-9.451719117981161,2.939689852924115,0.0,-1.0913758024590001,0.0
1668677091.1238878,2949,1668677091,123639055,,4.550923273923053,-9.415693357525807,3.0524267681286714,0.0,-1.1239152137327773,0.0
1668677091.1317213,2950,1668677091,131488786,,5.113942171560263,-9.406887871071795,3.3791643483312095,0.0,-1.1605482100833595,0.0
1668677091.1397178,2951,1668677091,139436978,,5.411779428076736,-9.402247663414535,3.5520551506250584,0.0,-1.1799323729141573,0.0
1668677091.1479611,2952,1668677091,147721824,,5.975671361460208,-9.335719312603178,4.218604465440733,0.0,-1.2200456390726682,0.0
1668677091.155481,2953,1668677091,155268569,,5.975671361460208,-9.335719312603178,4.218604465440733,0.0,-1.2200456390726682,0.0
1668677091.163713,2954,1668677091,163443884,,6.274022052412537,-9.300419746268515,4.57142421341538,0.0,-1.241267082488613,0.0
1668677091.171698,2955,1668677091,171500364,,6.467554821668497,-9.14900999565358,5.103209507398688,0.0,-1.2461937037124666,0.0
1668677091.1798425,2956,1668677091,179657700,,6.227228626817499,-9.289689551913302,5.264050237198115,0.0,-1.2910591700851612,0.0
1668677091.1877942,2957,1668677091,187522595,,6.099725059258801,-9.364592885518551,5.348761109018374,0.0,-1.3148151349347246,0.0
1668677091.1954029,2958,1668677091,195182958,,6.099725059258801,-9.364592885518551,5.348761109018374,0.0,-1.3148151349347246,0.0
1668677091.203735,2959,1668677091,203474558,,6.074509807991239,-9.408123910986244,5.261945569378666,0.0,-1.3442931947199859,0.0
1668677091.2116926,2960,1668677091,211442697,,6.2016204963064245,-9.38589758922677,5.176056913496989,0.0,-1.3629802839101561,0.0
1668677091.2197664,2961,1668677091,219507763,,6.268629969970085,-9.374511104811917,5.130271767334586,0.0,-1.3728768669478013,0.0
1668677091.2274065,2962,1668677091,227254222,,6.520962929428086,-9.180662716032002,4.988464196022889,0.0,-1.361682915710169,0.0
1668677091.2351723,2963,1668677091,234992435,,6.520962929428086,-9.180662716032002,4.988464196022889,0.0,-1.361682915710169,0.0
1668677091.2435772,2964,1668677091,243386876,,6.654522398255011,-9.078333325979237,4.912966679917116,0.0,-1.3557665921148163,0.0
1668677091.2515447,2965,1668677091,251365653,,6.862540766869817,-9.041134952109319,4.8635836718716075,0.0,-1.3597465332775394,0.0
1668677091.2594938,2966,1668677091,259302963,,7.098011003600659,-9.134864238681896,4.692362452433373,0.0,-1.3909092221122046,0.0
1668677091.267665,2967,1668677091,267473413,,7.2223937035187475,-9.184425555789492,4.602129780778231,0.0,-1.4074030267096203,0.0
1668677091.275718,2968,1668677091,275499381,,7.2223937035187475,-9.184425555789492,4.602129780778231,0.0,-1.4074030267096203,0.0
1668677091.2835464,2969,1668677091,283264027,,7.586026469382417,-8.878596047519988,4.682033213544663,0.0,-1.3742814755697168,0.0
1668677091.2917817,2970,1668677091,291545545,,7.909011816294452,-8.565515913532442,4.810034841557414,0.0,-1.3371213899641705,0.0
1668677091.2996209,2971,1668677091,299368098,,8.079990901942857,-8.39991371515109,4.877545862853108,0.0,-1.317457453789819,0.0
1668677091.3076866,2972,1668677091,307469872,,8.435967672295142,-7.661297729002996,4.9970834186511635,0.0,-1.2220622698509036,0.0
1668677091.3154721,2973,1668677091,315242930,,8.435967672295142,-7.661297729002996,4.9970834186511635,0.0,-1.2220622698509036,0.0
1668677091.3235254,2974,1668677091,323297081,,8.624585532600921,-7.2701878470556585,5.060295912760333,0.0,-1.1715673696146471,0.0
1668677091.332005,2975,1668677091,331784636,,9.717664351262457,-5.805553745420587,5.075918948245143,0.13822143991740315,-0.9701555749933721,0.0
1668677091.3399875,2976,1668677091,339800542,,10.447138421281574,-5.04496703202706,5.079183690190286,0.2385442387110579,-0.8715522345710383,0.0
1668677091.347767,2977,1668677091,347529820,,10.832765561760878,-4.643274443858801,5.080947244879958,0.291540935441542,-0.8194483143075597,0.0
1668677091.3552134,2978,1668677091,354986841,,10.832765561760878,-4.643274443858801,5.080947244879958,0.291540935441542,-0.8194483143075597,0.0
1668677091.3637226,2979,1668677091,363477868,,11.049580519980335,-4.579082545386106,4.938464849588154,0.3261260662805352,-0.8195820989370246,0.0
1668677091.37154,2980,1668677091,371352963,,11.031370930719694,-4.480052562972361,4.83959421968658,0.31933940363418745,-0.8055507098122071,0.0
1668677091.3794274,2981,1668677091,379208282,,11.021969933558013,-4.427210198489167,4.787214452733101,0.3157811632059164,-0.7980998166875741,0.0
1668677091.3878517,2982,1668677091,387632720,,11.06009216907597,-4.578914686072162,4.711213068802114,0.32737804463508313,-0.8249698974989383,0.0
1668677091.3953712,2983,1668677091,395107054,,11.06009216907597,-4.578914686072162,4.711213068802114,0.32737804463508313,-0.8249698974989383,0.0
1668677091.4040096,2984,1668677091,403768161,,11.08018855118573,-4.659091871760953,4.671248172904338,0.3335119628975579,-0.8391843217303416,0.0
1668677091.4115832,2985,1668677091,411386065,,11.099924499011731,-4.7533871670424706,4.632538157457811,0.3393595302510257,-0.8531700167201515,0.0
1668677091.4196613,2986,1668677091,419407376,,11.149592951335338,-4.849428618287861,4.301829585336799,0.34123255026637384,-0.875755870771181,0.0
1668677091.4274952,2987,1668677091,427276562,,11.17587361284794,-4.900137510532774,4.126979881503582,0.34222289340330536,-0.8877034130248653,0.0
1668677091.4358478,2988,1668677091,435606920,,11.17587361284794,-4.900137510532774,4.126979881503582,0.34222289340330536,-0.8877034130248653,0.0
1668677091.4440444,2989,1668677091,443755385,,11.361732005969442,-5.0771725002977846,3.989281264854242,0.36951124661171936,-0.9210527448481245,0.0
1668677091.4517102,2990,1668677091,451456915,,11.5594025110703,-5.291320491323864,3.890149525248602,0.40674525566178843,-0.9652896722679858,0.0
1668677091.4597225,2991,1668677091,459533590,,11.663963152414606,-5.404650195834723,3.837721826410131,0.4264549313250003,-0.9886886933392389,0.0
1668677091.4675517,2992,1668677091,467334258,,11.843278848287301,-5.567457253267267,3.7170897385999746,0.4536980451766216,-1.0267189646783375,0.0
1668677091.4752545,2993,1668677091,475001478,,11.843278848287301,-5.567457253267267,3.7170897385999746,0.4536980451766216,-1.0267189646783375,0.0
1668677091.483958,2994,1668677091,483735895,,11.93784019446207,-5.653796220936864,3.6538535517890858,0.468051086548792,-1.046877592620476,0.0
1668677091.491597,2995,1668677091,491371691,,12.003317710907274,-5.738140458772321,3.4274625371122625,0.47638458067031764,-1.0683977246496474,0.0
1668677091.4998965,2996,1668677091,499650372,,12.261445184006167,-5.874544307882131,3.2849775087940305,0.516025869855925,-1.0969505762696203,0.0
1668677091.5078712,2997,1668677091,507634688,,12.397974590404433,-5.947053577387743,3.209142524168411,0.5369642561423812,-1.1120874194691979,0.0
1668677091.515252,2998,1668677091,515018571,,12.397974590404433,-5.947053577387743,3.209142524168411,0.5369642561423812,-1.1120874194691979,0.0
1668677091.5238605,2999,1668677091,523596353,,12.243989692555068,-6.034002706214038,3.1294000864838933,0.5159913663016025,-1.1347209030935828,0.0
1668677091.5320978,3000,1668677091,531925527,,12.140241437579569,-6.189618329284743,3.1173866899974083,0.5080748129926393,-1.1677371127001357,0.0
1668677091.5395877,3001,1668677091,539378061,,12.085605825494014,-6.271544161608155,3.1109507105926886,0.5039485400110986,-1.1851627034338574,0.0
1668677091.5476484,3002,1668677091,547420564,,11.903245686863462,-6.570049174387542,3.0810720066308255,0.48536085071034074,-1.2347364470589999,0.0
1668677091.5552647,3003,1668677091,555032496,,11.903245686863462,-6.570049174387542,3.0810720066308255,0.48536085071034074,-1.2347364470589999,0.0
1668677091.5639503,3004,1668677091,563751653,,11.806843504655184,-6.7278847567310756,3.0652002805140435,0.47552646425420936,-1.260963754269873,0.0
1668677091.5716166,3005,1668677091,571376917,,11.637660176008417,-6.872622744473001,3.0356139992012543,0.4534817795494377,-1.2809233829492443,0.0
1668677091.5796337,3006,1668677091,579383850,,11.41328550220578,-6.885549955660792,3.1698678427627858,0.4204029845353203,-1.276859438311429,0.0
1668677091.5875025,3007,1668677091,587276870,,11.29473179629224,-6.892461236072526,3.2403226540408276,0.4029510995754885,-1.274685449089892,0.0
1668677091.5953457,3008,1668677091,595135755,,11.29473179629224,-6.892461236072526,3.2403226540408276,0.4029510995754885,-1.274685449089892,0.0
1668677091.6036873,3009,1668677091,603501896,,11.421265976596167,-7.076949602090123,2.9875550591129816,0.4245348652256917,-1.3137921637091485,0.0
1668677091.6114318,3010,1668677091,611244580,,11.62453114786544,-7.288890048599399,2.765592869219128,0.4572537017736376,-1.3550732275401418,0.0
1668677091.6196826,3011,1668677091,619402625,,11.731704615817293,-7.401337604658343,2.6487456698436196,0.47449417186826237,-1.3769551912646536,0.0
1668677091.6280606,3012,1668677091,627870498,,11.708598319177405,-7.543589948131766,2.5314432395353856,0.47730741546431754,-1.4074246027221726,0.0
1668677091.6353245,3013,1668677091,635143497,,11.708598319177405,-7.543589948131766,2.5314432395353856,0.47730741546431754,-1.4074246027221726,0.0
1668677091.6436157,3014,1668677091,643406411,,11.69623945514367,-7.618568764473647,2.4706063119687602,0.4787687590868813,-1.4235523226216185,0.0
1668677091.6517487,3015,1668677091,651499622,,11.742237047696403,-7.542804862431627,2.67650443114622,0.48941486837600773,-1.4122382869485097,0.0
1668677091.660844,3016,1668677091,660603669,,11.481795285772519,-7.380761545735126,2.9867757983489067,0.4549442972908384,-1.388583304633884,0.0
1668677091.6676762,3017,1668677091,667435884,,11.343800788131702,-7.294914206620653,3.1517124080955305,0.43669143468116695,-1.3760733677418373,0.0
1668677091.6752784,3018,1668677091,675123393,,11.343800788131702,-7.294914206620653,3.1517124080955305,0.43669143468116695,-1.3760733677418373,0.0
1668677091.683662,3019,1668677091,683404667,,11.235091203514337,-7.337781152404158,3.254193987455392,0.43253638149993945,-1.3921547268555798,0.0
1668677091.6916804,3020,1668677091,691478618,,11.12382768068596,-7.3801444403582845,3.323197891902226,0.4244793361303649,-1.405145963051171,0.0
1668677091.699506,3021,1668677091,699281243,,11.064546259269305,-7.403144211471789,3.359713176789558,0.42007938268866973,-1.4120987985581153,0.0
1668677091.707489,3022,1668677091,707264040,,10.924835574922003,-7.581524228519701,3.247117015672905,0.4060298330852694,-1.4458374878388676,0.0
1668677091.7153962,3023,1668677091,715154577,,10.924835574922003,-7.581524228519701,3.247117015672905,0.4060298330852694,-1.4458374878388676,0.0
1668677091.7239268,3024,1668677091,723688297,,10.851246948523826,-7.675780069337454,3.186862619491861,0.39863743875318747,-1.4636669912847438,0.0
1668677091.7317317,3025,1668677091,731460848,,10.718037668698184,-7.818032582111953,3.0304113676719684,0.38169327818852733,-1.4868667218930303,0.0
1668677091.739603,3026,1668677091,739374132,,10.836741289205046,-7.701860886941634,2.5663544464707497,0.4000024845254797,-1.479072303260659,0.0
1668677091.7476485,3027,1668677091,747379342,,10.899730016158745,-7.640418794832847,2.3200423735809896,0.40970128471599343,-1.4749444620879912,0.0
1668677091.755546,3028,1668677091,755339188,,10.899730016158745,-7.640418794832847,2.3200423735809896,0.40970128471599343,-1.4749444620879912,0.0
1668677091.7636147,3029,1668677091,763401247,,10.631696577653486,-8.624795538003701,2.1606007762966795,0.37897046240355536,-1.6347414496609352,0.0
1668677091.7715323,3030,1668677091,771297582,,10.529424697437745,-9.316113259929004,2.3049582781428475,0.37644911793410035,-1.7503042032024538,0.0
1668677091.7794292,3031,1668677091,779235511,,10.475867101745195,-9.68136826063462,2.381135003720125,0.37525935563942237,-1.8113773468828511,0.0
1668677091.788094,3032,1668677091,787891044,,10.401291421899359,-9.984470295332454,2.3998403645634845,0.37075474996280744,-1.8662893636543072,0.0
1668677091.7953928,3033,1668677091,795149065,,10.401291421899359,-9.984470295332454,2.3998403645634845,0.37075474996280744,-1.8662893636543072,0.0
1668677091.8038316,3034,1668677091,803578294,,10.361698290340225,-10.144458414747959,2.411434815449762,0.3683900577228736,-1.895332522735681,0.0
1668677091.8116112,3035,1668677091,811387376,,10.340678447914325,-10.229446510377507,2.398688617901011,0.36718752743696326,-1.9111792602422244,0.0
1668677091.8197784,3036,1668677091,819565999,,10.185964821308833,-10.379870026247946,2.310048091423665,0.3446134209620877,-1.9429965285835442,0.0
1668677091.827664,3037,1668677091,827468151,,10.104313942168993,-10.459314965735647,2.2629548081808353,0.3327366475155795,-1.9598007376192208,0.0
1668677091.835225,3038,1668677091,835010280,,10.104313942168993,-10.459314965735647,2.2629548081808353,0.3327366475155795,-1.9598007376192208,0.0
1668677091.8436058,3039,1668677091,843404797,,10.053229927524544,-10.690817447837901,2.1992881892017664,0.3277451349338837,-2.0052421753302205,0.0
1668677091.85186,3040,1668677091,851653716,,10.23354183959488,-10.969611176804953,2.232572023503516,0.3631987641370624,-2.0596736015152,0.0
1668677091.859593,3041,1668677091,859371940,,10.32882244342014,-11.117454940251402,2.2493178208086713,0.38189781450591365,-2.0884977261584363,0.0
1668677091.8675635,3042,1668677091,867377261,,10.144995649150827,-11.147612624924681,2.340393077806021,0.3639532207998317,-2.10073968629861,0.0
1668677091.8752475,3043,1668677091,874983936,,10.144995649150827,-11.147612624924681,2.340393077806021,0.3639532207998317,-2.10073968629861,0.0
1668677091.8841074,3044,1668677091,883764937,,10.047681137405082,-11.163779917119417,2.3880077944695897,0.3543813472620265,-2.1072499248738095,0.0
1668677091.8917565,3045,1668677091,891529953,,9.896742064992772,-11.281247456073388,2.5057353499687105,0.335874372902469,-2.1260531869309895,0.0
1668677091.8996618,3046,1668677091,899475298,,9.979865444495724,-11.363217835032637,2.6757334401663666,0.3550316086401738,-2.140781476072437,0.0
1668677091.9076972,3047,1668677091,907431504,,10.023235970562983,-11.406868631704032,2.7665084411055796,0.3650426202982838,-2.148629277224292,0.0
1668677091.9157124,3048,1668677091,915493284,,10.023235970562983,-11.406868631704032,2.7665084411055796,0.3650426202982838,-2.148629277224292,0.0
1668677091.923446,3049,1668677091,923231022,,9.869693663296331,-11.359012520891735,2.7432805719096702,0.3444525832996966,-2.1471650581264488,0.0
1668677091.9315276,3050,1668677091,931330202,,9.704923296954334,-11.350729063600717,2.665673140675357,0.33009824709238245,-2.1556592548913245,0.0
1668677091.93984,3051,1668677091,939677146,,9.617535085476554,-11.346417467020242,2.6249906952134703,0.3225065787336052,-2.160152247620209,0.0
1668677091.9477112,3052,1668677091,947505518,,10.461082270299137,-9.883264044795157,2.722459573958835,0.4654464778713039,-1.958502277308524,0.0
1668677091.9552674,3053,1668677091,955024978,,10.461082270299137,-9.883264044795157,2.722459573958835,0.4654464778713039,-1.958502277308524,0.0
1668677091.9636445,3054,1668677091,963488804,,10.907325467247084,-9.109007728406366,2.7745426856649376,0.5410867710290885,-1.851804687468412,0.0
1668677091.971476,3055,1668677091,971240728,,11.940728448915241,-7.7329616994824,3.022777165560777,0.699729423004519,-1.6563267812807658,0.0
1668677091.9794967,3056,1668677091,979322132,,12.551187732933911,-6.773069398853603,3.3749989897289883,0.8110504584427436,-1.5253646542964467,0.0
1668677091.9876504,3057,1668677091,987435024,,12.874636396611749,-6.264704337857937,3.560666238504811,0.8700668926536438,-1.4559820644770387,0.0
1668677091.9952235,3058,1668677091,995046451,,12.874636396611749,-6.264704337857937,3.560666238504811,0.8700668926536438,-1.4559820644770387,0.0
1668677092.0036821,3059,1668677092,3415650,,13.250750799098165,-5.650447705405343,3.882275086629522,0.9406305759275083,-1.3765748596130871,0.0
1668677092.0121255,3060,1668677092,11831177,,13.434453971471793,-5.31812655081481,4.066308977642269,0.9823457561221105,-1.3385060000667517,0.0
1668677092.019554,3061,1668677092,19371295,,13.531895965286488,-5.141826308980617,4.163523768642896,1.004428802074918,-1.3183514766309943,0.0
1668677092.0276616,3062,1668677092,27435804,,13.663931440461084,-5.180589829480205,4.061875710528381,1.0469886488670523,-1.3421050312209022,0.0
1668677092.035433,3063,1668677092,35214818,,13.663931440461084,-5.180589829480205,4.061875710528381,1.0469886488670523,-1.3421050312209022,0.0
1668677092.0438778,3064,1668677092,43521450,,13.73399028438983,-5.200185665087217,4.0086402213492764,1.0696116947730536,-1.3545752832430813,0.0
1668677092.0516725,3065,1668677092,51480009,,13.977781563715261,-4.920535815631872,3.85994689649786,1.1105417283608525,-1.326282141037909,0.0
1668677092.059777,3066,1668677092,59543716,,14.374512940067103,-4.555334804483827,3.9532038468702932,1.174258339413588,-1.2826868056758398,0.0
1668677092.0675886,3067,1668677092,67343446,,14.584143763685146,-4.362133020326749,4.003373045776187,1.2079790561939712,-1.2596094787368992,0.0
1668677092.0754228,3068,1668677092,75261772,,14.584143763685146,-4.362133020326749,4.003373045776187,1.2079790561939712,-1.2596094787368992,0.0
1668677092.0835028,3069,1668677092,83311326,,14.765632401339692,-4.364396997252674,3.3858116074486686,1.265422691928808,-1.2838291575334186,0.0
1668677092.091624,3070,1668677092,91377895,,15.0784248512972,-4.638971281049754,1.933912695106463,1.358448468917318,-1.3630280612746954,0.0
1668677092.0997205,3071,1668677092,99448305,,15.243994552019489,-4.784362217695417,1.1642107191834774,1.4076673457793751,-1.4049427822912386,0.0
1668677092.108156,3072,1668677092,107862277,,15.462579900705531,-5.237000686147088,0.5572394913072459,1.4834121565289204,-1.5107594743587591,0.0
1668677092.1152492,3073,1668677092,115047443,,15.462579900705531,-5.237000686147088,0.5572394913072459,1.4834121565289204,-1.5107594743587591,0.0
1668677092.123485,3074,1668677092,123246850,,15.578364796852444,-5.476124490004928,0.23598640941465945,1.523546297295017,-1.5666870137050817,0.0
1668677092.1315157,3075,1668677092,131285740,,16.250816257129983,-4.9451449097703595,0.12485517227408048,1.6323624145909346,-1.5106401979789776,0.0
1668677092.139652,3076,1668677092,139434270,,16.378005405532647,-4.328485132176889,0.06605810089766101,1.6535590538673042,-1.427043475539224,0.0
1668677092.1475904,3077,1668677092,147313128,,16.44530626731791,-4.00221217950916,0.0349498752412634,1.664767599308445,-1.3828137713214756,0.0
1668677092.1552494,3078,1668677092,155032404,,16.44530626731791,-4.00221217950916,0.0349498752412634,1.664767599308445,-1.3828137713214756,0.0
1668677092.1635861,3079,1668677092,163398339,,16.6698117461927,-3.673751685400333,0.01849120339187843,1.7046876000857518,-1.3375964708736507,0.0
1668677092.1735325,3080,1668677092,173260770,,16.177801877829516,-3.130949612094624,0.30242913768012514,1.6276664428555532,-1.2487148928627012,0.0
1668677092.1795535,3081,1668677092,179325382,,15.917577270843408,-2.8437413505548865,0.45181449391946993,1.5869293331248304,-1.2016823672623405,0.0
1668677092.187572,3082,1668677092,187358652,,15.565916300803453,-2.3831902111187997,1.2948172923338186,1.5300411885663172,-1.115070065000074,0.0
1668677092.1951687,3083,1668677092,194958601,,15.565916300803453,-2.3831902111187997,1.2948172923338186,1.5300411885663172,-1.115070065000074,0.0
1668677092.2037692,3084,1668677092,203505434,,15.379922992975104,-2.139764052220115,1.7403052286812921,1.4999100343262395,-1.0692884227967066,0.0
1668677092.2114947,3085,1668677092,211285340,,15.399126769985767,-1.9289238942730371,2.3223470222815017,1.504456377577465,-1.0250189536944254,0.0
1668677092.2197673,3086,1668677092,219430933,,15.074234421476767,-1.7486783578861602,2.5601356326352573,1.450584558492301,-0.9845322482274925,0.0
1668677092.2278085,3087,1668677092,227565285,,14.902003176164548,-1.6534861987692229,2.6872165342342096,1.4220433585604664,-0.963146871506751,0.0
1668677092.2361674,3088,1668677092,235878204,,14.902003176164548,-1.6534861987692229,2.6872165342342096,1.4220433585604664,-0.963146871506751,0.0
1668677092.2441647,3089,1668677092,243934084,,14.985290026713823,-1.7212581408891303,2.590216670523101,1.434281814077882,-0.9717372646809089,0.0
1668677092.2523792,3090,1668677092,252153736,,15.249178780328048,-2.030720214042874,2.1286435848833567,1.4806589497606693,-1.02531462663339,0.0
1668677092.2598648,3091,1668677092,259650199,,15.388731620472818,-2.1952225052635725,1.8838459154770613,1.5051146943703346,-1.0537685321339656,0.0
1668677092.26782,3092,1668677092,267586350,,15.348377307278943,-2.0053391882522216,1.7682960360887017,1.4970773596761915,-1.0319548482668723,0.0
1668677092.275358,3093,1668677092,275118833,,15.348377307278943,-2.0053391882522216,1.7682960360887017,1.4970773596761915,-1.0319548482668723,0.0
1668677092.2840002,3094,1668677092,283698388,,15.327092659781972,-1.9051967695149796,1.7064142617387095,1.492792898972255,-1.020460473861494,0.0
1668677092.291598,3095,1668677092,291408159,,15.464472109297692,-1.754014100805679,2.080582544454682,1.5157463053366078,-0.9930157202160037,0.0
1668677092.300192,3096,1668677092,299711264,,15.116606651981595,-1.289638343493368,2.94347783867466,1.457554074631788,-0.9055543817231626,0.0
1668677092.3082588,3097,1668677092,307981553,,14.93266420886178,-1.0439740343838502,3.3996694533567897,1.4267858631176362,-0.8592602648598153,0.0
1668677092.315684,3098,1668677092,315441140,,14.93266420886178,-1.0439740343838502,3.3996694533567897,1.4267858631176362,-0.8592602648598153,0.0
1668677092.3240921,3099,1668677092,323902215,,14.786283932972783,-0.8322110063691628,3.6540345809814783,1.3984167948605721,-0.8181840812471897,0.0
1668677092.3315866,3100,1668677092,331362917,,14.928185341535627,-0.9878225981986775,3.358326727251278,1.4178756353935538,-0.8437123283769203,0.0
1668677092.3394396,3101,1668677092,339219318,,15.003167981606861,-1.0698777448496188,3.2023987440862447,1.4282000767811627,-0.8571761470703003,0.0
1668677092.3477087,3102,1668677092,347499419,,14.826696658083181,-1.0814771999249975,3.1619949536646415,1.391334741071399,-0.8457004601063136,0.0
1668677092.3555427,3103,1668677092,355251022,,14.826696658083181,-1.0814771999249975,3.1619949536646415,1.391334741071399,-0.8457004601063136,0.0
1668677092.3637033,3104,1668677092,363484300,,14.651994354290743,-1.19584437573724,3.0500563669714094,1.3651937091852024,-0.8440613849157679,0.0
1668677092.3715668,3105,1668677092,371362390,,14.559764606439021,-1.2559723394858902,2.9902647059098983,1.3514155414234956,-0.8431332330009476,0.0
1668677092.3795063,3106,1668677092,379321082,,14.005350938880932,-1.6478199916257423,2.168935439323203,1.2882621654275568,-0.8413885889443611,0.0
1668677092.387555,3107,1668677092,387356289,,13.712009591880129,-1.8557144511463988,1.73368096204204,1.2547876699426745,-0.840546432675457,0.0
1668677092.3956573,3108,1668677092,395406676,,13.712009591880129,-1.8557144511463988,1.73368096204204,1.2547876699426745,-0.840546432675457,0.0
1668677092.4035647,3109,1668677092,403372656,,13.510302793286495,-2.005351125576293,1.4019367577385258,1.2298530615114949,-0.8362186441530337,0.0
1668677092.4115915,3110,1668677092,411418182,,13.565608985829833,-2.183325069767137,0.7417336271142743,1.2392606421598629,-0.851023584199589,0.0
1668677092.419659,3111,1668677092,419453584,,13.594956994389868,-2.277199637868186,0.3924348017520979,1.2442703692617232,-0.8588162666615892,0.0
1668677092.4281723,3112,1668677092,427883124,,13.904157164270263,-2.4428767035488868,0.5374377840126834,1.2617086604288494,-0.9205998927052434,0.0
1668677092.4353306,3113,1668677092,435113967,,13.904157164270263,-2.4428767035488868,0.5374377840126834,1.2617086604288494,-0.9205998927052434,0.0
1668677092.4436383,3114,1668677092,443428048,,13.945576033072417,-2.8062417962282016,0.42806040484891644,1.257985946429138,-0.9858995760028024,0.0
1668677092.451676,3115,1668677092,451465545,,13.967517609885647,-2.9983543765980096,0.37031081112547193,1.2560270451891404,-1.0204316485709275,0.0
1668677092.4597812,3116,1668677092,459485264,,13.681867566630846,-3.1452040042850022,0.40820861304390776,1.196649290765806,-1.0415722230770341,0.0
1668677092.467683,3117,1668677092,467474089,,13.530596126496073,-3.2234785813974085,0.4279261145536083,1.1651634146501593,-1.0528373495765622,0.0
1668677092.4753568,3118,1668677092,475158588,,13.530596126496073,-3.2234785813974085,0.4279261145536083,1.1651634146501593,-1.0528373495765622,0.0
1668677092.4835525,3119,1668677092,483326163,,13.638969177387416,-3.3564410250430656,0.283638582289442,1.1711542682545828,-1.0716820422378317,0.0
1668677092.491874,3120,1668677092,491621297,,13.366613406367001,-3.4113868624536297,1.0146880964577056,1.0917060052134462,-1.0578086299513467,0.0
1668677092.499579,3121,1668677092,499349740,,13.222669037265604,-3.440385045158475,1.400825581361366,1.0497065102809895,-1.0504433113714267,0.0
1668677092.5077233,3122,1668677092,507402682,,12.776645992849577,-3.5352084935308508,2.419966448293663,0.9455043981380211,-1.0246304995544762,0.0
1668677092.5155277,3123,1668677092,515228508,,12.776645992849577,-3.5352084935308508,2.419966448293663,0.9455043981380211,-1.0246304995544762,0.0
1668677092.5237255,3124,1668677092,523476900,,12.540603391857378,-3.58516840161335,2.95956325839913,0.8903719598630101,-1.0109688123234766,0.0
1668677092.5316544,3125,1668677092,531471903,,11.848896317317287,-4.353176616555506,3.471014524018303,0.7793506170458964,-1.0987522751133136,0.0
1668677092.5397723,3126,1668677092,539561424,,10.228461922019978,-5.967362773177685,4.442947145278739,0.5066585883858474,-1.292076283769578,0.0
1668677092.5475802,3127,1668677092,547333690,,9.371118884235262,-6.820911505709107,4.957832099244345,0.36245282824593883,-1.3943248194229174,0.0
1668677092.5556624,3128,1668677092,555455426,,9.371118884235262,-6.820911505709107,4.957832099244345,0.36245282824593883,-1.3943248194229174,0.0
1668677092.5634878,3129,1668677092,563296192,,8.819309730200333,-7.386587105487701,5.270831717619828,0.25647535023404155,-1.4531856825288223,0.0
1668677092.5715988,3130,1668677092,571388992,,8.270720253827696,-7.850615412973742,5.380009233021309,0.15697920664233783,-1.5026548039311323,0.0
1668677092.579483,3131,1668677092,579283588,,7.981075478538813,-8.095940522915658,5.437233927835976,0.10437787313966865,-1.528811920554575,0.0
1668677092.587814,3132,1668677092,587594485,,8.008900430100962,-7.917413806946012,5.498417349273758,0.09749513098101847,-1.4908861118370167,0.0
1668677092.5953472,3133,1668677092,595066170,,8.008900430100962,-7.917413806946012,5.498417349273758,0.09749513098101847,-1.4908861118370167,0.0
1668677092.6034343,3134,1668677092,603258281,,7.998811540530095,-7.79654725971459,5.397792295997696,0.08860257394016537,-1.4676809493757264,0.0
1668677092.611722,3135,1668677092,611518337,,7.993737249910611,-7.732217616613706,5.344703123594842,0.08400588179554214,-1.455355644882221,0.0
1668677092.619795,3136,1668677092,619534671,,7.94904245475311,-7.606604777121435,5.272415127563573,0.07074275702019273,-1.436287356938947,0.0
1668677092.6276839,3137,1668677092,627422397,,7.9250512412456615,-7.540134356789409,5.234679465522467,0.06365698153126063,-1.4262271485796245,0.0
1668677092.6355333,3138,1668677092,635282535,,7.9250512412456615,-7.540134356789409,5.234679465522467,0.06365698153126063,-1.4262271485796245,0.0
1668677092.6434448,3139,1668677092,643281745,,8.267153996657896,-7.591711765911879,5.4208994766050935,0.09943794427445535,-1.4265704698223867,0.0
1668677092.6516747,3140,1668677092,651431217,,8.495398643175214,-7.480623438002919,5.25794837350236,0.11174806650097723,-1.4079388842003813,0.0
1668677092.6597576,3141,1668677092,659572755,,8.616123920772827,-7.421885407762369,5.171738995892921,0.11827333768953481,-1.3980757799270211,0.0
1668677092.6673214,3142,1668677092,667147009,,8.749100166114188,-7.348289998570932,5.153014384970888,0.13613571719584922,-1.3847188729796263,0.0
1668677092.6751475,3143,1668677092,674941472,,8.749100166114188,-7.348289998570932,5.153014384970888,0.13613571719584922,-1.3847188729796263,0.0
1668677092.684093,3144,1668677092,683867585,,8.91266458625708,-7.23648779677148,5.263298367683673,0.15976493555656102,-1.3665815719918006,0.0
1668677092.6917892,3145,1668677092,691524352,,8.998890920821594,-7.177886109897808,5.3214413381510415,0.17218480388691373,-1.357028040019556,0.0
1668677092.699738,3146,1668677092,699509902,,8.668293624754718,-7.060012491980467,5.339498734960179,0.12476640291618163,-1.3365851436185268,0.0
1668677092.7077324,3147,1668677092,707510488,,8.493187184041767,-6.997984577456593,5.348917831741934,0.0996513144379321,-1.3257828787687886,0.0
1668677092.7156074,3148,1668677092,715413302,,8.493187184041767,-6.997984577456593,5.348917831741934,0.0996513144379321,-1.3257828787687886,0.0
1668677092.7234979,3149,1668677092,723283853,,8.627792849495831,-7.0981434179049,5.425634708993922,0.12117929639179961,-1.3419897254019295,0.0
1668677092.7327192,3150,1668677092,732347535,,8.750998377174362,-7.199130111468789,5.475904681177069,0.1355023511460488,-1.357752878022131,0.0
1668677092.7404852,3151,1668677092,740192121,,8.815547294864396,-7.253329773914082,5.502485043333205,0.14297327472646543,-1.366145708880492,0.0
1668677092.7482698,3152,1668677092,748021113,,8.693223110468242,-7.153957493273703,5.24154859977277,0.12718767838880002,-1.3614059316638365,0.0
1668677092.755481,3153,1668677092,755229472,,8.693223110468242,-7.153957493273703,5.24154859977277,0.12718767838880002,-1.3614059316638365,0.0
1668677092.7635343,3154,1668677092,763314702,,8.584346189252422,-7.188419715867715,5.274673471875275,0.1164523591597551,-1.3677245873429245,0.0
1668677092.7716246,3155,1668677092,771390439,,8.527030156003555,-7.206191567906627,5.292368156487875,0.11078256338589343,-1.3710614737982563,0.0
1668677092.780069,3156,1668677092,779722299,,8.288468060494006,-7.230832365596413,5.355045245799512,0.08310677190445528,-1.3773275997420753,0.0
1668677092.7876725,3157,1668677092,787448501,,8.16262680855957,-7.243171082357511,5.3885747603306875,0.06851630381676377,-1.3806181152701433,0.0
1668677092.7952871,3158,1668677092,795079608,,8.16262680855957,-7.243171082357511,5.3885747603306875,0.06851630381676377,-1.3806181152701433,0.0
1668677092.8034418,3159,1668677092,803276437,,7.973758028271018,-7.23947089006051,5.393380399182191,0.047951527209266265,-1.384591694115717,0.0
1668677092.8117034,3160,1668677092,811449766,,7.8366120937759,-7.539272526449787,5.496966048450256,0.052437986147955806,-1.4476616715150392,0.0
1668677092.8197515,3161,1668677092,819439403,,7.76384751393193,-7.69836105970686,5.551407300426,0.054738476417964865,-1.481061656163897,0.0
1668677092.8276937,3162,1668677092,827471666,,9.018829695416638,-6.093355321386763,5.36294438737545,0.263813672831815,-1.277228557829271,0.0
1668677092.8353221,3163,1668677092,835114628,,9.018829695416638,-6.093355321386763,5.36294438737545,0.263813672831815,-1.277228557829271,0.0
1668677092.8440006,3164,1668677092,843755813,,10.053247945049764,-4.8847589598674475,4.608276917889929,0.4499018759056769,-1.095886291790223,0.0
1668677092.8517804,3165,1668677092,851572274,,10.600579276107648,-4.245282506090083,4.208920475502795,0.5483762968873729,-0.9999262856353138,0.0
1668677092.8596692,3166,1668677092,859443477,,11.347586686066855,-4.162364670444644,2.226846420352213,0.7355350821753903,-1.030330344582353,0.0
1668677092.86766,3167,1668677092,867423984,,11.742693005650167,-4.118796171654993,1.1781750234288009,0.8345076979953028,-1.0464630767116752,0.0
1668677092.8753257,3168,1668677092,875127336,,11.742693005650167,-4.118796171654993,1.1781750234288009,0.8345076979953028,-1.0464630767116752,0.0
1668677092.8837087,3169,1668677092,883456599,,12.063952439696845,-4.085734289191503,0.6233462591514977,0.9018549159013395,-1.0525590138088314,0.0
1668677092.8916476,3170,1668677092,891395516,,12.10671453793772,-4.159815750863365,0.24816394669971548,0.945262409955427,-1.050640131860643,0.0
1668677092.8996062,3171,1668677092,899323291,,12.129370859284368,-4.198810576813473,0.049126793912077346,0.9682631984980732,-1.0495936202908072,0.0
1668677092.9077482,3172,1668677092,907558536,,12.402571332161509,-4.21803536141073,0.025991896450222606,1.0181137283910595,-1.0507453915787446,0.0
1668677092.915286,3173,1668677092,915114242,,12.402571332161509,-4.21803536141073,0.025991896450222606,1.0181137283910595,-1.0507453915787446,0.0
1668677092.9236968,3174,1668677092,923436442,,12.824503771176527,-4.075623437644163,0.013751735606605706,1.0943815618117314,-1.016300663549726,0.0
1668677092.9313884,3175,1668677092,931192903,,13.047758626228113,-4.000296840431391,0.007275738134620322,1.1347311758545269,-0.9980746985201236,0.0
1668677092.9396822,3176,1668677092,939436802,,13.3936149464778,-3.8605962838749637,0.003849431585794901,1.200031107139459,-0.966491606704873,0.0
1668677092.9476848,3177,1668677092,947480173,,13.576694949683741,-3.786367007952857,0.0020366488264889587,1.2346231841708426,-0.9497324595251789,0.0
1668677092.955272,3178,1668677092,955024277,,13.576694949683741,-3.786367007952857,0.0020366488264889587,1.2346231841708426,-0.9497324595251789,0.0
1668677092.963517,3179,1668677092,963251801,,12.709798745786028,-3.318313414484944,0.0010775456973298335,1.1087631460826524,-0.8678313772125208,0.0
1668677092.97167,3180,1668677092,971466184,,12.33857832016507,-3.0947877743696988,0.0005701055158515968,1.0617467852945697,-0.8277401658143883,0.0
1668677092.979554,3181,1668677092,979336072,,12.142269747681317,-2.975984023652831,0.0003016301768081095,1.0369415925076184,-0.8064464263586991,0.0
1668677092.9876075,3182,1668677092,987328908,,11.82332886896102,-2.67677454715977,0.1662911405391689,0.984989504145841,-0.7578519015348792,0.0
1668677092.995274,3183,1668677092,995079301,,11.82332886896102,-2.67677454715977,0.1662911405391689,0.984989504145841,-0.7578519015348792,0.0
1668677093.0038726,3184,1668677093,3633898,,11.683959621402089,-2.49221385903446,0.35284800619685774,0.9677107427139924,-0.7168631213903355,0.0
1668677093.0117717,3185,1668677093,11512196,,11.61040231181989,-2.394151958360007,0.4509809651041634,0.9586244464141611,-0.695113323422873,0.0
1668677093.0197163,3186,1668677093,19499162,,11.69789278442936,-2.1060672479732303,0.8318414139958354,0.9788576027702431,-0.6403871608927334,0.0
1668677093.0278974,3187,1668677093,27672292,,11.74423002852722,-1.9540784710080954,1.0325441462156193,0.9895158286630406,-0.6114932100890497,0.0
1668677093.0358384,3188,1668677093,35367799,,11.74423002852722,-1.9540784710080954,1.0325441462156193,0.9895158286630406,-0.6114932100890497,0.0
1668677093.0437107,3189,1668677093,43472972,,11.43099591402712,-1.6378519146895723,1.5467068355385085,0.9409769151269742,-0.5536533883226129,0.0
1668677093.0514913,3190,1668677093,51299912,,11.154785179662216,-1.190519580007478,2.25632608848833,0.9065009258265548,-0.4626951689115878,0.0
1668677093.0596168,3191,1668677093,59304504,,11.008697716426529,-0.953991582438802,2.631564578019482,0.8882593143364121,-0.414572113589908,0.0
1668677093.0679214,3192,1668677093,67738675,,10.601762084758874,-0.5804567710372898,3.2889427718116666,0.8263652296512434,-0.3336633249331083,0.0
1668677093.075323,3193,1668677093,75052014,,10.601762084758874,-0.5804567710372898,3.2889427718116666,0.8263652296512434,-0.3336633249331083,0.0
1668677093.0834997,3194,1668677093,83310080,,10.394940156379384,-0.36834443881582274,3.7968710921627524,0.8000699003663911,-0.27667795710329135,0.0
1668677093.0915139,3195,1668677093,91335916,,10.285494715126482,-0.2556455420213187,4.065747376336097,0.786218935622307,-0.24643888282158782,0.0
1668677093.0998878,3196,1668677093,99637369,,10.250573354713914,-0.1352563830660565,4.360013417586811,0.7868420579506492,-0.20933305935190116,0.0
1668677093.1076722,3197,1668677093,107447891,,10.231787220896859,-0.0715611507068104,4.516341042136793,0.7871747199568249,-0.18970070618297707,0.0
1668677093.1154106,3198,1668677093,115205911,,10.231787220896859,-0.0715611507068104,4.516341042136793,0.7871747199568249,-0.18970070618297707,0.0
1668677093.1238015,3199,1668677093,123550390,,9.929371579536792,-0.03786141677307635,4.766574252611761,0.7409457730141189,-0.14690518025632418,0.0
1668677093.1321723,3200,1668677093,131886233,,9.717770292333984,-0.020031635404210504,4.708039026438479,0.7234284924133764,-0.09815702883260807,0.0
1668677093.1399577,3201,1668677093,139672787,,9.60601634452048,-0.010598293755678063,4.676694309316916,0.714122305919648,-0.07242570686497915,0.0
1668677093.147656,3202,1668677093,147449523,,9.598360127423714,-0.005607322031631775,4.391059902005017,0.7212253746409134,-0.03831883425036464,0.0
1668677093.1559503,3203,1668677093,155365104,,9.598360127423714,-0.005607322031631775,4.391059902005017,0.7212253746409134,-0.03831883425036464,0.0
1668677093.1640084,3204,1668677093,163769252,,9.681682245178308,-0.0029667096507471243,4.114091152502628,0.7408737837183029,-0.020273644840557555,0.0
1668677093.1716988,3205,1668677093,171503627,,9.72563725362436,-0.001569620239784027,3.9678191489411643,0.7512452392308728,-0.010726335577840671,0.0
1668677093.1794584,3206,1668677093,179284348,,9.64385638307312,0.10736090484267581,3.6978222383683366,0.7472386840989887,-0.005675066118268174,0.0
1668677093.1881952,3207,1668677093,187943844,,9.600576543546925,0.16497541277637098,3.555005325111702,0.7451282884843244,-0.00300255154362781,0.0
1668677093.1953287,3208,1668677093,195139276,,9.600576543546925,0.16497541277637098,3.555005325111702,0.7451282884843244,-0.00300255154362781,0.0
