Time,header.seq,header.stamp.secs,header.stamp.nsecs,header.frame_id,pose.position.x,pose.position.y,pose.position.z,pose.orientation.x,pose.orientation.y,pose.orientation.z,pose.orientation.w
1668677088.8280554,2662,1668677088,827922073,,-0.09527882848404937,-0.6129483043652589,0.0636631118727597,0.9955576671932305,0.0935515442942534,-0.0043455197969668145,0.009703417471568016
1668677088.8352945,2663,1668677088,835079320,,-0.09527882848404937,-0.6129483043652589,0.0636631118727597,0.9955576671932305,0.0935515442942534,-0.0043455197969668145,0.009703417471568016
1668677088.8439796,2664,1668677088,843816648,,-0.09527882848404937,-0.6129483043652589,0.0636631118727597,0.9955576671932305,0.0935515442942534,-0.0043455197969668145,0.009703417471568016
1668677088.8516538,2665,1668677088,851459980,,-0.09527882848404937,-0.6129483043652589,0.0636631118727597,0.9955576671932305,0.0935515442942534,-0.0043455197969668145,0.009703417471568016
1668677088.859635,2666,1668677088,859518389,,-0.09527882848404937,-0.6129483043652589,0.0636631118727597,0.9955576671932305,0.0935515442942534,-0.0043455197969668145,0.009703417471568016
1668677088.8675234,2667,1668677088,867398778,,-0.09527882848404937,-0.6129483043652589,0.0636631118727597,0.9955576671932305,0.0935515442942534,-0.0043455197969668145,0.009703417471568016
1668677088.8755221,2668,1668677088,875265594,,-0.09527882848404937,-0.6129483043652589,0.0636631118727597,0.9955576671932305,0.0935515442942534,-0.0043455197969668145,0.009703417471568016
1668677088.8834329,2669,1668677088,883311077,,-0.09527882848404937,-0.6129483043652589,0.0636631118727597,0.9955576671932305,0.0935515442942534,-0.0043455197969668145,0.009703417471568016
1668677088.8915048,2670,1668677088,891365335,,-0.09527882848404937,-0.6129483043652589,0.0636631118727597,0.9955576671932305,0.0935515442942534,-0.0043455197969668145,0.009703417471568016
1668677088.8996317,2671,1668677088,899384633,,-0.09527882848404937,-0.6129483043652589,0.0636631118727597,0.9955576671932305,0.0935515442942534,-0.0043455197969668145,0.009703417471568016
1668677088.907753,2672,1668677088,907598558,,-0.09527882848404937,-0.6129483043652589,0.0636631118727597,0.9955576671932305,0.0935515442942534,-0.0043455197969668145,0.009703417471568016
1668677088.9153001,2673,1668677088,915131635,,-0.09527882848404937,-0.6129483043652589,0.0636631118727597,0.9955576671932305,0.0935515442942534,-0.0043455197969668145,0.009703417471568016
1668677088.9236612,2674,1668677088,923456138,,-0.09527882848404937,-0.6129483043652589,0.0636631118727597,0.9955576671932305,0.0935515442942534,-0.0043455197969668145,0.009703417471568016
1668677088.931527,2675,1668677088,931374413,,-0.09527882848404937,-0.6129483043652589,0.0636631118727597,0.9955576671932305,0.0935515442942534,-0.0043455197969668145,0.009703417471568016
1668677088.9397125,2676,1668677088,939523012,,-0.09527882848404937,-0.6129483043652589,0.0636631118727597,0.9955576671932305,0.0935515442942534,-0.0043455197969668145,0.009703417471568016
1668677088.947838,2677,1668677088,947661922,,-0.09527882848404937,-0.6129483043652589,0.0636631118727597,0.9955576671932305,0.0935515442942534,-0.0043455197969668145,0.009703417471568016
1668677088.9553201,2678,1668677088,955079229,,-0.09527882848404937,-0.6129483043652589,0.0636631118727597,0.9955576671932305,0.0935515442942534,-0.0043455197969668145,0.009703417471568016
1668677088.9640517,2679,1668677088,963896696,,-0.09527882848404937,-0.6129483043652589,0.0636631118727597,0.9955576671932305,0.0935515442942534,-0.0043455197969668145,0.009703417471568016
1668677088.9717095,2680,1668677088,971426730,,-0.09527882848404937,-0.6129483043652589,0.0636631118727597,0.9955576671932305,0.0935515442942534,-0.0043455197969668145,0.009703417471568016
1668677088.9795027,2681,1668677088,979259896,,-0.09527882848404937,-0.6129483043652589,0.0636631118727597,0.9955576671932305,0.0935515442942534,-0.0043455197969668145,0.009703417471568016
1668677088.9875944,2682,1668677088,987435121,,-0.09527882848404937,-0.6129483043652589,0.0636631118727597,0.9955576671932305,0.0935515442942534,-0.0043455197969668145,0.009703417471568016
1668677088.995326,2683,1668677088,995148836,,-0.09527882848404937,-0.6129483043652589,0.0636631118727597,0.9955576671932305,0.0935515442942534,-0.0043455197969668145,0.009703417471568016
1668677089.003619,2684,1668677089,3498058,,-0.09527882848404937,-0.6129483043652589,0.0636631118727597,0.9955576671932305,0.0935515442942534,-0.0043455197969668145,0.009703417471568016
1668677089.011667,2685,1668677089,11471951,,-0.09527882848404937,-0.6129483043652589,0.0636631118727597,0.9955576671932305,0.0935515442942534,-0.0043455197969668145,0.009703417471568016
1668677089.0194862,2686,1668677089,19307371,,-0.09527882848404937,-0.6129483043652589,0.0636631118727597,0.9955576671932305,0.0935515442942534,-0.0043455197969668145,0.009703417471568016
1668677089.0277367,2687,1668677089,27508880,,-0.09527882848404937,-0.6129483043652589,0.0636631118727597,0.9955576671932305,0.0935515442942534,-0.0043455197969668145,0.009703417471568016
1668677089.0354726,2688,1668677089,35268739,,-0.09527882848404937,-0.6129483043652589,0.0636631118727597,0.9955576671932305,0.0935515442942534,-0.0043455197969668145,0.009703417471568016
1668677089.0435462,2689,1668677089,43333190,,-0.09527882848404937,-0.6129483043652589,0.0636631118727597,0.9955576671932305,0.0935515442942534,-0.0043455197969668145,0.009703417471568016
1668677089.0516357,2690,1668677089,51437091,,-0.09527882848404937,-0.6129483043652589,0.0636631118727597,0.9955576671932305,0.0935515442942534,-0.0043455197969668145,0.009703417471568016
1668677089.0596838,2691,1668677089,59464740,,-0.09527882848404937,-0.6129483043652589,0.0636631118727597,0.9955576671932305,0.0935515442942534,-0.0043455197969668145,0.009703417471568016
1668677089.0678763,2692,1668677089,67691863,,-0.09527882848404937,-0.6129483043652589,0.0636631118727597,0.9955576671932305,0.0935515442942534,-0.0043455197969668145,0.009703417471568016
1668677089.0752726,2693,1668677089,75108600,,-0.09527882848404937,-0.6129483043652589,0.0636631118727597,0.9955576671932305,0.0935515442942534,-0.0043455197969668145,0.009703417471568016
1668677089.0837235,2694,1668677089,83526381,,-0.09527882848404937,-0.6129483043652589,0.0636631118727597,0.9955576671932305,0.0935515442942534,-0.0043455197969668145,0.009703417471568016
1668677089.0916643,2695,1668677089,91527483,,-0.09527882848404937,-0.6129483043652589,0.0636631118727597,0.9955576671932305,0.0935515442942534,-0.0043455197969668145,0.009703417471568016
1668677089.0996976,2696,1668677089,99530525,,-0.09527882848404937,-0.6129483043652589,0.0636631118727597,0.9955576671932305,0.0935515442942534,-0.0043455197969668145,0.009703417471568016
1668677089.1075914,2697,1668677089,107433058,,-0.09527882848404937,-0.6129483043652589,0.0636631118727597,0.9955576671932305,0.0935515442942534,-0.0043455197969668145,0.009703417471568016
1668677089.1154654,2698,1668677089,115233312,,-0.09527882848404937,-0.6129483043652589,0.0636631118727597,0.9955576671932305,0.0935515442942534,-0.0043455197969668145,0.009703417471568016
1668677089.123571,2699,1668677089,123398687,,-0.09527882848404937,-0.6129483043652589,0.0636631118727597,0.9955576671932305,0.0935515442942534,-0.0043455197969668145,0.009703417471568016
1668677089.1316671,2700,1668677089,131494894,,-0.09527882848404937,-0.6129483043652589,0.0636631118727597,0.9955576671932305,0.0935515442942534,-0.0043455197969668145,0.009703417471568016
1668677089.1395888,2701,1668677089,139328734,,-0.09527882848404937,-0.6129483043652589,0.0636631118727597,0.9955576671932305,0.0935515442942534,-0.0043455197969668145,0.009703417471568016
1668677089.1476388,2702,1668677089,147478934,,-0.09527882848404937,-0.6129483043652589,0.0636631118727597,0.9955576671932305,0.0935515442942534,-0.0043455197969668145,0.009703417471568016
1668677089.1553783,2703,1668677089,155205715,,-0.09527882848404937,-0.6129483043652589,0.0636631118727597,0.9955576671932305,0.0935515442942534,-0.0043455197969668145,0.009703417471568016
1668677089.1636395,2704,1668677089,163503654,,-0.09527882848404937,-0.6129483043652589,0.0636631118727597,0.9955576671932305,0.0935515442942534,-0.0043455197969668145,0.009703417471568016
1668677089.1716726,2705,1668677089,171532425,,-0.09527882848404937,-0.6129483043652589,0.0636631118727597,0.9955576671932305,0.0935515442942534,-0.0043455197969668145,0.009703417471568016
1668677089.1796165,2706,1668677089,179404344,,-0.09527882848404937,-0.6129483043652589,0.0636631118727597,0.9955576671932305,0.0935515442942534,-0.0043455197969668145,0.009703417471568016
1668677089.1878808,2707,1668677089,187588975,,-0.09527882848404937,-0.6129483043652589,0.0636631118727597,0.9955576671932305,0.0935515442942534,-0.0043455197969668145,0.009703417471568016
1668677089.1956146,2708,1668677089,195434727,,-0.09527882848404937,-0.6129483043652589,0.0636631118727597,0.9955576671932305,0.0935515442942534,-0.0043455197969668145,0.009703417471568016
1668677089.2037556,2709,1668677089,203561575,,-0.09527882848404937,-0.6129483043652589,0.0636631118727597,0.9955576671932305,0.0935515442942534,-0.0043455197969668145,0.009703417471568016
1668677089.2119155,2710,1668677089,211645941,,-0.09527882848404937,-0.6129483043652589,0.0636631118727597,0.9955576671932305,0.0935515442942534,-0.0043455197969668145,0.009703417471568016
1668677089.2196848,2711,1668677089,219501591,,-0.09527882848404937,-0.6129483043652589,0.0636631118727597,0.9955576671932305,0.0935515442942534,-0.0043455197969668145,0.009703417471568016
1668677089.2278028,2712,1668677089,227621485,,-0.09527882848404937,-0.6129483043652589,0.0636631118727597,0.9955576671932305,0.0935515442942534,-0.0043455197969668145,0.009703417471568016
1668677089.235561,2713,1668677089,235356177,,-0.09527882848404937,-0.6129483043652589,0.0636631118727597,0.9955576671932305,0.0935515442942534,-0.0043455197969668145,0.009703417471568016
1668677089.2435064,2714,1668677089,243321327,,-0.09527882848404937,-0.6129483043652589,0.0636631118727597,0.9955576671932305,0.0935515442942534,-0.0043455197969668145,0.009703417471568016
1668677089.2515752,2715,1668677089,251416300,,-0.09527882848404937,-0.6129483043652589,0.0636631118727597,0.9955576671932305,0.0935515442942534,-0.0043455197969668145,0.009703417471568016
1668677089.2598488,2716,1668677089,259691406,,-0.09527882848404937,-0.6129483043652589,0.0636631118727597,0.9955576671932305,0.0935515442942534,-0.0043455197969668145,0.009703417471568016
1668677089.2676408,2717,1668677089,267485646,,-0.09527882848404937,-0.6129483043652589,0.0636631118727597,0.9955576671932305,0.0935515442942534,-0.0043455197969668145,0.009703417471568016
1668677089.2753565,2718,1668677089,275153319,,-0.09527882848404937,-0.6129483043652589,0.0636631118727597,0.9955576671932305,0.0935515442942534,-0.0043455197969668145,0.009703417471568016
1668677089.283635,2719,1668677089,283379601,,-0.09527882848404937,-0.6129483043652589,0.0636631118727597,0.9955576671932305,0.0935515442942534,-0.0043455197969668145,0.009703417471568016
1668677089.2916472,2720,1668677089,291501005,,-0.09527882848404937,-0.6129483043652589,0.0636631118727597,0.9955576671932305,0.0935515442942534,-0.0043455197969668145,0.009703417471568016
1668677089.2995753,2721,1668677089,299410853,,-0.09527882848404937,-0.6129483043652589,0.0636631118727597,0.9955576671932305,0.0935515442942534,-0.0043455197969668145,0.009703417471568016
1668677089.3075533,2722,1668677089,307395439,,-0.09527882848404937,-0.6129483043652589,0.0636631118727597,0.9955576671932305,0.0935515442942534,-0.0043455197969668145,0.009703417471568016
1668677089.3152633,2723,1668677089,315056260,,-0.09527882848404937,-0.6129483043652589,0.0636631118727597,0.9955576671932305,0.0935515442942534,-0.0043455197969668145,0.009703417471568016
1668677089.3236494,2724,1668677089,323447932,,-0.09527882848404937,-0.6129483043652589,0.0636631118727597,0.9955576671932305,0.0935515442942534,-0.0043455197969668145,0.009703417471568016
1668677089.3314471,2725,1668677089,331319320,,-0.09527882848404937,-0.6129483043652589,0.0636631118727597,0.9955576671932305,0.0935515442942534,-0.0043455197969668145,0.009703417471568016
1668677089.3396907,2726,1668677089,339455293,,-0.09527882848404937,-0.6129483043652589,0.0636631118727597,0.9955576671932305,0.0935515442942534,-0.0043455197969668145,0.009703417471568016
1668677089.3476162,2727,1668677089,347412540,,-0.09527882848404937,-0.6129483043652589,0.0636631118727597,0.9955576671932305,0.0935515442942534,-0.0043455197969668145,0.009703417471568016
1668677089.355483,2728,1668677089,355349430,,-0.09527882848404937,-0.6129483043652589,0.0636631118727597,0.9955576671932305,0.0935515442942534,-0.0043455197969668145,0.009703417471568016
1668677089.363521,2729,1668677089,363304985,,-0.09527882848404937,-0.6129483043652589,0.0636631118727597,0.9955576671932305,0.0935515442942534,-0.0043455197969668145,0.009703417471568016
1668677089.371595,2730,1668677089,371355310,,-0.09527882848404937,-0.6129483043652589,0.0636631118727597,0.9955576671932305,0.0935515442942534,-0.0043455197969668145,0.009703417471568016
1668677089.379763,2731,1668677089,379492538,,-0.09527882848404937,-0.6129483043652589,0.0636631118727597,0.9955576671932305,0.0935515442942534,-0.0043455197969668145,0.009703417471568016
1668677089.387847,2732,1668677089,387673231,,-0.09527882848404937,-0.6129483043652589,0.0636631118727597,0.9955576671932305,0.0935515442942534,-0.0043455197969668145,0.009703417471568016
1668677089.3953536,2733,1668677089,395224577,,-0.09527882848404937,-0.6129483043652589,0.0636631118727597,0.9955576671932305,0.0935515442942534,-0.0043455197969668145,0.009703417471568016
1668677089.4035366,2734,1668677089,403370945,,-0.09527882848404937,-0.6129483043652589,0.0636631118727597,0.9955576671932305,0.0935515442942534,-0.0043455197969668145,0.009703417471568016
1668677089.4116244,2735,1668677089,411412571,,-0.09527882848404937,-0.6129483043652589,0.0636631118727597,0.9955576671932305,0.0935515442942534,-0.0043455197969668145,0.009703417471568016
1668677089.4198215,2736,1668677089,419652069,,-0.09527882848404937,-0.6129483043652589,0.0636631118727597,0.9955576671932305,0.0935515442942534,-0.0043455197969668145,0.009703417471568016
1668677089.427552,2737,1668677089,427423091,,-0.09527882848404937,-0.6129483043652589,0.0636631118727597,0.9955576671932305,0.0935515442942534,-0.0043455197969668145,0.009703417471568016
1668677089.4354036,2738,1668677089,435220213,,-0.09527882848404937,-0.6129483043652589,0.0636631118727597,0.9955576671932305,0.0935515442942534,-0.0043455197969668145,0.009703417471568016
1668677089.4439738,2739,1668677089,443823719,,-0.09527882848404937,-0.6129483043652589,0.0636631118727597,0.9955576671932305,0.0935515442942534,-0.0043455197969668145,0.009703417471568016
1668677089.4517865,2740,1668677089,451640688,,-0.09527882848404937,-0.6129483043652589,0.0636631118727597,0.9955576671932305,0.0935515442942534,-0.0043455197969668145,0.009703417471568016
1668677089.4597442,2741,1668677089,459482676,,-0.09527882848404937,-0.6129483043652589,0.0636631118727597,0.9955576671932305,0.0935515442942534,-0.0043455197969668145,0.009703417471568016
1668677089.4675288,2742,1668677089,467295546,,-0.09527882848404937,-0.6129483043652589,0.0636631118727597,0.9955576671932305,0.0935515442942534,-0.0043455197969668145,0.009703417471568016
1668677089.4751318,2743,1668677089,475001476,,-0.09527882848404937,-0.6129483043652589,0.0636631118727597,0.9955576671932305,0.0935515442942534,-0.0043455197969668145,0.009703417471568016
1668677089.4836726,2744,1668677089,483522672,,-0.09527882848404937,-0.6129483043652589,0.0636631118727597,0.9955576671932305,0.0935515442942534,-0.0043455197969668145,0.009703417471568016
1668677089.4915524,2745,1668677089,491306837,,-0.09527882848404937,-0.6129483043652589,0.0636631118727597,0.9955576671932305,0.0935515442942534,-0.0043455197969668145,0.009703417471568016
1668677089.4995427,2746,1668677089,499373167,,-0.09527882848404937,-0.6129483043652589,0.0636631118727597,0.9955576671932305,0.0935515442942534,-0.0043455197969668145,0.009703417471568016
1668677089.5076122,2747,1668677089,507415312,,-0.09527882848404937,-0.6129483043652589,0.0636631118727597,0.9955576671932305,0.0935515442942534,-0.0043455197969668145,0.009703417471568016
1668677089.5154219,2748,1668677089,515288804,,-0.09527882848404937,-0.6129483043652589,0.0636631118727597,0.9955576671932305,0.0935515442942534,-0.0043455197969668145,0.009703417471568016
1668677089.5237336,2749,1668677089,523595512,,-0.09527882848404937,-0.6129483043652589,0.0636631118727597,0.9955576671932305,0.0935515442942534,-0.0043455197969668145,0.009703417471568016
1668677089.5315557,2750,1668677089,531407590,,-0.09527882848404937,-0.6129483043652589,0.0636631118727597,0.9955576671932305,0.0935515442942534,-0.0043455197969668145,0.009703417471568016
1668677089.5396075,2751,1668677089,539439988,,-0.09527882848404937,-0.6129483043652589,0.0636631118727597,0.9955576671932305,0.0935515442942534,-0.0043455197969668145,0.009703417471568016
1668677089.5476866,2752,1668677089,547523026,,-0.09527882848404937,-0.6129483043652589,0.0636631118727597,0.9955576671932305,0.0935515442942534,-0.0043455197969668145,0.009703417471568016
1668677089.5552423,2753,1668677089,555036087,,-0.09527882848404937,-0.6129483043652589,0.0636631118727597,0.9955576671932305,0.0935515442942534,-0.0043455197969668145,0.009703417471568016
1668677089.5637753,2754,1668677089,563570539,,-0.09527882848404937,-0.6129483043652589,0.0636631118727597,0.9955576671932305,0.0935515442942534,-0.0043455197969668145,0.009703417471568016
1668677089.5714834,2755,1668677089,571328744,,-0.09527882848404937,-0.6129483043652589,0.0636631118727597,0.9955576671932305,0.0935515442942534,-0.0043455197969668145,0.009703417471568016
1668677089.5797224,2756,1668677089,579592957,,-0.09527882848404937,-0.6129483043652589,0.0636631118727597,0.9955576671932305,0.0935515442942534,-0.0043455197969668145,0.009703417471568016
1668677089.5878658,2757,1668677089,587575830,,-0.09527882848404937,-0.6129483043652589,0.0636631118727597,0.9955576671932305,0.0935515442942534,-0.0043455197969668145,0.009703417471568016
1668677089.5953977,2758,1668677089,595218503,,-0.09527882848404937,-0.6129483043652589,0.0636631118727597,0.9955576671932305,0.0935515442942534,-0.0043455197969668145,0.009703417471568016
1668677089.603455,2759,1668677089,603211071,,-0.09527882848404937,-0.6129483043652589,0.0636631118727597,0.9955576671932305,0.0935515442942534,-0.0043455197969668145,0.009703417471568016
1668677089.611591,2760,1668677089,611461669,,-0.09527882848404937,-0.6129483043652589,0.0636631118727597,0.9955576671932305,0.0935515442942534,-0.0043455197969668145,0.009703417471568016
1668677089.6193752,2761,1668677089,619222836,,-0.09527882848404937,-0.6129483043652589,0.0636631118727597,0.9955576671932305,0.0935515442942534,-0.0043455197969668145,0.009703417471568016
1668677089.6276422,2762,1668677089,627465877,,-0.09527882848404937,-0.6129483043652589,0.0636631118727597,0.9955576671932305,0.0935515442942534,-0.0043455197969668145,0.009703417471568016
1668677089.6351871,2763,1668677089,635053849,,-0.09527882848404937,-0.6129483043652589,0.0636631118727597,0.9955576671932305,0.0935515442942534,-0.0043455197969668145,0.009703417471568016
1668677089.6436226,2764,1668677089,643439297,,-0.09527882848404937,-0.6129483043652589,0.0636631118727597,0.9955576671932305,0.0935515442942534,-0.0043455197969668145,0.009703417471568016
1668677089.6515257,2765,1668677089,651381340,,-0.09527882848404937,-0.6129483043652589,0.0636631118727597,0.9955576671932305,0.0935515442942534,-0.0043455197969668145,0.009703417471568016
1668677089.6596415,2766,1668677089,659445373,,-0.09527882848404937,-0.6129483043652589,0.0636631118727597,0.9955576671932305,0.0935515442942534,-0.0043455197969668145,0.009703417471568016
1668677089.6674984,2767,1668677089,667322214,,-0.09527882848404937,-0.6129483043652589,0.0636631118727597,0.9955576671932305,0.0935515442942534,-0.0043455197969668145,0.009703417471568016
1668677089.675405,2768,1668677089,675254732,,-0.09527882848404937,-0.6129483043652589,0.0636631118727597,0.9955576671932305,0.0935515442942534,-0.0043455197969668145,0.009703417471568016
1668677089.6835275,2769,1668677089,683388079,,-0.09527754938550045,-0.6129498112677356,0.0636631118727597,0.9955576671932305,0.0935515442942534,-0.0043455197969668145,0.009703417471568016
1668677089.6917706,2770,1668677089,691488397,,-0.09527371211603118,-0.6129543319443245,0.0636631118727597,0.9955576671932305,0.0935515442942534,-0.0043455197969668145,0.009703417471568016
1668677089.6994867,2771,1668677089,699334480,,-0.0952673167541735,-0.6129618663024935,0.0636631118727597,0.9955576671932305,0.0935515442942534,-0.0043455197969668145,0.009703417471568016
1668677089.7079825,2772,1668677089,707665949,,-0.09525836343081219,-0.6129724141879945,0.0636631118727597,0.9955576671932305,0.0935515442942534,-0.0043455197969668145,0.009703417471568016
1668677089.715601,2773,1668677089,715343837,,-0.09524685232918215,-0.6129859753848208,0.0636631118727597,0.9955576671932305,0.0935515442942534,-0.0043455197969668145,0.009703417471568016
1668677089.723605,2774,1668677089,723363501,,-0.09523278368486472,-0.613002549615147,0.0636631118727597,0.9955576671932305,0.0935515442942534,-0.0043455197969668145,0.009703417471568016
1668677089.7316751,2775,1668677089,731472963,,-0.09521615778578284,-0.6130221365392537,0.0636631118727597,0.9955576671932305,0.0935515442942534,-0.0043455197969668145,0.009703417471568016
1668677089.7398393,2776,1668677089,739675758,,-0.0951969749721951,-0.6130447357554335,0.0636631118727597,0.9955576671932305,0.0935515442942534,-0.0043455197969668145,0.009703417471568016
1668677089.7475755,2777,1668677089,747413282,,-0.09517523563668888,-0.6130703467998813,0.0636631118727597,0.9955576671932305,0.0935515442942534,-0.0043455197969668145,0.009703417471568016
1668677089.7553816,2778,1668677089,755211696,,-0.09515094022417217,-0.6130989691465665,0.0636631118727597,0.9955576671932305,0.0935515442942534,-0.0043455197969668145,0.009703417471568016
1668677089.7636325,2779,1668677089,763478599,,-0.09512408923186465,-0.6131306022070903,0.0636631118727597,0.9955576671932305,0.0935515442942534,-0.0043455197969668145,0.009703417471568016
1668677089.7717917,2780,1668677089,771659701,,-0.09509468320928732,-0.6131652453305241,0.0636631118727597,0.9955576671932305,0.0935515442942534,-0.0043455197969668145,0.009703417471568016
1668677089.779667,2781,1668677089,779513147,,-0.09506272275825142,-0.6132028978032323,0.0636631118727597,0.9955576671932305,0.0935515442942534,-0.0043455197969668145,0.009703417471568016
1668677089.7878664,2782,1668677089,787645725,,-0.09502820853284602,-0.6132435588486791,0.0636631118727597,0.9955576671932305,0.0935515442942534,-0.0043455197969668145,0.009703417471568016
1668677089.7953176,2783,1668677089,795117425,,-0.09499114123942463,-0.6132872276272165,0.0636631118727597,0.9955576671932305,0.0935515442942534,-0.0043455197969668145,0.009703417471568016
1668677089.8041961,2784,1668677089,804041971,,-0.0949515216365908,-0.6133339032358582,0.0636631118727597,0.9955576671932305,0.0935515442942534,-0.0043455197969668145,0.009703417471568016
1668677089.8116233,2785,1668677089,811416591,,-0.09490935053518255,-0.6133835847080358,0.0636631118727597,0.9955576671932305,0.0935515442942534,-0.0043455197969668145,0.009703417471568016
1668677089.819589,2786,1668677089,819479398,,-0.0948646287982558,-0.613436271013338,0.0636631118727597,0.9955576671932305,0.0935515442942534,-0.0043455197969668145,0.009703417471568016
1668677089.827603,2787,1668677089,827480859,,-0.0948173573410667,-0.613491961057235,0.0636631118727597,0.9955576671932305,0.0935515442942534,-0.0043455197969668145,0.009703417471568016
1668677089.8356302,2788,1668677089,835423431,,-0.09476753713105285,-0.6135506536807857,0.0636631118727597,0.9955576671932305,0.0935515442942534,-0.0043455197969668145,0.009703417471568016
1668677089.843639,2789,1668677089,843430331,,-0.09471516918781361,-0.6136123476603287,0.0636631118727597,0.9955576671932305,0.0935515442942534,-0.0043455197969668145,0.009703417471568016
1668677089.851489,2790,1668677089,851358996,,-0.09466025458308916,-0.6136770417071575,0.0636631118727597,0.9955576671932305,0.0935515442942534,-0.0043455197969668145,0.009703417471568016
1668677089.8595018,2791,1668677089,859314945,,-0.09460279444073852,-0.6137447344671803,0.0636631118727597,0.9955576671932305,0.0935515442942534,-0.0043455197969668145,0.009703417471568016
1668677089.8679097,2792,1668677089,867728559,,-0.09454278993671668,-0.6138154245205624,0.0636631118727597,0.9955576671932305,0.0935515442942534,-0.0043455197969668145,0.009703417471568016
1668677089.8753378,2793,1668677089,875146499,,-0.0944802422990504,-0.6138891103813546,0.0636631118727597,0.9955576671932305,0.0935515442942534,-0.0043455197969668145,0.009703417471568016
1668677089.8836737,2794,1668677089,883547831,,-0.09441515280781318,-0.6139657904971053,0.0636631118727597,0.9955576671932305,0.0935515442942534,-0.0043455197969668145,0.009703417471568016
1668677089.8915842,2795,1668677089,891352037,,-0.09434752279509899,-0.6140454632484563,0.0636631118727597,0.9955576671932305,0.0935515442942534,-0.0043455197969668145,0.009703417471568016
1668677089.8997738,2796,1668677089,899611309,,-0.09427735364499505,-0.6141281269487247,0.0636631118727597,0.9955576671932305,0.0935515442942534,-0.0043455197969668145,0.009703417471568016
1668677089.9075053,2797,1668677089,907376908,,-0.09420464679355349,-0.6142137798434685,0.0636631118727597,0.9955576671932305,0.0935515442942534,-0.0043455197969668145,0.009703417471568016
1668677089.9153502,2798,1668677089,915146063,,-0.09412940372876195,-0.6143024201100374,0.0636631118727597,0.9955576671932305,0.0935515442942534,-0.0043455197969668145,0.009703417471568016
1668677089.9237626,2799,1668677089,923556735,,-0.09405162599051317,-0.6143940458571091,0.0636631118727597,0.9955576671932305,0.0935515442942534,-0.0043455197969668145,0.009703417471568016
1668677089.9316893,2800,1668677089,931508395,,-0.0939713151705734,-0.6144886551242094,0.0636631118727597,0.9955576671932305,0.0935515442942534,-0.0043455197969668145,0.009703417471568016
1668677089.9395907,2801,1668677089,939480058,,-0.09388847291254993,-0.6145862458812196,0.0636631118727597,0.9955576671932305,0.0935515442942534,-0.0043455197969668145,0.009703417471568016
1668677089.9474082,2802,1668677089,947293537,,-0.09380310091185731,-0.6146868160278676,0.0636631118727597,0.9955576671932305,0.0935515442942534,-0.0043455197969668145,0.009703417471568016
1668677089.9553578,2803,1668677089,955099813,,-0.09371520091568279,-0.614790363393206,0.0636631118727597,0.9955576671932305,0.0935515442942534,-0.0043455197969668145,0.009703417471568016
1668677089.9637754,2804,1668677089,963507237,,-0.09362477472295051,-0.6148968857350752,0.0636631118727597,0.9955576671932305,0.0935515442942534,-0.0043455197969668145,0.009703417471568016
1668677089.9716723,2805,1668677089,971451415,,-0.09353182418428463,-0.6150063807395524,0.0636631118727597,0.9955576671932305,0.0935515442942534,-0.0043455197969668145,0.009703417471568016
1668677089.9796076,2806,1668677089,979468329,,-0.09343635120197157,-0.6151188460203872,0.0636631118727597,0.9955576671932305,0.0935515442942534,-0.0043455197969668145,0.009703417471568016
1668677089.987511,2807,1668677089,987339603,,-0.09333835772992094,-0.6152342791184242,0.0636631118727597,0.9955576671932305,0.0935515442942534,-0.0043455197969668145,0.009703417471568016
1668677089.9958298,2808,1668677089,995605987,,-0.09323784577362569,-0.6153526775010099,0.0636631118727597,0.9955576671932305,0.0935515442942534,-0.0043455197969668145,0.009703417471568016
1668677090.0034678,2809,1668677090,3320779,,-0.09313481739012099,-0.6154740385613888,0.0636631118727597,0.9955576671932305,0.0935515442942534,-0.0043455197969668145,0.009703417471568016
1668677090.0114574,2810,1668677090,11325828,,-0.09302927468794212,-0.6155983596180853,0.0636631118727597,0.9955576671932305,0.0935515442942534,-0.0043455197969668145,0.009703417471568016
1668677090.0195446,2811,1668677090,19353204,,-0.09292121982708135,-0.6157256379142719,0.0636631118727597,0.9955576671932305,0.0935515442942534,-0.0043455197969668145,0.009703417471568016
1668677090.0274937,2812,1668677090,27281660,,-0.09281065501894373,-0.6158558706171269,0.0636631118727597,0.9955576671932305,0.0935515442942534,-0.0043455197969668145,0.009703417471568016
1668677090.0352788,2813,1668677090,35124472,,-0.09269758252630185,-0.6159890548171769,0.0636631118727597,0.9955576671932305,0.0935515442942534,-0.0043455197969668145,0.009703417471568016
1668677090.0438485,2814,1668677090,43700536,,-0.09258200466324946,-0.6161251875276292,0.0636631118727597,0.9955576671932305,0.0935515442942534,-0.0043455197969668145,0.009703417471568016
1668677090.0516884,2815,1668677090,51396227,,-0.09246392379515422,-0.6162642656836913,0.0636631118727597,0.9955576671932305,0.0935515442942534,-0.0043455197969668145,0.009703417471568016
1668677090.0596757,2816,1668677090,59416111,,-0.09234334233860919,-0.6164062861418784,0.0636631118727597,0.9955576671932305,0.0935515442942534,-0.0043455197969668145,0.009703417471568016
1668677090.0677025,2817,1668677090,67485304,,-0.09222026276138344,-0.6165512456793095,0.0636631118727597,0.9955576671932305,0.0935515442942534,-0.0043455197969668145,0.009703417471568016
1668677090.0754561,2818,1668677090,75254189,,-0.09209468758237148,-0.6166991409929924,0.0636631118727597,0.9955576671932305,0.0935515442942534,-0.0043455197969668145,0.009703417471568016
1668677090.0834866,2819,1668677090,83333949,,-0.0919666193715418,-0.6168499686990967,0.0636631118727597,0.9955576671932305,0.0935515442942534,-0.0043455197969668145,0.009703417471568016
1668677090.0958714,2820,1668677090,95499679,,-0.09183606074988421,-0.6170037253322173,0.0636631118727597,0.9955576671932305,0.0935515442942534,-0.0043455197969668145,0.009703417471568016
1668677090.101742,2821,1668677090,101292051,,-0.09170301438935617,-0.6171604073446256,0.0636631118727597,0.9955576671932305,0.0935515442942534,-0.0043455197969668145,0.009703417471568016
1668677090.1081805,2822,1668677090,107912801,,-0.09156748301282822,-0.6173200111055119,0.0636631118727597,0.9955576671932305,0.0935515442942534,-0.0043455197969668145,0.009703417471568016
1668677090.1155531,2823,1668677090,115308334,,-0.09142946939402814,-0.617482532900216,0.0636631118727597,0.9955576671932305,0.0935515442942534,-0.0043455197969668145,0.009703417471568016
1668677090.1236358,2824,1668677090,123427668,,-0.09128897635748426,-0.6176479689294494,0.0636631118727597,0.9955576671932305,0.0935515442942534,-0.0043455197969668145,0.009703417471568016
1668677090.1315868,2825,1668677090,131367871,,-0.09114600677846757,-0.6178163153085068,0.0636631118727597,0.9955576671932305,0.0935515442942534,-0.0043455197969668145,0.009703417471568016
1668677090.1396346,2826,1668677090,139477634,,-0.091000563582933,-0.6179875680664689,0.0636631118727597,0.9955576671932305,0.0935515442942534,-0.0043455197969668145,0.009703417471568016
1668677090.147854,2827,1668677090,147632363,,-0.09085264974745944,-0.6181617231453959,0.0636631118727597,0.9955576671932305,0.0935515442942534,-0.0043455197969668145,0.009703417471568016
1668677090.1555176,2828,1668677090,155338098,,-0.0907022682991888,-0.6183387763995112,0.0636631118727597,0.9955576671932305,0.0935515442942534,-0.0043455197969668145,0.009703417471568016
1668677090.1634667,2829,1668677090,163282118,,-0.09054942231576421,-0.6185187235943786,0.0636631118727597,0.9955576671932305,0.0935515442942534,-0.0043455197969668145,0.009703417471568016
1668677090.1715288,2830,1668677090,171337505,,-0.09039411492526686,-0.6187015604060696,0.0636631118727597,0.9955576671932305,0.0935515442942534,-0.0043455197969668145,0.009703417471568016
1668677090.179492,2831,1668677090,179287398,,-0.09023634930615207,-0.6188872824203223,0.0636631118727597,0.9955576671932305,0.0935515442942534,-0.0043455197969668145,0.009703417471568016
1668677090.1879835,2832,1668677090,187860785,,-0.09007612868718422,-0.619075885131695,0.0636631118727597,0.9955576671932305,0.0935515442942534,-0.0043455197969668145,0.009703417471568016
1668677090.195293,2833,1668677090,195099754,,-0.08991345634737072,-0.6192673639427094,0.0636631118727597,0.9955576671932305,0.0935515442942534,-0.0043455197969668145,0.009703417471568016
1668677090.2036908,2834,1668677090,203468665,,-0.0897483356158948,-0.6194617141629888,0.0636631118727597,0.9955576671932305,0.0935515442942534,-0.0043455197969668145,0.009703417471568016
1668677090.212313,2835,1668677090,212056692,,-0.08958076987204751,-0.6196589310083886,0.0636631118727597,0.9955576671932305,0.0935515442942534,-0.0043455197969668145,0.009703417471568016
1668677090.2204816,2836,1668677090,220256385,,-0.08941076254515841,-0.6198590096001207,0.0636631118727597,0.9955576671932305,0.0935515442942534,-0.0043455197969668145,0.009703417471568016
1668677090.2275963,2837,1668677090,227403560,,-0.0892383171145255,-0.620061944963871,0.0636631118727597,0.9955576671932305,0.0935515442942534,-0.0043455197969668145,0.009703417471568016
1668677090.2351465,2838,1668677090,235019533,,-0.089063437109344,-0.6202677320289118,0.0636631118727597,0.9955576671932305,0.0935515442942534,-0.0043455197969668145,0.009703417471568016
1668677090.2434695,2839,1668677090,243328887,,-0.08888612610863408,-0.6204763656272083,0.0636631118727597,0.9955576671932305,0.0935515442942534,-0.0043455197969668145,0.009703417471568016
1668677090.2518413,2840,1668677090,251628848,,-0.08870638774116764,-0.6206878404925195,0.0636631118727597,0.9955576671932305,0.0935515442942534,-0.0043455197969668145,0.009703417471568016
1668677090.259827,2841,1668677090,259695415,,-0.08852422568539403,-0.6209021512594947,0.0636631118727597,0.9955576671932305,0.0935515442942534,-0.0043455197969668145,0.009703417471568016
1668677090.267508,2842,1668677090,267289337,,-0.08833964366936481,-0.6211192924627652,0.0636631118727597,0.9955576671932305,0.0935515442942534,-0.0043455197969668145,0.009703417471568016
1668677090.2752473,2843,1668677090,275069989,,-0.08815264547065738,-0.6213392585360318,0.0636631118727597,0.9955576671932305,0.0935515442942534,-0.0043455197969668145,0.009703417471568016
1668677090.2838752,2844,1668677090,283682463,,-0.08796323491629775,-0.6215620438111473,0.0636631118727597,0.9955576671932305,0.0935515442942534,-0.0043455197969668145,0.009703417471568016
1668677090.2915528,2845,1668677090,291406352,,-0.08777141588268214,-0.6217876425171978,0.0636631118727597,0.9955576671932305,0.0935515442942534,-0.0043455197969668145,0.009703417471568016
1668677090.2996805,2846,1668677090,299545758,,-0.08757719229549774,-0.6220160487795777,0.0636631118727597,0.9955576671932305,0.0935515442942534,-0.0043455197969668145,0.009703417471568016
1668677090.3076,2847,1668677090,307385107,,-0.08738056812964227,-0.6222472566190641,0.0636631118727597,0.9955576671932305,0.0935515442942534,-0.0043455197969668145,0.009703417471568016
1668677090.3157039,2848,1668677090,315525395,,-0.0871815474091427,-0.6224812599508877,0.0636631118727597,0.9955576671932305,0.0935515442942534,-0.0043455197969668145,0.009703417471568016
1668677090.3237076,2849,1668677090,323478703,,-0.08698013420707286,-0.6227180525838008,0.0636631118727597,0.9955576671932305,0.0935515442942534,-0.0043455197969668145,0.009703417471568016
1668677090.3321211,2850,1668677090,331983234,,-0.0867763326454701,-0.622957628219145,0.0636631118727597,0.9955576671932305,0.0935515442942534,-0.0043455197969668145,0.009703417471568016
1668677090.3398483,2851,1668677090,339625533,,-0.08657014689525094,-0.6231999804499156,0.0636631118727597,0.9955576671932305,0.0935515442942534,-0.0043455197969668145,0.009703417471568016
1668677090.3476794,2852,1668677090,347448470,,-0.08636158117612568,-0.6234451027598263,0.0636631118727597,0.9955576671932305,0.0935515442942534,-0.0043455197969668145,0.009703417471568016
1668677090.3553321,2853,1668677090,355190511,,-0.08615063975651206,-0.6236929885223716,0.0636631118727597,0.9955576671932305,0.0935515442942534,-0.0043455197969668145,0.009703417471568016
1668677090.3634188,2854,1668677090,363287743,,-0.08593732695344788,-0.6239436309998901,0.0636631118727597,0.9955576671932305,0.0935515442942534,-0.0043455197969668145,0.009703417471568016
1668677090.37156,2855,1668677090,371356043,,-0.08572164713250272,-0.6241970233426267,0.0636631118727597,0.9955576671932305,0.0935515442942534,-0.0043455197969668145,0.009703417471568016
1668677090.3808784,2856,1668677090,380717023,,-0.08550360470768849,-0.6244531585877955,0.0636631118727597,0.9955576671932305,0.0935515442942534,-0.0043455197969668145,0.009703417471568016
1668677090.388542,2857,1668677090,388296726,,-0.08528320414136918,-0.6247120296586429,0.0636631118727597,0.9955576671932305,0.0935515442942534,-0.0043455197969668145,0.009703417471568016
1668677090.395143,2858,1668677090,395021804,,-0.08506044994416952,-0.6249736293635126,0.0636631118727597,0.9955576671932305,0.0935515442942534,-0.0043455197969668145,0.009703417471568016
1668677090.4033837,2859,1668677090,403231179,,-0.08483534667488263,-0.6252379503949106,0.0636631118727597,0.9955576671932305,0.0935515442942534,-0.0043455197969668145,0.009703417471568016
1668677090.4115415,2860,1668677090,411420197,,-0.08460789894037675,-0.6255049853285731,0.0636631118727597,0.9955576671932305,0.0935515442942534,-0.0043455197969668145,0.009703417471568016
1668677090.4195764,2861,1668677090,419416537,,-0.08437811139550094,-0.6257747266225356,0.0636631118727597,0.9955576671932305,0.0935515442942534,-0.0043455197969668145,0.009703417471568016
1668677090.4278378,2862,1668677090,427600202,,-0.08414598874298987,-0.6260471666162053,0.0636631118727597,0.9955576671932305,0.0935515442942534,-0.0043455197969668145,0.009703417471568016
1668677090.4353576,2863,1668677090,435182874,,-0.08391153573336749,-0.6263222975294356,0.0636631118727597,0.9955576671932305,0.0935515442942534,-0.0043455197969668145,0.009703417471568016
1668677090.4437776,2864,1668677090,443556014,,-0.08367475716484987,-0.6266001114616044,0.0636631118727597,0.9955576671932305,0.0935515442942534,-0.0043455197969668145,0.009703417471568016
1668677090.451956,2865,1668677090,451799775,,-0.08343565788324699,-0.6268806003906957,0.0636631118727597,0.9955576671932305,0.0935515442942534,-0.0043455197969668145,0.009703417471568016
1668677090.4596803,2866,1668677090,459497113,,-0.08319424278186356,-0.6271637561723852,0.0636631118727597,0.9955576671932305,0.0935515442942534,-0.0043455197969668145,0.009703417471568016
1668677090.4678187,2867,1668677090,467493955,,-0.08295051680139887,-0.6274495705391302,0.0636631118727597,0.9955576671932305,0.0935515442942534,-0.0043455197969668145,0.009703417471568016
1668677090.4753664,2868,1668677090,475141564,,-0.08270448492984568,-0.627738035099265,0.0636631118727597,0.9955576671932305,0.0935515442942534,-0.0043455197969668145,0.009703417471568016
1668677090.483428,2869,1668677090,483227638,,-0.08245615220238817,-0.6280291413361001,0.0636631118727597,0.9955576671932305,0.0935515442942534,-0.0043455197969668145,0.009703417471568016
1668677090.4921007,2870,1668677090,491932987,,-0.08220552370129881,-0.6283228806070285,0.0636631118727597,0.9955576671932305,0.0935515442942534,-0.0043455197969668145,0.009703417471568016
1668677090.4995313,2871,1668677090,499321212,,-0.08195260455583446,-0.6286192441426367,0.0636631118727597,0.9955576671932305,0.0935515442942534,-0.0043455197969668145,0.009703417471568016
1668677090.5078995,2872,1668677090,507777076,,-0.0816973999421313,-0.6289182230458225,0.0636631118727597,0.9955576671932305,0.0935515442942534,-0.0043455197969668145,0.009703417471568016
1668677090.515071,2873,1668677090,514931632,,-0.08143991508309893,-0.6292198082909197,0.0636631118727597,0.9955576671932305,0.0935515442942534,-0.0043455197969668145,0.009703417471568016
1668677090.5236244,2874,1668677090,523456803,,-0.08118015524831354,-0.6295239907228296,0.0636631118727597,0.9955576671932305,0.0935515442942534,-0.0043455197969668145,0.009703417471568016
1668677090.5315585,2875,1668677090,531349920,,-0.08091812575390994,-0.6298307610561602,0.0636631118727597,0.9955576671932305,0.0935515442942534,-0.0043455197969668145,0.009703417471568016
1668677090.5398543,2876,1668677090,539624973,,-0.08065383196247289,-0.6301401098743733,0.0636631118727597,0.9955576671932305,0.0935515442942534,-0.0043455197969668145,0.009703417471568016
1668677090.5475392,2877,1668677090,547320769,,-0.08038727928292727,-0.6304520276289399,0.0636631118727597,0.9955576671932305,0.0935515442942534,-0.0043455197969668145,0.009703417471568016
1668677090.5552397,2878,1668677090,555056351,,-0.08011847317042739,-0.6307665046385039,0.0636631118727597,0.9955576671932305,0.0935515442942534,-0.0043455197969668145,0.009703417471568016
1668677090.5634782,2879,1668677090,563317813,,-0.0798474191262454,-0.6310835310880557,0.0636631118727597,0.9955576671932305,0.0935515442942534,-0.0043455197969668145,0.009703417471568016
1668677090.5717857,2880,1668677090,571550611,,-0.07957412269765866,-0.6314030970281145,0.0636631118727597,0.9955576671932305,0.0935515442942534,-0.0043455197969668145,0.009703417471568016
1668677090.5797532,2881,1668677090,579530657,,-0.0792985894778362,-0.6317251923739209,0.0636631118727597,0.9955576671932305,0.0935515442942534,-0.0043455197969668145,0.009703417471568016
1668677090.5876098,2882,1668677090,587375242,,-0.0790208251057243,-0.6320498069046399,0.0636631118727597,0.9955576671932305,0.0935515442942534,-0.0043455197969668145,0.009703417471568016
1668677090.5952158,2883,1668677090,595019767,,-0.07874083526593102,-0.6323769302625739,0.0636631118727597,0.9955576671932305,0.0935515442942534,-0.0043455197969668145,0.009703417471568016
1668677090.6034613,2884,1668677090,603337460,,-0.07845862568860995,-0.6327065519523882,0.0636631118727597,0.9955576671932305,0.0935515442942534,-0.0043455197969668145,0.009703417471568016
1668677090.611664,2885,1668677090,611436888,,-0.07817420214934287,-0.6330386613403457,0.0636631118727597,0.9955576671932305,0.0935515442942534,-0.0043455197969668145,0.009703417471568016
1668677090.6196299,2886,1668677090,619476588,,-0.07788757046902153,-0.633373247653556,0.0636631118727597,0.9955576671932305,0.0935515442942534,-0.0043455197969668145,0.009703417471568016
1668677090.6274533,2887,1668677090,627324066,,-0.0775987365137286,-0.6337102999792347,0.0636631118727597,0.9955576671932305,0.0935515442942534,-0.0043455197969668145,0.009703417471568016
1668677090.6354258,2888,1668677090,635200359,,-0.0773077061946176,-0.634049807263977,0.0636631118727597,0.9955576671932305,0.0935515442942534,-0.0043455197969668145,0.009703417471568016
1668677090.6439178,2889,1668677090,643788960,,-0.07701448546779184,-0.6343917583130428,0.0636631118727597,0.9955576671932305,0.0935515442942534,-0.0043455197969668145,0.009703417471568016
1668677090.6515448,2890,1668677090,651403490,,-0.07671908033418262,-0.634736141789657,0.0636631118727597,0.9955576671932305,0.0935515442942534,-0.0043455197969668145,0.009703417471568016
1668677090.6597037,2891,1668677090,659550529,,-0.0764214968394264,-0.6350829462143214,0.0636631118727597,0.9955576671932305,0.0935515442942534,-0.0043455197969668145,0.009703417471568016
1668677090.6677544,2892,1668677090,667525121,,-0.07612174107374105,-0.6354321599641432,0.0636631118727597,0.9955576671932305,0.0935515442942534,-0.0043455197969668145,0.009703417471568016
1668677090.6752663,2893,1668677090,675016499,,-0.07581981917180117,-0.6357837712721769,0.0636631118727597,0.9955576671932305,0.0935515442942534,-0.0043455197969668145,0.009703417471568016
1668677090.683574,2894,1668677090,683385379,,-0.07551573731261266,-0.6361377682267806,0.0636631118727597,0.9955576671932305,0.0935515442942534,-0.0043455197969668145,0.009703417471568016
1668677090.6919832,2895,1668677090,691810560,,-0.07520950171938613,-0.6364941387709894,0.0636631118727597,0.9955576671932305,0.0935515442942534,-0.0043455197969668145,0.009703417471568016
1668677090.6998882,2896,1668677090,699574058,,-0.07490111865940967,-0.6368528707019029,0.0636631118727597,0.9955576671932305,0.0935515442942534,-0.0043455197969668145,0.009703417471568016
1668677090.7084546,2897,1668677090,708210167,,-0.07459059444392042,-0.6372139516700903,0.0636631118727597,0.9955576671932305,0.0935515442942534,-0.0043455197969668145,0.009703417471568016
1668677090.7156954,2898,1668677090,715508537,,-0.0742779354279756,-0.6375773691790106,0.0636631118727597,0.9955576671932305,0.0935515442942534,-0.0043455197969668145,0.009703417471568016
1668677090.724136,2899,1668677090,723962611,,-0.07396314801032229,-0.6379431105844513,0.0636631118727597,0.9955576671932305,0.0935515442942534,-0.0043455197969668145,0.009703417471568016
1668677090.7318354,2900,1668677090,731657985,,-0.07364623863326654,-0.6383111630939832,0.0636631118727597,0.9955576671932305,0.0935515442942534,-0.0043455197969668145,0.009703417471568016
1668677090.7396061,2901,1668677090,739490908,,-0.07332721378254156,-0.6386815137664332,0.0636631118727597,0.9955576671932305,0.0935515442942534,-0.0043455197969668145,0.009703417471568016
1668677090.7476156,2902,1668677090,747399804,,-0.07300607998717493,-0.6390541495113758,0.0636631118727597,0.9955576671932305,0.0935515442942534,-0.0043455197969668145,0.009703417471568016
1668677090.7552109,2903,1668677090,755072547,,-0.07268284381935497,-0.6394290570886424,0.0636631118727597,0.9955576671932305,0.0935515442942534,-0.0043455197969668145,0.009703417471568016
1668677090.7641113,2904,1668677090,763885726,,-0.07235751189429632,-0.6398062231078492,0.0636631118727597,0.9955576671932305,0.0935515442942534,-0.0043455197969668145,0.009703417471568016
1668677090.7715359,2905,1668677090,771374346,,-0.07203009087010447,-0.6401856340279451,0.0636631118727597,0.9955576671932305,0.0935515442942534,-0.0043455197969668145,0.009703417471568016
1668677090.7795715,2906,1668677090,779386031,,-0.07170058744763952,-0.6405672761567787,0.0636631118727597,0.9955576671932305,0.0935515442942534,-0.0043455197969668145,0.009703417471568016
1668677090.7878087,2907,1668677090,787578465,,-0.07136900837037906,-0.6409511356506848,0.0636631118727597,0.9955576671932305,0.0935515442942534,-0.0043455197969668145,0.009703417471568016
1668677090.795526,2908,1668677090,795296570,,-0.07103536042428016,-0.6413371985140927,0.0636631118727597,0.9955576671932305,0.0935515442942534,-0.0043455197969668145,0.009703417471568016
1668677090.803539,2909,1668677090,803305382,,-0.07069965043764048,-0.6417254505991522,0.0636631118727597,0.9955576671932305,0.0935515442942534,-0.0043455197969668145,0.009703417471568016
1668677090.8115757,2910,1668677090,811423248,,-0.07036188528095853,-0.6421158776053847,0.0636631118727597,0.9955576671932305,0.0935515442942534,-0.0043455197969668145,0.009703417471568016
1668677090.8197002,2911,1668677090,819517485,,-0.07002207186679306,-0.6425084650793516,0.0636631118727597,0.9955576671932305,0.0935515442942534,-0.0043455197969668145,0.009703417471568016
1668677090.8273914,2912,1668677090,827273158,,-0.0696802171496216,-0.6429031984143468,0.0636631118727597,0.9955576671932305,0.0935515442942534,-0.0043455197969668145,0.009703417471568016
1668677090.8351595,2913,1668677090,835010879,,-0.06933632812569808,-0.6433000628501112,0.0636631118727597,0.9955576671932305,0.0935515442942534,-0.0043455197969668145,0.009703417471568016
1668677090.8435144,2914,1668677090,843386873,,-0.06899041183290976,-0.6436990434725679,0.0636631118727597,0.9955576671932305,0.0935515442942534,-0.0043455197969668145,0.009703417471568016
1668677090.8513603,2915,1668677090,851242618,,-0.06864247535063304,-0.6441001252135821,0.0636631118727597,0.9955576671932305,0.0935515442942534,-0.0043455197969668145,0.009703417471568016
1668677090.8596625,2916,1668677090,859454547,,-0.06829252579958878,-0.6445032928507424,0.0636631118727597,0.9955576671932305,0.0935515442942534,-0.0043455197969668145,0.009703417471568016
1668677090.8675256,2917,1668677090,867374570,,-0.06794057034169634,-0.6449085310071672,0.0636631118727597,0.9955576671932305,0.0935515442942534,-0.0043455197969668145,0.009703417471568016
1668677090.8753216,2918,1668677090,875140226,,-0.06758661617992719,-0.6453158241513327,0.0636631118727597,0.9955576671932305,0.0935515442942534,-0.0043455197969668145,0.009703417471568016
1668677090.883531,2919,1668677090,883392746,,-0.06723067055815739,-0.645725156596927,0.0636631118727597,0.9955576671932305,0.0935515442942534,-0.0043455197969668145,0.009703417471568016
1668677090.8916879,2920,1668677090,891558170,,-0.0668727407610194,-0.6461365125027271,0.0636631118727597,0.9955576671932305,0.0935515442942534,-0.0043455197969668145,0.009703417471568016
1668677090.899615,2921,1668677090,899352218,,-0.06651283411375297,-0.646549875872501,0.0636631118727597,0.9955576671932305,0.0935515442942534,-0.0043455197969668145,0.009703417471568016
1668677090.9079099,2922,1668677090,907797706,,-0.06615095798205521,-0.6469652305549353,0.0636631118727597,0.9955576671932305,0.0935515442942534,-0.0043455197969668145,0.009703417471568016
1668677090.9152534,2923,1668677090,915075740,,-0.0657871197719299,-0.6473825602435868,0.0636631118727597,0.9955576671932305,0.0935515442942534,-0.0043455197969668145,0.009703417471568016
1668677090.9237587,2924,1668677090,923556337,,-0.06542132692953585,-0.6478018484768611,0.0636631118727597,0.9955576671932305,0.0935515442942534,-0.0043455197969668145,0.009703417471568016
1668677090.93149,2925,1668677090,931306421,,-0.06505358694103457,-0.6482230786380164,0.0636631118727597,0.9955576671932305,0.0935515442942534,-0.0043455197969668145,0.009703417471568016
1668677090.9397018,2926,1668677090,939442233,,-0.06468390733243704,-0.6486462339551929,0.0636631118727597,0.9955576671932305,0.0935515442942534,-0.0043455197969668145,0.009703417471568016
1668677090.9474766,2927,1668677090,947287676,,-0.06431229566944964,-0.6490712975014699,0.0636631118727597,0.9955576671932305,0.0935515442942534,-0.0043455197969668145,0.009703417471568016
1668677090.9554644,2928,1668677090,955312931,,-0.06393875955731942,-0.6494982521949478,0.0636631118727597,0.9955576671932305,0.0935515442942534,-0.0043455197969668145,0.009703417471568016
1668677090.9637396,2929,1668677090,963589335,,-0.06356330664067837,-0.6499270807988599,0.0636631118727597,0.9955576671932305,0.0935515442942534,-0.0043455197969668145,0.009703417471568016
1668677090.9715493,2930,1668677090,971337232,,-0.06318594460338696,-0.6503577659217077,0.0636631118727597,0.9955576671932305,0.0935515442942534,-0.0043455197969668145,0.009703417471568016
1668677090.9794605,2931,1668677090,979307582,,-0.06280668116837695,-0.6507902900174276,0.0636631118727597,0.9955576671932305,0.0935515442942534,-0.0043455197969668145,0.009703417471568016
1668677090.9878798,2932,1668677090,987725221,,-0.062425524097493315,-0.6512246353855823,0.0636631118727597,0.9955576671932305,0.0935515442942534,-0.0043455197969668145,0.009703417471568016
1668677090.9953554,2933,1668677090,995243070,,-0.06204248119133532,-0.6516607841715819,0.0636631118727597,0.9955576671932305,0.0935515442942534,-0.0043455197969668145,0.009703417471568016
1668677091.0035937,2934,1668677091,3382595,,-0.06165756028909698,-0.6520987183669329,0.0636631118727597,0.9955576671932305,0.0935515442942534,-0.0043455197969668145,0.009703417471568016
1668677091.0115707,2935,1668677091,11376548,,-0.06127076926840658,-0.6525384198095154,0.0636631118727597,0.9955576671932305,0.0935515442942534,-0.0043455197969668145,0.009703417471568016
1668677091.0196917,2936,1668677091,19512783,,-0.060882116045165455,-0.6529798701838895,0.0636631118727597,0.9955576671932305,0.0935515442942534,-0.0043455197969668145,0.009703417471568016
1668677091.0275846,2937,1668677091,27352570,,-0.06049160857338598,-0.6534230510216301,0.0636631118727597,0.9955576671932305,0.0935515442942534,-0.0043455197969668145,0.009703417471568016
1668677091.0352993,2938,1668677091,35119034,,-0.060099254845028816,-0.6538679437016919,0.0636631118727597,0.9955576671932305,0.0935515442942534,-0.0043455197969668145,0.009703417471568016
1668677091.0435908,2939,1668677091,43417542,,-0.0597050628898393,-0.6543145294508022,0.0636631118727597,0.9955576671932305,0.0935515442942534,-0.0043455197969668145,0.009703417471568016
1668677091.0519793,2940,1668677091,51799783,,-0.059309040775183175,-0.6547627893438852,0.0636631118727597,0.9955576671932305,0.0935515442942534,-0.0043455197969668145,0.009703417471568016
1668677091.060558,2941,1668677091,60367281,,-0.05891119660588143,-0.6552127043045146,0.0636631118727597,0.9955576671932305,0.0935515442942534,-0.0043455197969668145,0.009703417471568016
1668677091.0676837,2942,1668677091,67430816,,-0.058511538524044435,-0.6556642551053969,0.0636631118727597,0.9955576671932305,0.0935515442942534,-0.0043455197969668145,0.009703417471568016
1668677091.0752666,2943,1668677091,75049858,,-0.05811007470890539,-0.6561174223688848,0.0636631118727597,0.9955576671932305,0.0935515442942534,-0.0043455197969668145,0.009703417471568016
1668677091.0840223,2944,1668677091,83777492,,-0.0577068133766528,-0.6565721865675211,0.0636631118727597,0.9955576671932305,0.0935515442942534,-0.0043455197969668145,0.009703417471568016
1668677091.0917556,2945,1668677091,91596456,,-0.057301762780262444,-0.6570285280246128,0.0636631118727597,0.9955576671932305,0.0935515442942534,-0.0043455197969668145,0.009703417471568016
1668677091.0994995,2946,1668677091,99304560,,-0.0568949312093284,-0.6574864269148362,0.0636631118727597,0.9955576671932305,0.0935515442942534,-0.0043455197969668145,0.009703417471568016
1668677091.1075068,2947,1668677091,107331522,,-0.05648632698989341,-0.6579458632648728,0.0636631118727597,0.9955576671932305,0.0935515442942534,-0.0043455197969668145,0.009703417471568016
1668677091.1153822,2948,1668677091,115194324,,-0.05607595848427849,-0.6584068169540765,0.0636631118727597,0.9955576671932305,0.0935515442942534,-0.0043455197969668145,0.009703417471568016
1668677091.1238678,2949,1668677091,123639055,,-0.05566383409091183,-0.6588692677151714,0.0636631118727597,0.9955576671932305,0.0935515442942534,-0.0043455197969668145,0.009703417471568016
1668677091.1316657,2950,1668677091,131488786,,-0.05524996224415683,-0.6593331951349812,0.0636631118727597,0.9955576671932305,0.0935515442942534,-0.0043455197969668145,0.009703417471568016
1668677091.1396096,2951,1668677091,139436978,,-0.054834351414139545,-0.6597985786551904,0.0636631118727597,0.9955576671932305,0.0935515442942534,-0.0043455197969668145,0.009703417471568016
1668677091.1479394,2952,1668677091,147721824,,-0.05441701010657535,-0.6602653975731363,0.0636631118727597,0.9955576671932305,0.0935515442942534,-0.0043455197969668145,0.009703417471568016
1668677091.1554167,2953,1668677091,155268569,,-0.05399794686259479,-0.6607336310426335,0.0636631118727597,0.9955576671932305,0.0935515442942534,-0.0043455197969668145,0.009703417471568016
1668677091.163704,2954,1668677091,163443884,,-0.05357717025856888,-0.6612032580748298,0.0636631118727597,0.9955576671932305,0.0935515442942534,-0.0043455197969668145,0.009703417471568016
1668677091.171674,2955,1668677091,171500364,,-0.053154688905933514,-0.6616742575390938,0.0636631118727597,0.9955576671932305,0.0935515442942534,-0.0043455197969668145,0.009703417471568016
1668677091.1798089,2956,1668677091,179657700,,-0.05273051145101326,-0.6621466081639346,0.0636631118727597,0.9955576671932305,0.0935515442942534,-0.0043455197969668145,0.009703417471568016
1668677091.1877468,2957,1668677091,187522595,,-0.05230464657484438,-0.6626202885379538,0.0636631118727597,0.9955576671932305,0.0935515442942534,-0.0043455197969668145,0.009703417471568016
1668677091.1953049,2958,1668677091,195182958,,-0.05187710299299719,-0.6630952771108296,0.0636631118727597,0.9955576671932305,0.0935515442942534,-0.0043455197969668145,0.009703417471568016
1668677091.203652,2959,1668677091,203474558,,-0.0514478894553977,-0.6635715521943326,0.0636631118727597,0.9955576671932305,0.0935515442942534,-0.0043455197969668145,0.009703417471568016
1668677091.2116694,2960,1668677091,211442697,,-0.051017014746148545,-0.6640490919633744,0.0636631118727597,0.9955576671932305,0.0935515442942534,-0.0043455197969668145,0.009703417471568016
1668677091.2197351,2961,1668677091,219507763,,-0.05058448768334914,-0.6645278744570882,0.0636631118727597,0.9955576671932305,0.0935515442942534,-0.0043455197969668145,0.009703417471568016
1668677091.2273982,2962,1668677091,227254222,,-0.050150317118915294,-0.6650078775799422,0.0636631118727597,0.9955576671932305,0.0935515442942534,-0.0043455197969668145,0.009703417471568016
1668677091.2351427,2963,1668677091,234992435,,-0.04971451193839806,-0.6654890791028847,0.0636631118727597,0.9955576671932305,0.0935515442942534,-0.0043455197969668145,0.009703417471568016
1668677091.2435024,2964,1668677091,243386876,,-0.049277081060801795,-0.6659714566645218,0.0636631118727597,0.9955576671932305,0.0935515442942534,-0.0043455197969668145,0.009703417471568016
1668677091.2515194,2965,1668677091,251365653,,-0.04883803343840172,-0.6664549877723284,0.0636631118727597,0.9955576671932305,0.0935515442942534,-0.0043455197969668145,0.009703417471568016
1668677091.2594259,2966,1668677091,259302963,,-0.048397378056560664,-0.66693964980389,0.0636631118727597,0.9955576671932305,0.0935515442942534,-0.0043455197969668145,0.009703417471568016
1668677091.267642,2967,1668677091,267473413,,-0.0479551239335452,-0.6674254200081783,0.0636631118727597,0.9955576671932305,0.0935515442942534,-0.0043455197969668145,0.009703417471568016
1668677091.2756393,2968,1668677091,275499381,,-0.047511280120341004,-0.6679122755068587,0.0636631118727597,0.9955576671932305,0.0935515442942534,-0.0043455197969668145,0.009703417471568016
1668677091.2834241,2969,1668677091,283264027,,-0.04706585570046774,-0.6684001932956302,0.0636631118727597,0.9955576671932305,0.0935515442942534,-0.0043455197969668145,0.009703417471568016
1668677091.2917063,2970,1668677091,291545545,,-0.04661885978979305,-0.6688891502455976,0.0636631118727597,0.9955576671932305,0.0935515442942534,-0.0043455197969668145,0.009703417471568016
1668677091.299533,2971,1668677091,299368098,,-0.04617030153634609,-0.6693791231046761,0.0636631118727597,0.9955576671932305,0.0935515442942534,-0.0043455197969668145,0.009703417471568016
1668677091.307664,2972,1668677091,307469872,,-0.04572019012013022,-0.6698700884990281,0.0636631118727597,0.9955576671932305,0.0935515442942534,-0.0043455197969668145,0.009703417471568016
1668677091.315435,2973,1668677091,315242930,,-0.04526853475293521,-0.6703620229345328,0.0636631118727597,0.9955576671932305,0.0935515442942534,-0.0043455197969668145,0.009703417471568016
1668677091.3234453,2974,1668677091,323297081,,-0.04481534467814864,-0.6708549027982869,0.0636631118727597,0.9955576671932305,0.0935515442942534,-0.0043455197969668145,0.009703417471568016
1668677091.3319876,2975,1668677091,331784636,,-0.04436062917056678,-0.6713487043601382,0.0636631118727597,0.9955576671932305,0.0935515442942534,-0.0043455197969668145,0.009703417471568016
1668677091.3399262,2976,1668677091,339800542,,-0.04390439753620477,-0.6718434037742508,0.0636631118727597,0.9955576671932305,0.0935515442942534,-0.0043455197969668145,0.009703417471568016
1668677091.3477054,2977,1668677091,347529820,,-0.043446659112106156,-0.6723389770807028,0.0636631118727597,0.9955576671932305,0.0935515442942534,-0.0043455197969668145,0.009703417471568016
1668677091.3551426,2978,1668677091,354986841,,-0.04298742326615179,-0.6728354002071149,0.0636631118727597,0.9955576671932305,0.0935515442942534,-0.0043455197969668145,0.009703417471568016
