Time,header.seq,header.stamp.secs,header.stamp.nsecs,header.frame_id,twist.linear.x,twist.linear.y,twist.linear.z,twist.angular.x,twist.angular.y,twist.angular.z
1668678479.574064,51584,1668678479,573834145,,-1.6948999672559942e-05,1.5871677594323007e-09,-2.0753192294263684e-11,1.789144087752593e-06,-9.360219769596839e-07,-1.1236237311024617e-08
1668678479.5824413,51585,1668678479,582263505,,-1.5694829074745118e-05,1.5486455258673583e-09,-2.0005504828538287e-11,1.797314182651252e-06,-9.351409128800704e-07,-1.1239521612593388e-08
1668678479.5900512,51586,1668678479,589949318,,-1.4508795319736546e-05,1.5101631993270541e-09,-1.9269266487681974e-11,1.8051893807145455e-06,-9.341471441992876e-07,-1.1241341154170936e-08
1668678479.5992463,51587,1668678479,599034431,,-1.3387854248078486e-05,1.4717880310836172e-09,-1.8545376707490586e-11,1.812771014438875e-06,-9.330416925512035e-07,-1.1241707325097795e-08
1668678479.607445,51588,1668678479,607340948,,-1.2329073828125857e-05,1.4335821259871184e-09,-1.7834690114566335e-11,1.8200604433034217e-06,-9.318255857467467e-07,-1.1240631618858894e-08
1668678479.6154752,51589,1668678479,615361724,,-1.1329631080017123e-05,1.3956028310243466e-09,-1.713786885334348e-11,1.8270590533767302e-06,-9.304998575988345e-07,-1.123812561352726e-08
1668678479.622436,51590,1668678479,622288085,,-1.0386809027773065e-05,1.3579031516662505e-09,-1.645559928204263e-11,1.8337682569556577e-06,-9.29065547750291e-07,-1.1234200979712576e-08
1668678479.6312244,51591,1668678479,631031405,,-9.497993683109174e-06,1.320531618568371e-09,-1.5788377382755664e-11,1.8401894921397591e-06,-9.275237014790637e-07,-1.1228869479292325e-08
1668678479.6381893,51592,1668678479,638064372,,-8.660671064385421e-06,1.2835326612082165e-09,-1.5136684411376022e-11,1.846324222471863e-06,-9.258753695312385e-07,-1.122214295185418e-08
1668678479.6467292,51593,1668678479,646591008,,-7.872424253761428e-06,1.2469469275180132e-09,-1.450091929943615e-11,1.8521739365425163e-06,-9.241216079422108e-07,-1.1214033336988218e-08
1668678479.6552274,51594,1668678479,654996219,,-7.130930495519643e-06,1.2108113072256727e-09,-1.3881367352441962e-11,1.8577401475926356e-06,-9.222634778561244e-07,-1.120455264755456e-08
1668678479.6626348,51595,1668678479,662300278,,-6.4339583377895225e-06,1.1751591477284264e-09,-1.3278253625362555e-11,1.8630243931427681e-06,-9.20302045358802e-07,-1.1193712977335468e-08
1668678479.670991,51596,1668678479,670819800,,-5.779364820144542e-06,1.1400204826719088e-09,-1.2691781830921438e-11,1.8680282345859427e-06,-9.182383812903781e-07,-1.118152650182986e-08
1668678479.6784968,51597,1668678479,678321133,,-5.165092708815622e-06,1.1054221077458422e-09,-1.2121995670630724e-11,1.8727532568017234e-06,-9.160735610776966e-07,-1.1168005472241067e-08
1668678479.6863248,51598,1668678479,686184941,,-4.58916778112176e-06,1.0713880084823291e-09,-1.15690824684538e-11,1.8772010677935057e-06,-9.138086645668896e-07,-1.1153162209363806e-08
1668678479.6940196,51599,1668678479,693802871,,-4.0496961609669745e-06,1.0379391809892562e-09,-1.1032988704922206e-11,1.8813732982642402e-06,-9.114447758354808e-07,-1.1137009104891142e-08
1668678479.7025383,51600,1668678479,702398540,,-3.5448617061465307e-06,1.005094098508156e-09,-1.0513737040062738e-11,1.8852716012511486e-06,-9.089829830302942e-07,-1.1119558620392124e-08
1668678479.7111044,51601,1668678479,710984671,,-3.0729234488681285e-06,9.728687043660543e-10,-1.0011273168115054e-11,1.8888976517250247e-06,-9.064243781937933e-07,-1.1100823287408345e-08
1668678479.719209,51602,1668678479,719044810,,-2.6322130902062985e-06,9.412765713117617e-10,-9.525417334732549e-12,1.8922531462040561e-06,-9.0377005708961e-07,-1.1080815703212003e-08
1668678479.7268612,51603,1668678479,726678947,,-2.2211325491816284e-06,9.103291316834845e-10,-9.05607299017126e-12,1.8953398023795377e-06,-9.010211190419381e-07,-1.1059548522665064e-08
1668678479.7344115,51604,1668678479,734212628,,-1.8381515669779458e-06,8.800356167313654e-10,-8.603073156946868e-12,1.8981593587042974e-06,-8.981786667561889e-07,-1.1037034468022403e-08
1668678479.7422,51605,1668678479,741983137,,-1.481805366622327e-06,8.504034673951583e-10,-8.166210200958842e-12,1.9007135740350906e-06,-8.952438061654957e-07,-1.1013286316575281e-08
1668678479.7510371,51606,1668678479,750917367,,-1.150692368454265e-06,8.214382479436009e-10,-7.745273510308184e-12,1.9030042272178014e-06,-8.922176462495855e-07,-1.0988316896917418e-08
1668678479.7588186,51607,1668678479,758608391,,-8.434719615712414e-07,7.931439234303041e-10,-7.340008886010312e-12,1.9050331167213098e-06,-8.891012988739389e-07,-1.0962139098113061e-08
1668678479.766894,51608,1668678479,766759330,,-5.588623308138987e-07,7.65522842121435e-10,-6.950177011293575e-12,1.9068020602458976e-06,-8.858958786269068e-07,-1.0934765864914851e-08
1668678479.774805,51609,1668678479,774605487,,-2.95638339658863e-07,7.385758844306735e-10,-6.5754566877063675e-12,1.9083128943281117e-06,-8.826025026480022e-07,-1.0906210184476628e-08
1668678479.7832093,51610,1668678479,783111510,,-5.262946869057838e-08,7.12302600718075e-10,-6.215598777283464e-12,1.909567473973947e-06,-8.792222904753933e-07,-1.0876485099264119e-08
1668678479.7912288,51611,1668678479,791085568,,1.7128219117720397e-07,6.867012840122572e-10,-5.870232485299237e-12,1.910567672258382e-06,-8.757563638735537e-07,-1.084560368575825e-08
1668678479.7989914,51612,1668678479,798844253,,3.771638902271514e-07,6.617692018143559e-10,-5.539084089032257e-12,1.9113153799602175e-06,-8.722058466832598e-07,-1.0813579081632789e-08
1668678479.8064077,51613,1668678479,806225751,,5.660341174662311e-07,6.375022898031728e-10,-5.221712796163097e-12,1.9118125051497122e-06,-8.685718646435458e-07,-1.0780424457099422e-08
1668678479.8141863,51614,1668678479,814035053,,7.388644443555713e-07,6.138957465926037e-10,-4.91789735632469e-12,1.912060972852861e-06,-8.648555452561512e-07,-1.0746153024074776e-08
1668678479.8228712,51615,1668678479,822701981,,8.965813154633755e-07,5.909438148707649e-10,-4.627221824311354e-12,1.912062724633682e-06,-8.610580176127836e-07,-1.071077803449106e-08
1668678479.8305092,51616,1668678479,830302022,,1.040067786519511e-06,5.686398542404074e-10,-4.349320667931447e-12,1.9118197182220546e-06,-8.571804122339172e-07,-1.067431277087468e-08
1668678479.8386452,51617,1668678479,838354605,,1.1701652107843051e-06,5.469766276302966e-10,-4.0838749982965044e-12,1.9113339271422475e-06,-8.532238609230004e-07,-1.0636770553747926e-08
1668678479.8463092,51618,1668678479,846196539,,1.287674874519771e-06,5.25946154516598e-10,-3.8305030185251315e-12,1.910607340337815e-06,-8.491894966101862e-07,-1.0598164731288502e-08
1668678479.8539965,51619,1668678479,853858614,,1.3933595821549602e-06,5.055399047139757e-10,-3.5888371754780836e-12,1.909641961776525e-06,-8.450784531883027e-07,-1.0558508693730781e-08
1668678479.8624005,51620,1668678479,862280619,,1.4879451921791475e-06,4.857486758224429e-10,-3.3585403824722995e-12,1.9084398100973084e-06,-8.408918653733055e-07,-1.0517815845811187e-08
1668678479.8706794,51621,1668678479,870572418,,1.572122104546167e-06,4.665628913730201e-10,-3.1392319733101093e-12,1.907002918224834e-06,-8.366308685468207e-07,-1.0476099627690757e-08
1668678479.8783283,51622,1668678479,878177818,,1.6465467004714058e-06,4.4797254685125344e-10,-2.9305632919250878e-12,1.9053333329899505e-06,-8.322965986021687e-07,-1.043337350438586e-08
1668678479.8865576,51623,1668678479,886231618,,1.7118427356206303e-06,4.2996721499802383e-10,-2.7321708879362297e-12,1.9034331147649585e-06,-8.27890191799908e-07,-1.038965095323508e-08
1668678479.8940527,51624,1668678479,893917618,,1.7686026875414506e-06,4.125361603817322e-10,-2.543677933213179e-12,1.9013043370878573e-06,-8.234127846163482e-07,-1.0344945484376231e-08
1668678479.902406,51625,1668678479,902235383,,1.8173890582981074e-06,3.956684449695803e-10,-2.364719473678437e-12,1.8989490863055965e-06,-8.18865513596201e-07,-1.0299270620004644e-08
1668678479.9103408,51626,1668678479,910177147,,1.8587356333816219e-06,3.7935272427800794e-10,-2.1949861885559614e-12,1.8963694611865489e-06,-8.142495152111701e-07,-1.0252639896938825e-08
1668678479.9185698,51627,1668678479,918417962,,1.8931486977617982e-06,3.6357766222675043e-10,-2.0341311835415702e-12,1.8935675725752354e-06,-8.095659257108442e-07,-1.0205066866293926e-08
1668678479.9265087,51628,1668678479,926358331,,1.921108210083597e-06,3.4833157378313627e-10,-1.8818211137757544e-12,1.8905455430027246e-06,-8.048158809848935e-07,-1.0156565103086676e-08
1668678479.934453,51629,1668678479,934227384,,1.9430689360704626e-06,3.3360280807221435e-10,-1.7377592565454687e-12,1.8873055063345812e-06,-8.000005164065118e-07,-1.0107148186362713e-08
1668678479.9424996,51630,1668678479,942285326,,1.959461541995858e-06,3.193794986658217e-10,-1.601542478867831e-12,1.8838496074025434e-06,-7.951209667025947e-07,-1.0056829698444426e-08
1668678479.9505763,51631,1668678479,950354370,,1.970693649309637e-06,3.0564985407000947e-10,-1.47286841092509e-12,1.8801800016568715e-06,-7.90178365816348e-07,-1.0005623232118447e-08
1668678479.9585059,51632,1668678479,958316033,,1.9771508514600117e-06,2.924019870413694e-10,-1.3514796609556986e-12,1.8762988547917236e-06,-7.851738467590022e-07,-9.953542397344576e-09
1668678479.966512,51633,1668678479,966345619,,1.9791976937762464e-06,2.796238397486293e-10,-1.2370543160672303e-12,1.8722083423928721e-06,-7.801085414770914e-07,-9.900600797180144e-09
1668678479.974033,51634,1668678479,973820588,,1.9771786174748583e-06,2.6730358036414835e-10,-1.1292899740042855e-12,1.8679106495713613e-06,-7.749835807163593e-07,-9.846812042083854e-09
1668678479.9830637,51635,1668678479,982802733,,1.9714188686473756e-06,2.55429393092828e-10,-1.0279126126553733e-12,1.8634079706269326e-06,-7.698000938867139e-07,-9.792189735770336e-09
1668678479.9912863,51636,1668678479,991005079,,1.9622253734399117e-06,2.4398947667353697e-10,-9.326402580623861e-13,1.8587025086705683e-06,-7.64559208923987e-07,-9.73674748083359e-09
1668678479.9986362,51637,1668678479,998333058,,1.9498875800281478e-06,2.3297201566128763e-10,-8.431837692571646e-13,1.8537964753002289e-06,-7.59262052164888e-07,-9.680498885272962e-09
1668678480.0071247,51638,1668678480,6943390,,1.9346782686753155e-06,2.2236540041996049e-10,-7.59322838310099e-13,1.8486920902288891e-06,-7.5390974820811e-07,-9.623457554053723e-09
1668678480.0147007,51639,1668678480,14297137,,1.916854330732677e-06,2.1215821054780138e-10,-6.807876967536453e-13,1.8433915809409343e-06,-7.485034197860648e-07,-9.565637073406894e-09
1668678480.021858,51640,1668678480,21731601,,1.8966575171918986e-06,2.023389258880175e-10,-6.072837375665609e-13,1.8378971823424082e-06,-7.430441876349729e-07,-9.507051030336836e-09
1668678480.0301075,51641,1668678480,29993791,,1.874315158208821e-06,1.928963177031466e-10,-5.386441902710783e-13,1.832211136435338e-06,-7.375331703760303e-07,-9.447713000840717e-09
1668678480.0384197,51642,1668678480,38221271,,1.850040854073103e-06,1.8381926105668847e-10,-4.745633702698362e-13,1.826335691942496e-06,-7.319714843734959e-07,-9.387636549194889e-09
1668678480.0464523,51643,1668678480,46315155,,1.824035138720631e-06,1.7509678122863235e-10,-4.1486455204388667e-13,1.8202731039900616e-06,-7.263602436222346e-07,-9.32683522111975e-09
1668678480.054125,51644,1668678480,54023298,,1.7964861165104332e-06,1.667180690529744e-10,-3.593083967771963e-13,1.8140256337642323e-06,-7.207005596208356e-07,-9.265322554858515e-09
1668678480.0619829,51645,1668678480,61854630,,1.7675700733954572e-06,1.5867249504110313e-10,-3.076733477522535e-13,1.8075955481712428e-06,-7.149935412495596e-07,-9.203112068344245e-09
1668678480.0704672,51646,1668678480,70256161,,1.7374520628692312e-06,1.509495402566317e-10,-2.5976799542192156e-13,1.800985119498322e-06,-7.092402946432113e-07,-9.140217263175394e-09
1668678480.0786169,51647,1668678480,78323493,,1.7062864679740273e-06,1.4353906123573792e-10,-2.153534735889053e-13,1.794196625078121e-06,-7.034419230749432e-07,-9.07665162493048e-09
1668678480.0865452,51648,1668678480,86394539,,1.674217539848408e-06,1.3643095883270461e-10,-1.7428764677566243e-13,1.787232346973493e-06,-6.975995268453149e-07,-9.012428615930191e-09
1668678480.0939567,51649,1668678480,93781877,,1.6413799137807634e-06,1.2961536632444545e-10,-1.3640452806702111e-13,1.7800945716400838e-06,-6.917142031560331e-07,-8.947561666158039e-09
1668678480.1025684,51650,1668678480,102325418,,1.6078991033364609e-06,1.2308263083872085e-10,-1.0151627100509232e-13,1.7727855895832446e-06,-6.857870459939631e-07,-8.882064186959845e-09
1668678480.1114063,51651,1668678480,111231878,,1.5738919735496338e-06,1.1682329627373868e-10,-6.944920813829479e-14,1.765307695050889e-06,-6.79819146022772e-07,-8.815949566974174e-09
1668678480.1188312,51652,1668678480,118666453,,1.5394671937628306e-06,1.1082808758527992e-10,-4.0008570540393124e-14,1.7576631857022442e-06,-6.738115904656048e-07,-8.749231169384976e-09
1668678480.126301,51653,1668678480,126143465,,1.5047256707434975e-06,1.0508795108207729e-10,-1.307605713563742e-14,1.749854362293717e-06,-6.67765462991466e-07,-8.681922330370252e-09
1668678480.1364896,51654,1668678480,136296055,,1.4697609631692277e-06,9.959409150271938e-11,1.1495456440478631e-14,1.7418835283508607e-06,-6.616818436055975e-07,-8.614036346771793e-09
1668678480.1428978,51655,1668678480,142636702,,1.4346596774255696e-06,9.433789661806404e-11,3.380769332768803e-14,1.733752989859563e-06,-6.55561808545544e-07,-8.54558649632995e-09
1668678480.1503572,51656,1668678480,150127259,,1.3995018463585165e-06,8.931092262291828e-11,5.409164635694551e-14,1.725465054941864e-06,-6.494064301685375e-07,-8.476586002486873e-09
1668678480.1585238,51657,1668678480,158373911,,1.3643612905659124e-06,8.450501756958456e-11,7.236183595779147e-14,1.7170220335601183e-06,-6.432167768463182e-07,-8.40704807698634e-09
1668678480.166261,51658,1668678480,166141478,,1.3293059637512647e-06,7.991216117154871e-11,8.876892781217304e-14,1.7084262371860896e-06,-6.369939128580264e-07,-8.336985888088425e-09
1668678480.174056,51659,1668678480,173899168,,1.2943982823028388e-06,7.552461855742266e-11,1.0345876298686293e-13,1.699679978498365e-06,-6.307388982840409e-07,-8.266412552665825e-09
1668678480.1828232,51660,1668678480,182715812,,1.2596954394497835e-06,7.133475320494374e-11,1.165624318139847e-13,1.6907855710927931e-06,-6.24452788913753e-07,-8.195341169365212e-09
1668678480.1903765,51661,1668678480,190230816,,1.225249705489186e-06,6.733537499219329e-11,1.2812555867776698e-13,1.6817453291639211e-06,-6.181366361375605e-07,-8.123784786676408e-09
1668678480.1983488,51662,1668678480,198238965,,1.1911087133231698e-06,6.351912961697661e-11,1.38340941895517e-13,1.6725615671997485e-06,-6.117914868428684e-07,-8.051756412172466e-09
1668678480.206661,51663,1668678480,206418665,,1.157315731124541e-06,5.987916877469475e-11,1.4724930980539795e-13,1.663236599696647e-06,-6.054183833224294e-07,-7.97926901404745e-09
1668678480.2142293,51664,1668678480,214119253,,1.1239099218090503e-06,5.6408699065626145e-11,1.549191229606218e-13,1.6537727408607462e-06,-5.990183631764586e-07,-7.906335508209143e-09
1668678480.2221167,51665,1668678480,221986813,,1.090926590130193e-06,5.310119663074823e-11,1.6146485975563168e-13,1.6441723043078704e-06,-5.925924592165697e-07,-7.83296877257018e-09
1668678480.2308297,51666,1668678480,230706453,,1.0583974179213696e-06,4.995033085588945e-11,1.669303821311801e-13,1.6344376027778924e-06,-5.861416993753827e-07,-7.759181633440889e-09
1668678480.2382674,51667,1668678480,238090700,,1.026350687814242e-06,4.69499215585838e-11,1.714451244326809e-13,1.6245709478364855e-06,-5.796671066015933e-07,-7.684986873237084e-09
1668678480.246268,51668,1668678480,246053709,,9.948114960437967e-07,4.409398171994385e-11,1.7507692366428515e-13,1.6145746495973764e-06,-5.731696987810432e-07,-7.610397225727144e-09
1668678480.2549305,51669,1668678480,254767886,,9.638019547306808e-07,4.137675679992654e-11,1.7786772221162268e-13,1.604451016440673e-06,-5.666504886432038e-07,-7.53542537276226e-09
1668678480.2619262,51670,1668678480,261822965,,9.333413840275185e-07,3.879265140363814e-11,1.799074808925928e-13,1.5942023547162506e-06,-5.601104836675946e-07,-7.46008394632498e-09
1668678480.2708938,51671,1668678480,270669722,,9.034464946457938e-07,3.63362713141456e-11,1.8125503556710864e-13,1.5838309684846967e-06,-5.535506860042178e-07,-7.384385526783689e-09
1668678480.2785983,51672,1668678480,278219358,,8.741315610845901e-07,3.4002380035731136e-11,1.8189266139751788e-13,1.5733391592322553e-06,-5.4697209238377e-07,-7.30834263026885e-09
1668678480.2868035,51673,1668678480,286539233,,8.454085858396485e-07,3.178583143672312e-11,1.8192039109726323e-13,1.5627292255792616e-06,-5.403756940294457e-07,-7.2319677294303975e-09
1668678480.29422,51674,1668678480,294048117,,8.172874554443512e-07,2.968172678393317e-11,1.814336522097703e-13,1.5520034630275289e-06,-5.337624765747589e-07,-7.15527323126453e-09
1668678480.302905,51675,1668678480,302679673,,7.89776087993457e-07,2.7685422335111165e-11,1.8044834595213027e-13,1.5411641637032405e-06,-5.271334199941423e-07,-7.078271492906216e-09
1668678480.310246,51676,1668678480,310075263,,7.628805731560435e-07,2.5792180444522784e-11,1.7897562861400663e-13,1.5302136160602025e-06,-5.204894985030461e-07,-7.000974800191214e-09
1668678480.3182921,51677,1668678480,318113963,,7.366053045428063e-07,2.3997751964992672e-11,1.7713521102877308e-13,1.5191541046328746e-06,-5.138316804898847e-07,-6.923395390405683e-09
1668678480.3272784,51678,1668678480,327108595,,7.109531051317645e-07,2.229778966717572e-11,1.749687203904075e-13,1.5079879097717703e-06,-5.071609284389479e-07,-6.8455454422784894e-09
1668678480.3349102,51679,1668678480,334755874,,6.859253457909743e-07,2.0688239348956607e-11,1.7248015882686393e-13,1.4967173073928306e-06,-5.004781988512884e-07,-6.7674370631736435e-09
1668678480.3419793,51680,1668678480,341812535,,6.615220572725662e-07,1.916501526726088e-11,1.6966628034567379e-13,1.4853445687111666e-06,-4.937844421698804e-07,-6.6890822978899145e-09
1668678480.3504503,51681,1668678480,350272325,,6.377420360429741e-07,1.7724440674277868e-11,1.666369337563549e-13,1.4738719599923055e-06,-4.87080602709087e-07,-6.610493144916239e-09
1668678480.3586736,51682,1668678480,358549708,,6.1458294424058e-07,1.6362777094602122e-11,1.6334594045335698e-13,1.4623017423017065e-06,-4.803676185759889e-07,-6.531681511353052e-09
1668678480.3668532,51683,1668678480,366713233,,5.920414038062544e-07,1.5076393518247976e-11,1.59887592031596e-13,1.4506361712456639e-06,-4.7364642160256277e-07,-6.452659257775914e-09
1668678480.3739944,51684,1668678480,373847124,,5.701130854788066e-07,1.386192206119137e-11,1.5626298334999353e-13,1.4388774967441995e-06,-4.6691793728264265e-07,-6.373438166615564e-09
1668678480.3823295,51685,1668678480,382183112,,5.487927923851925e-07,1.271612741473445e-11,1.5249354392817764e-13,1.4270279627742356e-06,-4.601830846939196e-07,-6.29402996082419e-09
1668678480.390155,51686,1668678480,390064697,,5.280745389008534e-07,1.1635841490459554e-11,1.4858861185137936e-13,1.4150898071407034e-06,-4.5344277643963787e-07,-6.214446285845279e-09
1668678480.398864,51687,1668678480,398756176,,5.079516247137234e-07,1.0617930669783891e-11,1.445771939948915e-13,1.4030652612240085e-06,-4.4669791857154995e-07,-6.134698719626604e-09
1668678480.4064994,51688,1668678480,406279891,,4.884167046124894e-07,9.659566800780669e-12,1.4053376817763942e-13,1.3909565497591039e-06,-4.399494105375441e-07,-6.054798775049512e-09
1668678480.4146147,51689,1668678480,414451610,,4.694618538141884e-07,8.75779213144378e-12,1.364035450670677e-13,1.3787658906007475e-06,-4.33198145118168e-07,-5.974757888424421e-09
1668678480.4241073,51690,1668678480,423776815,,4.5107862946516555e-07,7.909995060388956e-12,1.3225918927152945e-13,1.3664954944816044e-06,-4.264450083522981e-07,-5.894587420827539e-09
1668678480.4316146,51691,1668678480,431402405,,4.3325812823143046e-07,7.113553940179407e-12,1.280853055312217e-13,1.3541475648141897e-06,-4.196908794963416e-07,-5.81429866321896e-09
1668678480.4390101,51692,1668678480,438893698,,4.159910402159709e-07,6.3661116347237625e-12,1.2389156527797099e-13,1.3417242974426276e-06,-4.1293663095489645e-07,-5.733902832548636e-09
1668678480.44643,51693,1668678480,446237870,,3.992676995276711e-07,5.665171104482778e-12,1.1965594679366263e-13,1.3292278804204138e-06,-4.0618312822100224e-07,-5.653411068752274e-09
1668678480.4541821,51694,1668678480,453941613,,3.8307813128036283e-07,5.0084624761787656e-12,1.154607296714971e-13,1.3166604938024678e-06,-3.9943122982337726e-07,-5.572834435100205e-09
1668678480.4629402,51695,1668678480,462797711,,5.621010414082752e-07,4.3953308544772105e-12,1.1143161890308157e-13,1.3040243108236316e-06,-3.926817824814449e-07,-5.492183919832262e-09
1668678480.4706612,51696,1668678480,470558623,,1.3099354885188809e-06,3.832025091834291e-12,1.0827199913353907e-13,1.2913214972558249e-06,-3.859356216399832e-07,-5.411470434972467e-09
1668678480.4784284,51697,1668678480,478208700,,2.9695353515596293e-06,3.354235777219684e-12,1.0700228932283914e-13,1.2785542089151935e-06,-3.791935764849008e-07,-5.330704814249564e-09
1668678480.4861567,51698,1668678480,486025186,,5.854951737766125e-06,3.0700770856106182e-12,1.0758014215267983e-13,1.2657245901099979e-06,-3.72456469347712e-07,-5.249897805943823e-09
1668678480.494676,51699,1668678480,494530514,,1.0252994728764143e-05,3.2145332070086253e-12,1.0730625182702399e-13,1.2528347717041966e-06,-3.657251149772341e-07,-5.169060081449382e-09
1668678480.5020149,51700,1668678480,501875385,,1.642481756054933e-05,4.207421140670068e-12,9.927897393835312e-14,1.2398868689000754e-06,-3.5900031972642146e-07,-5.088202233491769e-09
1668678480.5105407,51701,1668678480,510406898,,2.4607426242156794e-05,6.712110289632157e-12,7.072115832441822e-14,1.2268829789055053e-06,-3.5228288069363586e-07,-5.0073347774225955e-09
1668678480.518466,51702,1668678480,518332993,,3.5015117526794336e-05,1.1689481475373045e-11,1.4121976207981314e-15,1.2138251786063197e-06,-3.4557358488667983e-07,-4.9264681436462306e-09
1668678480.5264432,51703,1668678480,526221284,,4.7840848060609086e-05,2.0445106295542288e-11,-1.374659472441116e-13,1.2007155223038567e-06,-3.3887320840445956e-07,-4.845612679063149e-09
1668678480.5346484,51704,1668678480,534515328,,6.325753744616863e-05,3.466810830084582e-11,-3.8447501781618033e-13,1.1875560395926204e-06,-3.3218251566481897e-07,-4.764778650098917e-09
1668678480.5420327,51705,1668678480,541909603,,8.141930787263139e-05,5.645999313434745e-11,-7.885908939945208e-13,1.1743487334352568e-06,-3.2550225871847625e-07,-4.683976239749747e-09
1668678480.5502555,51706,1668678480,550134504,,0.0001024626628789634,8.835417124937489e-11,-1.4100361358537865e-12,1.1610955785030116e-06,-3.188331766407892e-07,-4.603215554880528e-09
1668678480.5586143,51707,1668678480,558375537,,0.00012650760773504543,1.3332416468157484e-10,-2.3202257760998668e-12,1.1477985196809991e-06,-3.121759949998615e-07,-4.5225066032871745e-09
1668678480.56655,51708,1668678480,566274515,,0.00015365871384293372,1.9478305326342934e-10,-3.6019186019424706e-12,1.1344594709244522e-06,-3.0553142542739233e-07,-4.4418593287028074e-09
1668678480.5744586,51709,1668678480,574195208,,0.00018400612948268305,2.7657278485410747e-10,-5.3490286910762854e-12,1.1210803143464637e-06,-2.989001652880618e-07,-4.361283573921324e-09
1668678480.5822597,51710,1668678480,582120003,,0.00021762653914776076,3.8294544949988314e-10,-7.666148633958902e-12,1.1076628995522983e-06,-2.9228289743207897e-07,-4.28078910573405e-09
1668678480.590946,51711,1668678480,590765082,,0.00025458407364011183,5.18536518540963e-10,-1.0667726537762199e-11,1.0942090432705808e-06,-2.8568029004769467e-07,-4.200385598802231e-09
1668678480.5985556,51712,1668678480,598425136,,0.00029493117302004183,6.883319398305956e-10,-1.4477452053663693e-11,1.080720529220408e-06,-2.790929965935448e-07,-4.120082645225117e-09
1668678480.6078756,51713,1668678480,607569851,,0.0003387094044340257,8.976286370756427e-10,-1.9227192636250343e-11,1.0671991081834253e-06,-2.7252165581332e-07,-4.039889746408447e-09
1668678480.6153092,51714,1668678480,615167382,,0.0003859502367721368,1.1519914710574323e-09,-2.5055804531935676e-11,1.0536464983378817e-06,-2.6596689183746395e-07,-3.9598163271590756e-09
1668678480.6229029,51715,1668678480,622650716,,0.00043667577403809553,1.4572055089211328e-09,-3.21080014309128e-11,1.0400643857420266e-06,-2.594293143376407e-07,-3.879871713838301e-09
1668678480.6311038,51716,1668678480,630975739,,0.0004908994492473994,1.8192266826288406e-09,-4.053306021755253e-11,1.026454425039689e-06,-2.5290951875505253e-07,-3.80006514753492e-09
1668678480.6387677,51717,1668678480,638631981,,0.0005486266806035966,2.2441297506554775e-09,-5.048346898758955e-11,1.0128182402823304e-06,-2.464080865750479e-07,-3.7204057788068484e-09
1668678480.6472175,51718,1668678480,647063500,,0.0006098554916388118,2.7380559108403867e-09,-6.211359846503178e-11,9.991574259252257e-07,-2.3992558567098306e-07,-3.6409026624769497e-09
1668678480.6549788,51719,1668678480,654796951,,0.0006745770969423007,3.3071604128057056e-09,-7.557827064548103e-11,9.854735479103182e-07,-2.3346257065751772e-07,-3.561564772703446e-09
1668678480.6626558,51720,1668678480,662520471,,0.0007427764550407917,3.957560451280593e-09,-9.103152863953199e-11,9.717681448690366e-07,-2.2701958331447888e-07,-3.482400992571577e-09
1668678480.6712074,51721,1668678480,671099637,,0.0008144327899352654,4.695284618459949e-09,-1.0862525747537779e-10,9.580427293976856e-07,-2.2059715300973685e-07,-3.4034201047694612e-09
1668678480.6790795,51722,1668678480,678866476,,0.0008895200827418971,5.5262240540369785e-09,-1.2850779199999713e-10,9.442987893829311e-07,-2.1419579716268824e-07,-3.3246308050322027e-09
1668678480.6866755,51723,1668678480,686543309,,0.0009680075348294427,6.456086043600975e-09,-1.5082285103963635e-10,9.305377893853657e-07,-2.0781602171444046e-07,-3.2460416912998696e-09
1668678480.6941414,51724,1668678480,693947702,,0.0010498600037916579,7.490350180712372e-09,-1.7570828845409333e-10,9.167611720588303e-07,-2.0145832162570112e-07,-3.1676612758605588e-09
1668678480.7024794,51725,1668678480,702320491,,0.0011350384135412693,8.63422790161477e-09,-2.032950269688695e-10,9.029703595720228e-07,-1.951231813594276e-07,-3.0894979651842347e-09
1668678480.710703,51726,1668678480,710593089,,0.0012235001397605917,9.892624887166998e-09,-2.3370617067118646e-10,8.891667550339123e-07,-1.8881107538081356e-07,-3.0115600881119864e-09
1668678480.7186737,51727,1668678480,718536701,,0.0013151993718966079,1.1270107408032025e-08,-2.6705584488598417e-10,8.75351743911959e-07,-1.825224686489036e-07,-2.9338558700520156e-09
1668678480.7271304,51728,1668678480,726779427,,0.0014100874528387558,1.2770872205898853e-08,-3.034485550071338e-10,8.615266954257604e-07,-1.7625781710846181e-07,-2.856393429076509e-09
1668678480.7346933,51729,1668678480,734508741,,0.001508113197373272,1.4398720088418273e-08,-3.429784879528875e-10,8.476929639356609e-07,-1.7001756816979226e-07,-2.779180795654118e-09
1668678480.742037,51730,1668678480,741848120,,0.0016092231904624805,1.6157033466111475e-08,-3.857287917140705e-10,8.33851890257833e-07,-1.6380216117258098e-07,-2.7022259057110642e-09
1668678480.7509048,51731,1668678480,750686656,,0.0017133620663551292,1.804875757718968e-08,-4.317710657200079e-10,8.200048029442419e-07,-1.5761202784277882e-07,-2.625536587187033e-09
1668678480.7585087,51732,1668678480,758286669,,0.001820472769491345,2.0076385399130015e-08,-4.811650077117678e-10,8.061530195341897e-07,-1.5144759272646522e-07,-2.5491205773824077e-09
1668678480.7662754,51733,1668678480,766083585,,0.0019304967981263214,2.2241946357487656e-08,-5.339579814479089e-10,7.922978477118994e-07,-1.453092736119349e-07,-2.4729855168867387e-09
1668678480.774179,51734,1668678480,773966437,,0.002043374431557538,2.4546998549345214e-08,-5.901848149463588e-10,7.784405864336543e-07,-1.3919748192514712e-07,-2.397138937001997e-09
1668678480.7823896,51735,1668678480,782202209,,0.002159044941802619,2.6992624565302624e-08,-6.498676174763489e-10,7.645825269780484e-07,-1.3311262311086326e-07,-2.3215882874981497e-09
1668678480.7906103,51736,1668678480,790376841,,0.0022774467905393885,2.9579429862501325e-08,-7.130157228324615e-10,7.507249539162792e-07,-1.2705509698014055e-07,-2.2463408932450746e-09
1668678480.7985864,51737,1668678480,798387313,,0.0023985178120834,3.230754543512254e-08,-7.796256392287867e-10,7.36869146028153e-07,-1.2102529805769677e-07,-2.1714039997490497e-09
1668678480.8064818,51738,1668678480,806283578,,0.0025314339831277676,3.563126606285361e-08,-8.609180598065195e-10,7.23002743930486e-07,-1.1501886092549782e-07,-2.09678594365742e-09
1668678480.8147159,51739,1668678480,814517421,,0.0026617948766172136,3.871929152728843e-08,0.0001781049951128476,7.091472610976603e-07,-1.0904324447091971e-07,-2.022491955161465e-09
1668678480.8220274,51740,1668678480,821880617,,0.0027919814114139674,4.302224026158934e-08,0.0004360333607108973,6.953010926954904e-07,-1.0309781705127507e-07,-1.9485292337972915e-09
1668678480.8306901,51741,1668678480,830473105,,0.002924439211551572,4.8693425013082395e-08,0.0006727220504138576,6.814617904906149e-07,-9.718166012370711e-08,-1.8749049283603436e-09
1668678480.8384688,51742,1668678480,838318509,,0.003057896576708986,5.624375623729083e-08,0.0009462397714914553,6.676328110128722e-07,-9.129590600943558e-08,-1.8016255778907642e-09
1668678480.8466554,51743,1668678480,846388349,,0.0031929713087323532,6.550406946479653e-08,0.0012263759823612675,6.538144457208278e-07,-8.544058497218874e-08,-1.72869789316632e-09
1668678480.8557289,51744,1668678480,855077847,,0.003329957444669869,7.175310196035841e-08,0.0013612309700512834,6.400074092404649e-07,-7.961587250822149e-08,-1.656128448788985e-09
1668678480.862443,51745,1668678480,862185081,,0.003469161844826592,7.786984708398886e-08,0.001482745378409246,6.262122858425272e-07,-7.3821897135024e-08,-1.5839237213488566e-09
1668678480.8705406,51746,1668678480,870366848,,0.003610339433648596,8.087162521566036e-08,0.0015088974793323279,6.124307096932259e-07,-6.805914727063165e-08,-1.5120899922796416e-09
1668678480.8787189,51747,1668678480,878490808,,0.00375352726439479,8.235118843009313e-08,0.0014861811624296232,5.986637559303969e-07,-6.23279152520812e-08,-1.4406334831670864e-09
1668678480.8862238,51748,1668678480,886040772,,0.0038987148840155927,8.23605901640309e-08,0.0014096230041688816,5.84912577058266e-07,-5.6628517278276176e-08,-1.3695603080440821e-09
1668678480.8939435,51749,1668678480,893817130,,0.004045867856264055,8.22013418165847e-08,0.0013084483549345813,5.71178368647738e-07,-5.0961281481906335e-08,-1.298876484666367e-09
1668678480.9022613,51750,1668678480,902120137,,0.004194953334927047,8.2907718662096e-08,0.0012126869325926827,5.574623153819966e-07,-4.5326529357918224e-08,-1.2285879197673766e-09
1668678480.9104912,51751,1668678480,910284961,,0.004345895789248798,8.400715947134038e-08,0.0011073465666860914,5.437657027649581e-07,-3.972461411894243e-08,-1.1587003960478182e-09
1668678480.9184275,51752,1668678480,918226672,,0.004498642871393303,8.573072082244924e-08,0.0010003396144428504,5.300897633153347e-07,-3.4155867861660914e-08,-1.0892196077375016e-09
1668678480.926475,51753,1668678480,926255695,,0.004653139479865489,8.812901447404769e-08,0.000895684699818128,5.164357373198898e-07,-2.862062248716558e-08,-1.0201511449828282e-09
1668678480.9344857,51754,1668678480,934301449,,0.00480932958760024,9.116893772860665e-08,0.0007953472272644953,5.028048693423405e-07,-2.3119208518852623e-08,-9.515004903773439e-10
1668678480.9420202,51755,1668678480,941837578,,0.0049671572187672255,9.47832342934702e-08,0.0007002129306857727,4.891984061891033e-07,-1.7651954432548224e-08,-8.832730241659092e-10
1668678480.9503815,51756,1668678480,950209427,,0.005126567561489156,9.89017763857258e-08,0.0006112143611803441,4.756175939353005e-07,-1.2219185685469983e-08,-8.154740199078914e-10
1668678480.9586236,51757,1668678480,958368516,,0.0052875051605982305,1.0343439978451244e-07,0.0005274306328279204,4.6206368336941295e-07,-6.821226593658504e-09,-7.481086444771634e-10
1668678480.9663405,51758,1668678480,966221728,,0.004607925026186898,0.0002706489006956525,0.0004894439813442036,4.5136769122567863e-07,-2.425666502240461e-09,-6.809945775690385e-10
1668678480.9746253,51759,1668678480,974133993,,0.003373355200601079,0.0010577817672372354,0.00043421458371613255,4.419813090747956e-07,1.494661611207873e-09,-6.142484351018274e-10
1668678480.9824276,51760,1668678480,982189734,,0.002255105215984489,0.0017806723984613818,0.0003824880079949269,4.310970496633087e-07,5.899197875011046e-09,-5.480571656224509e-10
1668678480.990332,51761,1668678480,990187528,,0.0009162146624659406,0.0027279982003515376,0.0003238849899329311,4.1924650160278873e-07,1.0604472140453917e-08,-4.823867300243333e-10
1668678480.998761,51762,1668678480,998633272,,-0.0006447849957446798,0.0036008907088491316,0.00026387853235056635,4.0564971484925694e-07,1.5876166034654946e-08,-4.172899903225058e-10
1668678481.0071096,51763,1668678481,6595650,,-0.0022409649103919994,0.004400853609930294,0.00020523893555804114,3.900294144488985e-07,2.1810063379254898e-08,-3.527914011272615e-10
1668678481.0145283,51764,1668678481,14134082,,-0.0029645242691613213,0.005122738702263557,0.00014930728811962153,3.7491362818830844e-07,2.755542761543185e-08,-2.8873702647563837e-10
1668678481.0229018,51765,1668678481,22757507,,-0.003597749556265084,0.005777485342407916,9.74990540394701e-05,3.5966692144891464e-07,3.332166428448701e-08,-2.2517380321440683e-10
1668678481.0303133,51766,1668678481,30123636,,-0.003383155249091487,0.006154902159389561,4.880478500938249e-05,3.473323406536359e-07,3.808210860716042e-08,-1.6189968116142595e-10
1668678481.039601,51767,1668678481,39342447,,-0.0027470952294016615,0.006377018033565087,3.447197333718149e-06,3.3653884212491635e-07,4.2298316181284355e-08,-9.900193945894253e-11
1668678481.046807,51768,1668678481,46668542,,-0.0019138671379715316,0.006356478224606206,-3.853178672733514e-05,3.2634739647079884e-07,4.6287446085698e-08,-3.654579677075942e-11
1668678481.054781,51769,1668678481,54594702,,-0.0015744627968427838,0.005815734708137696,2.5041553809905466e-05,3.1509139641927483e-07,5.061118291394527e-08,2.5344873769150844e-11
1668678481.0621629,51770,1668678481,61984513,,-0.001473212742652641,0.005036789060090646,0.00013760504470874854,3.0341599123950917e-07,5.5051904767226064e-08,8.670922486964106e-11
1668678481.071475,51771,1668678481,71184611,,-0.0013474361737044918,0.004309463630635803,0.00024098862510167637,2.9172605309128353e-07,5.947339673094843e-08,1.4757179072483195e-10
1668678481.0784633,51772,1668678481,78267751,,-0.0009654831892408136,0.0037355842743140963,0.0002885623986985026,2.803120323914081e-07,6.377826854887954e-08,2.0795013757832215e-10
1668678481.086303,51773,1668678481,86159218,,-0.00045790596267615536,0.00325496127821834,0.0003068517938703272,2.688553249227232e-07,6.807401691146252e-08,2.6781649814511255e-10
1668678481.0945678,51774,1668678481,94414506,,0.000155734717102884,0.003163943624738712,0.0002833642460449872,2.571671204303207e-07,7.242417452426274e-08,3.271522989577863e-10
1668678481.1027496,51775,1668678481,101848672,,0.0005785258963202412,0.0034527781799339355,0.00024014587402285638,2.4517519486113627e-07,7.68521408005161e-08,3.8594788270233243e-10
1668678481.1103644,51776,1668678481,110194476,,0.0009982780462856238,0.003711983628032457,0.00019986875001980797,2.3318615118767285e-07,8.125564351963491e-08,4.4422286850495304e-10
1668678481.1183488,51777,1668678481,118223769,,0.001323164734685141,0.004143858293328513,0.00015125214029709845,2.2118765720568724e-07,8.563840560470185e-08,5.019728290802869e-10
1668678481.1271935,51778,1668678481,127068976,,0.0014684192353747504,0.004681669746964854,0.00010028739040203515,2.0923111225527353e-07,8.998305378231055e-08,5.591983474851573e-10
1668678481.1344562,51779,1668678481,134225119,,0.0016248931620023513,0.00518785646360885,5.0038641211649726e-05,1.973437703099147e-07,9.428142277639277e-08,6.158982360845045e-10
1668678481.1421895,51780,1668678481,141991924,,0.0017950819248114115,0.005654442337408893,2.0150011301013194e-06,1.8552782425504532e-07,9.853291456796328e-08,6.72069500745609e-10
1668678481.1524618,51781,1668678481,151974069,,0.0019816948949113794,0.006073008485693629,-4.221692081359075e-05,1.737842424925458e-07,1.0273734406485375e-07,7.277091497752061e-10
1668678481.1587088,51782,1668678481,158479815,,0.002162876127289189,0.006429692872543724,-8.373657138615897e-05,1.621110926156702e-07,1.0689545062081988e-07,7.828140595597319e-10
1668678481.1665604,51783,1668678481,166344888,,0.0023487671169918523,0.006736616313807552,-0.00012226692883831147,1.5050764113473373e-07,1.1100763720863453e-07,8.373812926160303e-10
1668678481.1747413,51784,1668678481,174631622,,0.0027011321316059655,0.006844545330995435,-0.00015773161715425848,1.3894860879228306e-07,1.1508303047578818e-07,8.914061120105995e-10
1668678481.1821682,51785,1668678481,181942870,,0.003323349181546493,0.006686709064038496,-0.00019017878940763753,1.2725549840050827e-07,1.1918234716320385e-07,9.448721362617651e-10
1668678481.1905298,51786,1668678481,190390909,,0.003925166927857836,0.00652815950217701,-0.00021968688888455596,1.153831115171958e-07,1.233202404959309e-07,9.97773524392953e-10
1668678481.1989636,51787,1668678481,198788340,,0.0046492302652500735,0.006240316313517471,-0.0002464826937609792,1.0311498359717998e-07,1.275705056577375e-07,1.0500917982381175e-09
1668678481.2067902,51788,1668678481,206645738,,0.00553240297966177,0.005776794329507163,-0.00027069112936297404,9.011451050174897e-08,1.3204735162928205e-07,1.1018005249482932e-09
1668678481.2146442,51789,1668678481,214520675,,0.006471566448606579,0.005193357420979391,-0.0002924601054655281,7.630654425404173e-08,1.3677618468043947e-07,1.1528948472977474e-09
1668678481.2226038,51790,1668678481,222458086,,0.007360612498617017,0.004645789051658428,-0.0003119399771182337,6.202358458252955e-08,1.4164436461859922e-07,1.2034013906897512e-09
1668678481.231181,51791,1668678481,231006008,,0.008255148120365293,0.004055536219624467,-0.0003292747192224257,4.7072718378541006e-08,1.4671758214381968e-07,1.2533087467153647e-09
1668678481.238272,51792,1668678481,238122616,,0.00912838346384165,0.0034633011790727738,-0.0003445997179809058,3.1606634476295066e-08,1.5194433603563052e-07,1.3026318409353754e-09
1668678481.2463777,51793,1668678481,246224534,,0.009967443155332696,0.002889541490828515,-0.00035804281887259304,1.577408547674046e-08,1.5727451418539587e-07,1.3513852051283415e-09
1668678481.2540834,51794,1668678481,253921353,,0.010766756673744209,0.00234405061264878,-0.0003697251838073875,-2.9279815086434655e-10,1.6266366191069461e-07,1.3995817282896894e-09
1668678481.262581,51795,1668678481,262412112,,0.011520407584910318,0.0018370422152269147,-0.0003797614377539872,-1.6442291182066932e-08,1.6806069571520706e-07,1.447234599522007e-09
1668678481.2703207,51796,1668678481,270189249,,0.012235046775404764,0.001360456848206869,-0.0003882613581249852,-3.263744735736607e-08,1.7345340820866962e-07,1.4943488911567382e-09
1668678481.2785158,51797,1668678481,278350681,,0.012910764109641752,0.0009156629427325649,-0.0003953286743008354,-4.87944208089181e-08,1.7881370034390472e-07,1.5409319167880575e-09
1668678481.2863371,51798,1668678481,286218889,,0.013548640663058636,0.0005025238296703042,-0.00040106185617188206,-6.484553248265737e-08,1.8411893862438139e-07,1.586989092222657e-09
1668678481.294856,51799,1668678481,294482772,,0.014150234353421644,0.00012014537073579335,-0.0004055543324430932,-8.073623443012319e-08,1.8935092446553323e-07,1.6325242026271614e-09
1668678481.3049667,51800,1668678481,304756331,,0.01471698390171077,-0.00023225849064183665,-0.0004088946481082163,-9.641845384050101e-08,1.9449363928110896e-07,1.6775398153923149e-09
1668678481.3109357,51801,1668678481,310767578,,0.015251224315692025,-0.0005568332356470883,-0.0004111668184987691,-1.1186356724783445e-07,1.9953763613579558e-07,1.722036846452113e-09
1668678481.3182025,51802,1668678481,318069473,,0.015754691166434395,-0.000854916088367269,-0.00041245033142632526,-1.2704307772876946e-07,2.044734994085867e-07,1.76601555254563e-09
1668678481.3264697,51803,1668678481,326237952,,0.016229115765916652,-0.0011278952995391978,-0.0004128204104771444,-1.419350967110254e-07,2.0929403893657494e-07,1.8094753403974373e-09
1668678481.3340564,51804,1668678481,333943441,,0.01667618805255614,-0.0013771541534314028,-0.00041234819397075785,-1.565232316953736e-07,2.1399391416981797e-07,1.8524149054954808e-09
1668678481.3423872,51805,1668678481,342205606,,0.017097512985005187,-0.0016040056546615937,-0.00041110090504261146,-1.7079530211427853e-07,2.185692004983298e-07,1.8948323951550883e-09
1668678481.3505666,51806,1668678481,350344324,,0.017494693132748096,-0.0018098099404245907,-0.00040914203647348106,-1.8474402122692227e-07,2.2301762088049095e-07,1.9367254536217793e-09
1668678481.3586495,51807,1668678481,358417930,,0.017869214379801147,-0.001995806786488222,-0.0004065314968704061,-1.9836468258745978e-07,2.2733776399027576e-07,1.9780914232991886e-09
1668678481.3662405,51808,1668678481,366117627,,0.018222495395559278,-0.002163185211517611,-0.00040332577804212184,-2.1165538804853454e-07,2.3152916237868804e-07,2.0189274176074523e-09
1668678481.3740394,51809,1668678481,373868348,,0.018555887094044952,-0.002313082386854552,-0.00030678572668487423,-2.246165855165341e-07,2.355921368819673e-07,2.059230366086018e-09
1668678481.3825493,51810,1668678481,382370029,,0.018870673139576754,-0.0024465768957218285,-0.00021726840026102653,-2.3725063901715456e-07,2.395276521048118e-07,2.0989971358242876e-09
1668678481.390394,51811,1668678481,390236391,,0.019168077421590504,-0.002564704599346695,-8.528971419430828e-05,-2.4956161236296907e-07,2.4333724411168284e-07,2.1382245349310658e-09
1668678481.3985882,51812,1668678481,398327121,,0.019449258504471538,-0.0026684447677967145,9.386566149572058e-05,-2.6155482335760236e-07,2.4702287035739505e-07,2.1769094513124365e-09
1668678481.4066262,51813,1668678481,406508531,,0.019715315634092373,-0.0027587282434131354,0.00028908577149515125,-2.732366548088567e-07,2.5058684641698047e-07,2.215048838793976e-09
1668678481.4140265,51814,1668678481,413828072,,0.019967290970479917,-0.0028364393310576306,0.0005119918921207559,-2.846143311173346e-07,2.540317711861471e-07,2.252639748345775e-09
1668678481.422465,51815,1668678481,422279789,,0.02020617160217385,-0.0029024178350042715,0.0007162758130932778,-2.9569572260502454e-07,2.573604611139004e-07,2.289679411349166e-09
1668678481.4304914,51816,1668678481,430317683,,0.020432893218804815,-0.0029574592776643997,0.000983550598474447,-3.064891897577057e-07,2.60575898128855e-07,2.3261652604134042e-09
1668678481.4383986,51817,1668678481,438256182,,0.0206483405628274,-0.0030023190251139364,0.0012703826047728785,-3.170034275398856e-07,2.636811774150592e-07,2.362094846108942e-09
1668678481.446488,51818,1668678481,446342011,,0.020853350620696993,-0.0030377124205207087,0.0015773289456421072,-3.272473488187533e-07,2.666794683195677e-07,2.3974660312564566e-09
1668678481.4548724,51819,1668678481,454643988,,0.021048716436963856,-0.0030675862646874293,0.0019374267285578394,-3.37244539683635e-07,2.6957890406238954e-07,2.432277691755136e-09
1668678481.4628499,51820,1668678481,462586706,,0.021235182567888086,-0.0030890499837576977,0.0022652503177614668,-3.469884066663819e-07,2.723774152874449e-07,2.466527336542068e-09
1668678481.4701493,51821,1668678481,470029339,,0.021413455946645833,-0.0031044237817634476,0.002605306340693764,-3.564956673463276e-07,2.7508081402332664e-07,2.5002140358054703e-09
1668678481.4783692,51822,1668678481,478139396,,0.02158421830975398,-0.003148610151851557,0.003012092010789287,-3.6593166490749484e-07,2.777451822666118e-07,2.5333489611645277e-09
1668678481.486714,51823,1668678481,486555605,,0.02174808683803825,-0.00320222183685143,0.003433016109152583,-3.752155812214897e-07,2.803433964674749e-07,2.5659266586486318e-09
1668678481.4946,51824,1668678481,494389309,,0.021905670544727383,-0.0033074066178046587,0.0038567899814173387,-3.845490020015492e-07,2.829438162124621e-07,2.59796550244884e-09
1668678481.5022957,51825,1668678481,502135931,,0.022167291492353313,-0.00344339887404281,0.004265394571936368,-3.953762460789283e-07,2.860351231493471e-07,2.6296111121926202e-09
1668678481.5104928,51826,1668678481,510354217,,0.02241478295252922,-0.003561858531243405,0.004633299647472567,-4.0584016968759924e-07,2.8898997610725657e-07,2.6607021169633427e-09
1668678481.520387,51827,1668678481,518396292,,0.022707231741699703,-0.003688101820497728,0.00497670029850428,-4.169001247075624e-07,2.921329226630463e-07,2.691341809135661e-09
1668678481.5266082,51828,1668678481,526354390,,0.02303132119980936,-0.003802588257065374,0.005290181268576717,-4.2828954236915576e-07,2.953742550284265e-07,2.721514784365109e-09
1668678481.5341568,51829,1668678481,533948625,,0.02348558100181506,-0.003953202724229205,0.005553462277266643,-4.4171890152614997e-07,2.992927130354966e-07,2.751446327720064e-09
1668678481.5423717,51830,1668678481,542123794,,0.023909358583000917,-0.00408413166028611,0.005784984158484911,-4.545775868811477e-07,3.030064908059399e-07,2.7808393018857736e-09
1668678481.5510738,51831,1668678481,550839868,,0.02438398892208171,-0.004224357290196595,0.005978890684649466,-4.68239632308025e-07,3.0698027650747587e-07,2.8098787116515034e-09
1668678481.5582998,51832,1668678481,558181540,,0.024864792367910213,-0.004382048986300701,0.006213534000037551,-4.82085410328007e-07,3.1100512212865056e-07,2.838497145662977e-09
1668678481.56642,51833,1668678481,566296773,,0.025332192066088156,-0.00453809708079665,0.006453315905373029,-4.95706148219584e-07,3.149431797857486e-07,2.866642083432236e-09
1668678481.5743032,51834,1668678481,574083888,,0.025811144078445536,-0.004760271368064484,0.0067232050075952,-5.098653702236043e-07,3.190528145357663e-07,2.8944386123996857e-09
1668678481.5830317,51835,1668678481,582854052,,0.026254902287223457,-0.004955518790360802,0.006958504402377857,-5.232914075624633e-07,3.229045872139196e-07,2.921690216151074e-09
1668678481.5905874,51836,1668678481,590357687,,0.026685741511270827,-0.005192039154317544,0.007175765858713916,-5.367099669491998e-07,3.267438805291522e-07,2.948515480383218e-09
1668678481.5986512,51837,1668678481,598319930,,0.02709478344914188,-0.005434864830518263,0.007369210416243102,-5.497649334891878e-07,3.3045060029578306e-07,2.9748549595920437e-09
1668678481.6065795,51838,1668678481,606469083,,0.027507535298036567,-0.0056803991243309215,0.00751810713986254,-5.628682064585076e-07,3.3416415656372257e-07,3.0007866538839245e-09
1668678481.6139846,51839,1668678481,613840013,,0.027998334436292356,-0.005911079816767109,0.007605525947837955,-5.772521998913195e-07,3.38301494584841e-07,3.0265685582731017e-09
1668678481.6221592,51840,1668678481,622051061,,0.02845050796912468,-0.006111895216832524,0.007671031365131376,-5.907526600903057e-07,3.4213181148584366e-07,3.05178424891972e-09
1668678481.6304336,51841,1668678481,630189239,,0.02892478729774888,-0.006293126263717892,0.0076977163165438435,-6.045214060120311e-07,3.4604443012041693e-07,3.0766719449903945e-09
1668678481.638192,51842,1668678481,638006895,,0.029398370826259842,-0.006470514243164644,0.007667527372849032,-6.182359921628501e-07,3.499307791603092e-07,3.1011730544650007e-09
1668678481.6465707,51843,1668678481,646308921,,0.02985293317751973,-0.006633302961700303,0.007603648002190809,-6.314726309830307e-07,3.536479035628603e-07,3.1251937149257003e-09
1668678481.6539116,51844,1668678481,653804685,,0.03026033710716665,-0.00679064260151733,0.00758699090309277,-6.437201406748355e-07,3.5702312605996947e-07,3.148602975566739e-09
1668678481.6623363,51845,1668678481,662077817,,0.03063305579635928,-0.006922176416598676,0.007556681279729612,-6.550588699406738e-07,3.6008348189005106e-07,3.171401953550035e-09
1668678481.670341,51846,1668678481,670204188,,0.030944562032070484,-0.007033059683006327,0.007562986776269744,-6.649645826160844e-07,3.6265166872360283e-07,3.193433482928665e-09
1668678481.6785848,51847,1668678481,678329028,,0.03121299079606913,-0.007123167240481007,0.007579872101954467,-6.737696162520466e-07,3.6483965469417436e-07,3.214755302238803e-09
1668678481.6863015,51848,1668678481,686192955,,0.031472593216198656,-0.00719570298994934,0.007620527696915216,-6.821739986804316e-07,3.668838165257326e-07,3.2355416956786343e-09
1668678481.6942475,51849,1668678481,694063835,,0.03177364549616226,-0.007252156692673987,0.007592269998563055,-6.912169639950393e-07,3.691354909757076e-07,3.2560931936820303e-09
1668678481.7023475,51850,1668678481,702209418,,0.032047237708033055,-0.007289863056069342,0.007551266656746462,-6.994642406316694e-07,3.7111048019431575e-07,3.2759992635300605e-09
1668678481.7111657,51851,1668678481,710985568,,0.03232994543510509,-0.007312305670114646,0.007471771412824964,-7.076931318950519e-07,3.730713952977867e-07,3.2954871054258206e-09
1668678481.718414,51852,1668678481,718178168,,0.03263124208195201,-0.007299512453064885,0.007357722361278837,-7.159695065861059e-07,3.750407588311473e-07,3.314584183511382e-09
1668678481.7264466,51853,1668678481,726312274,,0.032928381127257024,-0.007263075594639173,0.0072243780794280475,-7.238924113489196e-07,3.7688335108245104e-07,3.3331650217682807e-09
1668678481.7340167,51854,1668678481,733874252,,0.033201881341590696,-0.007207986590761751,0.007061175219078102,-7.310748339796336e-07,3.7846847018158103e-07,3.351092812964307e-09
1668678481.7434926,51855,1668678481,743281891,,0.03344908249201756,-0.007143047203539094,0.006896938741255742,-7.375120824643804e-07,3.7979443223549493e-07,3.3683501265979743e-09
1668678481.7508109,51856,1668678481,750538681,,0.03373105093157991,-0.007043815479251874,0.006675976923142845,-7.44354591666798e-07,3.8124993704180196e-07,3.385339571171375e-09
1668678481.7582676,51857,1668678481,758077024,,0.03401697391125239,-0.006925152747134807,0.006429644846669122,-7.510398449663632e-07,3.8264533850805235e-07,3.4018697372961704e-09
1668678481.766236,51858,1668678481,766120901,,0.03426449769003948,-0.006773615384163987,0.006162792071947648,-7.565394809379267e-07,3.8363327456956975e-07,3.4175470300934485e-09
1668678481.7745554,51859,1668678481,774367136,,0.034400933798574874,-0.006562354679062373,0.005942916019478305,-7.590470186631844e-07,3.836028846535087e-07,3.4316274821755144e-09
1668678481.7820494,51860,1668678481,781886702,,0.03447576165884029,-0.006323999255243852,0.005748779464831602,-7.598920816067971e-07,3.830022332505442e-07,3.44456254491865e-09
1668678481.7902522,51861,1668678481,790096647,,0.034539630720915294,-0.006092006716382569,0.00555864313634277,-7.60443108438545e-07,3.822931744779101e-07,3.456874862750592e-09
1668678481.7984574,51862,1668678481,798243123,,0.03458604398097983,-0.005816262464605172,0.005374910038968078,-7.602062343917463e-07,3.8130888985210033e-07,3.4683504679389188e-09
1668678481.806465,51863,1668678481,806226461,,0.034620272818730015,-0.005524355539565272,0.005196272407693472,-7.595011465274582e-07,3.801572495837086e-07,3.4791098890707417e-09
1668678481.8145165,51864,1668678481,814289176,,0.034602103268373985,-0.005185526161736349,0.005002691377574162,-7.572329900724863e-07,3.784682326283314e-07,3.488654705396943e-09
1668678481.8229215,51865,1668678481,822735866,,0.034581502613872536,-0.004863237707745951,0.0048145384177930165,-7.549667585980886e-07,3.7677017039388846e-07,3.497657601048143e-09
1668678481.8304856,51866,1668678481,830273876,,0.03456606677452968,-0.004489837806825381,0.004571904206860424,-7.524000389478452e-07,3.749611000875702e-07,3.5059828651373692e-09
1668678481.8389332,51867,1668678481,838723409,,0.03455246667551669,-0.004101734066110618,0.00430770675017033,-7.497177294184623e-07,3.7310359441810985e-07,3.5137151938036126e-09
1668678481.8464203,51868,1668678481,846226355,,0.034546682864643775,-0.003696969897418402,0.004038684534968453,-7.470387412340687e-07,3.7123802060245494e-07,3.5209147264403384e-09
1668678481.8543873,51869,1668678481,854284951,,0.03451801131367604,-0.0032641359697036893,0.003694231699857235,-7.43621041851886e-07,3.6911383601966746e-07,3.5272174486733476e-09
1668678481.8622828,51870,1668678481,862079747,,0.034478525133155,-0.0028312013952110564,0.0033227826031010273,-7.399296748657712e-07,3.6688806942411327e-07,3.532842886289078e-09
1668678481.8706553,51871,1668678481,870505170,,0.034440663496705964,-0.002426880257157386,0.0029741321037907746,-7.364298252443948e-07,3.647180385709693e-07,3.538029612337734e-09
1668678481.8782682,51872,1668678481,878158753,,0.03438771896724955,-0.002037058426766925,0.002622469350978626,-7.326649657833162e-07,3.624497848710856e-07,3.542547824531006e-09
1668678481.8877633,51873,1668678481,887442387,,0.034329322665135054,-0.0016673303275990142,0.0022803756951721137,-7.288817025080121e-07,3.6016675696200207e-07,3.546528001829863e-09
1668678481.894865,51874,1668678481,894728421,,0.03438002933833958,-0.0013481570993396856,0.00199892522052588,-7.277061487240299e-07,3.5875674823915814e-07,3.5514157240013056e-09
1668678481.9026365,51875,1668678481,902439493,,0.034426824152961284,-0.0010515421382760399,0.0017357724545568553,-7.265228884920463e-07,3.5733734186763934e-07,3.5558340091834673e-09
1668678481.9114664,51876,1668678481,911235625,,0.03454799645126499,-0.0008031386703575232,0.0015668773224577581,-7.271577753879236e-07,3.5652586138240107e-07,3.5608260368080735e-09
1668678481.9185033,51877,1668678481,918260399,,0.03470124499975611,-0.000586969926071921,0.0014488402920101767,-7.285974541914502e-07,3.5598094393182907e-07,3.5658657554504813e-09
1668678481.9263127,51878,1668678481,926155590,,0.03474890941676467,-0.0003516029632092047,0.0013322869263205298,-7.27570946602342e-07,3.54597689178034e-07,3.569058791563773e-09
1668678481.9341002,51879,1668678481,933951093,,0.03473351352678431,-0.00013977193003495344,0.0012617063618074555,-7.252815255741514e-07,3.527817696621482e-07,3.5710566725910553e-09
1668678481.9422927,51880,1668678481,942181779,,0.034720470463864485,5.559900610338684e-05,0.0011942149297126446,-7.230838654024153e-07,3.5099063114339517e-07,3.5726511263267646e-09
1668678481.9502044,51881,1668678481,950099927,,0.03467815767845831,0.0002324251791933425,0.0011505683572166153,-7.203206732790614e-07,3.490023852538524e-07,3.5734441308776788e-09
1668678481.9584374,51882,1668678481,958299273,,0.03460385757112622,0.00037681676635753806,0.001066842340625565,-7.170323271007539e-07,3.468306161303735e-07,3.5734497236261653e-09
1668678481.9664004,51883,1668678481,966206229,,0.03451818805209478,0.0004996370252540211,0.0009658140572134867,-7.135892964982684e-07,3.4460049652533e-07,3.572894147207961e-09
1668678481.975262,51884,1668678481,975127411,,0.03445190080964751,0.0005474558206668768,0.0009734203719270682,-7.109816915314626e-07,3.4264682025313825e-07,3.572419651765024e-09
1668678481.982051,51885,1668678481,981909130,,0.03446081825737998,0.0005195235356569068,0.0010971762999716537,-7.103694226102985e-07,3.4136226594472935e-07,3.5728191030703904e-09
1668678481.990171,51886,1668678481,990070774,,0.034472772741789566,0.0004927759729845104,0.0012089901980601742,-7.097266309952243e-07,3.400633015440604e-07,3.572805128138068e-09
1668678481.9982214,51887,1668678481,998090051,,0.03452304043351741,0.00042967262542736477,0.0013723930970277473,-7.10036522391785e-07,3.3908244785889503e-07,3.5730482322859913e-09
1668678482.0064356,51888,1668678482,6238002,,0.03457015528038793,0.0003656999743244976,0.0015457504281316847,-7.101942439104647e-07,3.380469491157199e-07,3.5728232664067328e-09
1668678482.0140023,51889,1668678482,13885180,,0.03465442515103193,0.00032103684223079066,0.0016550125588223519,-7.109224959031372e-07,3.372012165254231e-07,3.572635132176316e-09
1668678482.0222125,51890,1668678482,22033102,,0.03473677265499776,0.0002792685111202572,0.0017523772364435766,-7.115005088018577e-07,3.3630212408213185e-07,3.57199723965973e-09
1668678482.031141,51891,1668678482,30768446,,0.03483681711250549,0.0002481673436443315,0.0018134622477006114,-7.122961798947266e-07,3.354741598389586e-07,3.57117461297074e-09
1668678482.0396378,51892,1668678482,39437845,,0.03494499821443839,0.0002197381800370848,0.0018642163751724646,-7.131589059331759e-07,3.3466673940267533e-07,3.5700702602503576e-09
1668678482.0473952,51893,1668678482,47189438,,0.03505559239357237,0.00019350010592558684,0.0019063094553206654,-7.139703004778821e-07,3.3384009221924457e-07,3.5686049740246695e-09
1668678482.0542438,51894,1668678482,54066687,,0.03516951341616081,0.00018857873569657575,0.0019177862019205219,-7.146264638013735e-07,3.329592837826405e-07,3.566705583657459e-09
1668678482.062649,51895,1668678482,62283337,,0.03527986558714102,0.0001836719184694081,0.001924573357530837,-7.151185649536271e-07,3.320214596884332e-07,3.5643666629336934e-09
1668678482.0709531,51896,1668678482,70806944,,0.03534581190943038,0.00020395486653990432,0.0019296428036210676,-7.143980856651471e-07,3.306723337717643e-07,3.560785125089616e-09
1668678482.07827,51897,1668678482,78091457,,0.035390483264572795,0.00023545547563812164,0.001931843350441512,-7.130608035852619e-07,3.29112871772343e-07,3.556392791370655e-09
1668678482.0862207,51898,1668678482,86011184,,0.0354832278639059,0.00023172787115304669,0.0019123915459954308,-7.129194456763225e-07,3.279556880350556e-07,3.5526032463040202e-09
1668678482.094468,51899,1668678482,94142362,,0.03558086349102197,0.00026451168986025875,0.0018577881415277086,-7.125626599660258e-07,3.267245350115598e-07,3.548333619984856e-09
1668678482.1026075,51900,1668678482,102494232,,0.03567710629287542,0.0002941826070718066,0.0018038348679698085,-7.121145046627936e-07,3.2546143667730107e-07,3.543683346762805e-09
1668678482.1106195,51901,1668678482,110510866,,0.03577540547666376,0.0003402449263204412,0.001733125666084658,-7.11523415477546e-07,3.2414911519534906e-07,3.5386132010706284e-09
1668678482.1182656,51902,1668678482,118120753,,0.035876515382958926,0.00040029832558044384,0.0016514216105263375,-7.108231397164478e-07,3.227991016345553e-07,3.533152527490646e-09
1668678482.1266499,51903,1668678482,126456468,,0.035978472874444424,0.0004644748132480413,0.0015659516842401688,-7.100365215561904e-07,3.214192573779053e-07,3.5273228990440053e-09
1668678482.1342888,51904,1668678482,134131539,,0.036052591316422085,0.000572225190992373,0.0014722822473024636,-7.082713229413081e-07,3.1970813063933977e-07,3.5203703840913647e-09
1668678482.1421256,51905,1668678482,141977442,,0.03614257263460641,0.0006866133320941959,0.0013692734958876951,-7.067420577590473e-07,3.1807594565668416e-07,3.513313182046396e-09
1668678482.1504505,51906,1668678482,150297951,,0.03623268517846476,0.0007906092423837058,0.0012717038659077313,-7.052121425642449e-07,3.164430427780168e-07,3.505958613703175e-09
1668678482.1586497,51907,1668678482,158324005,,0.03633079045983684,0.0008933598712725624,0.001172001394590926,-7.037963921190907e-07,3.148484221317683e-07,3.498413295166536e-09
1668678482.166835,51908,1668678482,166643659,,0.03655827716965726,0.0009576310065510243,0.0011001411916607704,-7.05448568269376e-07,3.1429081749525904e-07,3.493314360003552e-09
1668678482.1743526,51909,1668678482,174159973,,0.03682664304162007,0.0009701216596041063,0.00106317818414893,-7.082925543131662e-07,3.1413782536500977e-07,3.4890752995120344e-09
1668678482.1830418,51910,1668678482,182742682,,0.03708103108783901,0.0009797029209156303,0.0010270390688490178,-7.107746170581172e-07,3.138650501439792e-07,3.4843255294902953e-09
