Time,header.seq,header.stamp.secs,header.stamp.nsecs,header.frame_id,pose.position.x,pose.position.y,pose.position.z,pose.orientation.x,pose.orientation.y,pose.orientation.z,pose.orientation.w
1668678479.56794,51583,1668678479,566980704,,-0.09533123657500596,-0.6129993762938153,0.06373195599871118,0.9955579528564857,0.09353957407152949,-0.004372792772414316,0.00977697653110054
1668678479.5740342,51584,1668678479,573834145,,-0.0953313774688707,-0.6129993762809633,0.063731955998542,0.9955579529468719,0.093539574021393,-0.0043727883760299934,0.009776969773338794
1668678479.582414,51585,1668678479,582263505,,-0.0953315080441857,-0.6129993762684193,0.06373195599837896,0.9955579530375703,0.0935395739714182,-0.004372783979815653,0.009776962982143702
1668678479.5900364,51586,1668678479,589949318,,-0.09533162885868346,-0.6129993762561838,0.06373195599822176,0.9955579531285671,0.09353957392161016,-0.0043727795843327725,0.009776956158649807
1668678479.5992317,51587,1668678479,599034431,,-0.0953317404452817,-0.6129993762442557,0.06373195599807056,0.9955579532198481,0.09353957387197417,-0.004372775190138024,0.009776949303986848
1668678479.6074297,51588,1668678479,607340948,,-0.095331843312994,-0.6129993762326337,0.06373195599792489,0.9955579533113994,0.09353957382251495,-0.004372770797783614,0.009776942419279353
1668678479.6154585,51589,1668678479,615361724,,-0.09533193794781374,-0.6129993762213168,0.06373195599778508,0.9955579534032071,0.09353957377323746,-0.0043727664078174345,0.009776935505647571
1668678479.6224089,51590,1668678479,622288085,,-0.09533202481357428,-0.6129993762103025,0.06373195599765064,0.9955579534952573,0.09353957372414667,-0.004372762020782126,0.009776928564205423
1668678479.6312075,51591,1668678479,631031405,,-0.09533210435278514,-0.6129993761995883,0.06373195599752168,0.9955579535875366,0.09353957367524711,-0.004372757637216069,0.00977692159606239
1668678479.6381812,51592,1668678479,638064372,,-0.09533217698744416,-0.6129993761891719,0.06373195599739809,0.995557953680031,0.09353957362654391,-0.004372753257652848,0.009776914602322348
1668678479.646701,51593,1668678479,646591008,,-0.09533224311982538,-0.6129993761790499,0.06373195599727956,0.9955579537727273,0.09353957357804156,-0.004372748882621175,0.009776907584083418
1668678479.655203,51594,1668678479,654996219,,-0.09533230313324444,-0.6129993761692187,0.06373195599716598,0.995557953865612,0.09353957352974468,-0.004372744512645302,0.009776900542438656
1668678479.6626146,51595,1668678479,662300278,,-0.09533235739279985,-0.6129993761596748,0.06373195599705739,0.9955579539586713,0.09353957348165791,-0.0043727401482442415,0.00977689347847491
1668678479.6709802,51596,1668678479,670819800,,-0.09533240624609243,-0.6129993761504138,0.06373195599695324,0.9955579540518924,0.09353957343378573,-0.004372735789932408,0.009776886393273317
1668678479.6784563,51597,1668678479,678321133,,-0.09533245002392264,-0.6129993761414321,0.06373195599685416,0.9955579541452618,0.09353957338613246,-0.004372731438219619,0.009776879287909932
1668678479.6863148,51598,1668678479,686184941,,-0.09533248904096457,-0.6129993761327246,0.06373195599675929,0.9955579542387665,0.09353957333870246,-0.004372727093610239,0.009776872163453788
1668678479.6940138,51599,1668678479,693802871,,-0.0953325235964203,-0.6129993761242872,0.06373195599666896,0.9955579543323934,0.09353957329150003,-0.004372722756604094,0.009776865020968577
1668678479.7025285,51600,1668678479,702398540,,-0.09533255397465176,-0.6129993761161151,0.0637319559965829,0.9955579544261294,0.09353957324452948,-0.004372718427695961,0.009776857861511458
1668678479.7110963,51601,1668678479,710984671,,-0.09533258044579239,-0.6129993761082032,0.06373195599650064,0.9955579545199619,0.09353957319779502,-0.004372714107375545,0.00977685068613346
1668678479.7192001,51602,1668678479,719044810,,-0.09533260326633852,-0.6129993761005468,0.06373195599642248,0.9955579546138781,0.0935395731513006,-0.004372709796127876,0.009776843495879676
1668678479.7268393,51603,1668678479,726678947,,-0.09533262267972097,-0.6129993760931401,0.06373195599634815,0.995557954707865,0.09353957310505046,-0.0043727054944325775,0.009776836291788117
1668678479.7343864,51604,1668678479,734212628,,-0.09533263891685735,-0.6129993760859787,0.06373195599627747,0.9955579548019103,0.09353957305904849,-0.00437270120276478,0.009776829074891183
1668678479.7421908,51605,1668678479,741983137,,-0.09533265219668519,-0.6129993760790567,0.0637319559962104,0.9955579548960015,0.09353957301329839,-0.004372696921594034,0.00977682184621388
1668678479.751027,51606,1668678479,750917367,,-0.09533266272667604,-0.6129993760723694,0.06373195599614673,0.9955579549901261,0.09353957296780425,-0.004372692651385046,0.009776814606775203
1668678479.758772,51607,1668678479,758608391,,-0.09533267070333333,-0.6129993760659112,0.06373195599608647,0.9955579550842719,0.09353957292256995,-0.004372688392597479,0.00977680735758724
1668678479.7668846,51608,1668678479,766759330,,-0.09533267631267063,-0.6129993760596765,0.06373195599602925,0.9955579551784265,0.093539572877599,-0.0043726841456856215,0.009776800099655012
1668678479.7747858,51609,1668678479,774605487,,-0.09533267973067312,-0.6129993760536601,0.0637319559959753,0.9955579552725778,0.09353957283289524,-0.004372679911099028,0.009776792833977182
1668678479.7832024,51610,1668678479,783111510,,-0.09533268112374442,-0.6129993760478565,0.06373195599592406,0.9955579553667139,0.0935395727884619,-0.004372675689281735,0.009776785561544994
1668678479.7912178,51611,1668678479,791085568,,-0.09533268064913357,-0.6129993760422608,0.06373195599587585,0.9955579554608228,0.0935395727443031,-0.004372671480673027,0.009776778283343224
1668678479.7989821,51612,1668678479,798844253,,-0.09533267845534922,-0.6129993760368667,0.06373195599582993,0.9955579555548927,0.09353957270042197,-0.00437266728570637,0.00977677100034867
1668678479.8063986,51613,1668678479,806225751,,-0.09533267468255709,-0.6129993760316697,0.06373195599578707,0.9955579556489118,0.09353957265682193,-0.00437266310481091,0.009776763713532347
1668678479.8141758,51614,1668678479,814035053,,-0.09533266946296287,-0.6129993760266641,0.06373195599574645,0.9955579557428685,0.09353957261350651,-0.0043726589384100265,0.009776756423856958
1668678479.822857,51615,1668678479,822701981,,-0.09533266292117992,-0.6129993760218445,0.06373195599570816,0.9955579558367514,0.09353957257047872,-0.004372654786921791,0.009776749132278162
1668678479.8305044,51616,1668678479,830302022,,-0.09533265517458352,-0.6129993760172062,0.0637319559956723,0.995557955930549,0.09353957252774195,-0.004372650650759371,0.009776741839744477
1668678479.8386223,51617,1668678479,838354605,,-0.09533264633365157,-0.6129993760127438,0.06373195599563854,0.9955579560242497,0.09353957248529923,-0.0043726465303306735,0.009776734547197114
1668678479.8462915,51618,1668678479,846196539,,-0.09533263650229125,-0.6129993760084523,0.06373195599560683,0.9955579561178426,0.093539572443154,-0.00437264242603798,0.009776727255569268
1668678479.8539808,51619,1668678479,853858614,,-0.09533262577815342,-0.6129993760043263,0.0637319559955772,0.9955579562113164,0.09353957240130885,-0.004372638338278806,0.009776719965787274
1668678479.8623893,51620,1668678479,862280619,,-0.09533261425293434,-0.6129993760003611,0.06373195599554939,0.9955579563046603,0.09353957235976709,-0.004372634267445168,0.009776712678769579
1668678479.8706715,51621,1668678479,870572418,,-0.09533260201266512,-0.612999375996552,0.06373195599552342,0.995557956397863,0.09353957231853163,-0.004372630213923702,0.009776705395426792
1668678479.878315,51622,1668678479,878177818,,-0.09533258913798989,-0.6129993759928938,0.06373195599549915,0.9955579564909142,0.09353957227760501,-0.004372626178095925,0.009776698116662047
1668678479.886533,51623,1668678479,886231618,,-0.0953325757044322,-0.6129993759893819,0.06373195599547642,0.9955579565838028,0.09353957223699036,-0.004372622160337956,0.009776690843370602
1668678479.894042,51624,1668678479,893917618,,-0.0953325617826505,-0.6129993759860121,0.06373195599545517,0.9955579566765184,0.09353957219669021,-0.004372618161020649,0.009776683576440296
1668678479.9023972,51625,1668678479,902235383,,-0.09533254743868348,-0.612999375982779,0.06373195599543553,0.9955579567690502,0.09353957215670719,-0.004372614180509645,0.009776676316750534
1668678479.910331,51626,1668678479,910177147,,-0.0953325327341847,-0.612999375979679,0.06373195599541727,0.9955579568613883,0.09353957211704386,-0.004372610219165198,0.009776669065173486
1668678479.9185567,51627,1668678479,918417962,,-0.09533251772664733,-0.6129993759767071,0.06373195599540034,0.995557956953522,0.0935395720777031,-0.004372606277342384,0.009776661822572624
1668678479.9264886,51628,1668678479,926358331,,-0.09533250246961975,-0.6129993759738595,0.0637319559953848,0.9955579570454413,0.09353957203868715,-0.0043726023553905475,0.009776654589803839
1668678479.9344287,51629,1668678479,934227384,,-0.09533248701291125,-0.6129993759711315,0.06373195599537013,0.995557957137136,0.09353957199999825,-0.004372598453654062,0.009776647367714766
1668678479.9424906,51630,1668678479,942285326,,-0.09533247140278933,-0.6129993759685197,0.06373195599535662,0.9955579572285964,0.09353957196163884,-0.004372594572472107,0.009776640157145378
1668678479.950572,51631,1668678479,950354370,,-0.09533245568216851,-0.6129993759660198,0.06373195599534438,0.9955579573198126,0.09353957192361159,-0.004372590712178202,0.009776632958927091
1668678479.958503,51632,1668678479,958316033,,-0.09533243989079043,-0.6129993759636273,0.06373195599533307,0.9955579574107746,0.09353957188591835,-0.004372586873100722,0.009776625773883297
1668678479.9664745,51633,1668678479,966345619,,-0.09533242406539627,-0.6129993759613391,0.06373195599532268,0.995557957501473,0.09353957184856153,-0.004372583055562705,0.009776618602828906
1668678479.9740198,51634,1668678479,973820588,,-0.095332408239891,-0.6129993759591515,0.06373195599531323,0.9955579575918982,0.09353957181154292,-0.004372579259881932,0.009776611446571114
1668678479.9829717,51635,1668678479,982802733,,-0.09533239244550121,-0.6129993759570608,0.06373195599530461,0.995557957682041,0.09353957177486467,-0.00437257548637065,0.009776604305908125
1668678479.9912705,51636,1668678479,991005079,,-0.09533237671092434,-0.6129993759550629,0.06373195599529671,0.9955579577718918,0.09353957173852899,-0.004372571735336125,0.009776597181630629
1668678479.9986312,51637,1668678479,998333058,,-0.09533236106247249,-0.612999375953155,0.06373195599528973,0.9955579578614416,0.09353957170253784,-0.004372568007079996,0.00977659007452031
1668678480.0071037,51638,1668678480,6943390,,-0.0953323455242092,-0.612999375951334,0.0637319559952834,0.9955579579506814,0.09353957166689278,-0.004372564301898686,0.009776582985350587
1668678480.0146961,51639,1668678480,14297137,,-0.09533233011807878,-0.6129993759495959,0.06373195599527755,0.9955579580396019,0.09353957163159585,-0.0043725606200832635,0.009776575914886357
1668678480.0218449,51640,1668678480,21731601,,-0.09533231486403138,-0.612999375947938,0.0637319559952726,0.9955579581281946,0.0935395715966488,-0.004372556961919824,0.009776568863884632
1668678480.0300977,51641,1668678480,29993791,,-0.09533229978014068,-0.6129993759463571,0.06373195599526793,0.9955579582164504,0.09353957156205331,-0.00437255332768859,0.009776561833092973
1668678480.0384104,51642,1668678480,38221271,,-0.09533228488271672,-0.6129993759448503,0.06373195599526399,0.9955579583043612,0.09353957152781082,-0.0043725497176649655,0.009776554823251122
1668678480.0464413,51643,1668678480,46315155,,-0.0953322701864127,-0.6129993759434147,0.06373195599526046,0.9955579583919181,0.09353957149392318,-0.004372546132118953,0.009776547835090155
1668678480.054114,51644,1668678480,54023298,,-0.09533225570432777,-0.6129993759420475,0.06373195599525736,0.9955579584791127,0.09353957146039175,-0.004372542571315286,0.009776540869332495
1668678480.0619726,51645,1668678480,61854630,,-0.095332241448103,-0.6129993759407456,0.06373195599525472,0.9955579585659368,0.09353957142721808,-0.004372539035513248,0.009776533926691883
1668678480.070438,51646,1668678480,70256161,,-0.09533222742801442,-0.6129993759395073,0.0637319559952523,0.9955579586523823,0.09353957139440369,-0.004372535524966946,0.009776527007873348
1668678480.078608,51647,1668678480,78323493,,-0.09533221365306022,-0.6129993759383293,0.06373195599525043,0.995557958738441,0.09353957136194982,-0.00437253203992555,0.009776520113573769
1668678480.086536,51648,1668678480,86394539,,-0.09533220013104421,-0.6129993759372094,0.06373195599524896,0.995557958824105,0.09353957132985749,-0.004372528580632663,0.009776513244481132
1668678480.0939305,51649,1668678480,93781877,,-0.09533218686865438,-0.6129993759361453,0.06373195599524775,0.9955579589093667,0.09353957129812815,-0.004372525147326632,0.00977650640127426
1668678480.1025207,51650,1668678480,102325418,,-0.09533217387153829,-0.6129993759351345,0.06373195599524681,0.9955579589942181,0.093539571266763,-0.004372521740240805,0.009776499584623824
1668678480.111392,51651,1668678480,111231878,,-0.09533216114437404,-0.6129993759341749,0.06373195599524599,0.9955579590786515,0.09353957123576327,-0.0043725183596031916,0.009776492795191537
1668678480.1188238,51652,1668678480,118666453,,-0.09533214869093722,-0.6129993759332641,0.06373195599524555,0.9955579591626598,0.09353957120513008,-0.004372515005636568,0.009776486033630594
1668678480.1262758,51653,1668678480,126143465,,-0.09533213651416586,-0.6129993759324005,0.06373195599524532,0.9955579592462352,0.09353957117486414,-0.004372511678558522,0.009776479300585167
1668678480.1364706,51654,1668678480,136296055,,-0.09533212461621915,-0.6129993759315818,0.06373195599524546,0.9955579593293707,0.09353957114496679,-0.004372508378581673,0.009776472596690894
1668678480.1428618,51655,1668678480,142636702,,-0.09533211299853668,-0.612999375930806,0.0637319559952454,0.9955579594120593,0.09353957111543833,-0.004372505105913302,0.009776465922574362
1668678480.150324,51656,1668678480,150127259,,-0.09533210166189054,-0.6129993759300715,0.06373195599524596,0.9955579594942935,0.09353957108628025,-0.004372501860755638,0.00977645927885387
1668678480.1585145,51657,1668678480,158373911,,-0.09533209060643791,-0.6129993759293761,0.06373195599524657,0.9955579595760666,0.09353957105749315,-0.004372498643305664,0.00977645266613831
1668678480.1662526,51658,1668678480,166141478,,-0.09533207983176908,-0.6129993759287186,0.06373195599524721,0.995557959657372,0.09353957102907735,-0.004372495453755199,0.009776446085027913
1668678480.1740463,51659,1668678480,173899168,,-0.09533206933695192,-0.6129993759280966,0.06373195599524789,0.9955579597382028,0.09353957100103416,-0.0043724922922913105,0.009776439536114592
1668678480.1828094,51660,1668678480,182715812,,-0.09533205912057721,-0.6129993759275096,0.06373195599524892,0.9955579598185524,0.0935395709733639,-0.004372489159095754,0.009776433019980978
1668678480.1903634,51661,1668678480,190230816,,-0.09533204918079657,-0.6129993759269546,0.06373195599524968,0.9955579598984144,0.09353957094606719,-0.004372486054345066,0.009776426537200773
1668678480.1983392,51662,1668678480,198238965,,-0.09533203951536284,-0.6129993759264313,0.06373195599525074,0.9955579599777824,0.09353957091914461,-0.004372482978210978,0.009776420088339247
1668678480.2066445,51663,1668678480,206418665,,-0.09533203012166505,-0.6129993759259376,0.06373195599525196,0.9955579600566503,0.09353957089259646,-0.004372479930860177,0.009776413673952773
1668678480.2142208,51664,1668678480,214119253,,-0.09533202099676241,-0.6129993759254724,0.06373195599525314,0.9955579601350119,0.09353957086642332,-0.00437247691245429,0.009776407294588717
1668678480.2221067,51665,1668678480,221986813,,-0.09533201213741642,-0.6129993759250344,0.06373195599525452,0.9955579602128609,0.09353957084062547,-0.004372473923150114,0.00977640095078578
1668678480.2308226,51666,1668678480,230706453,,-0.09533200354012043,-0.6129993759246222,0.06373195599525576,0.9955579602901918,0.09353957081520335,-0.0043724709630990595,0.009776394643073585
1668678480.2382512,51667,1668678480,238090700,,-0.095331995201128,-0.6129993759242345,0.06373195599525705,0.9955579603669988,0.09353957079015728,-0.004372468032448006,0.009776388371973177
1668678480.2462506,51668,1668678480,246053709,,-0.09533198711647925,-0.6129993759238703,0.06373195599525848,0.9955579604432759,0.09353957076548734,-0.004372465131338813,0.009776382137996859
1668678480.2549143,51669,1668678480,254767886,,-0.09533197928202536,-0.6129993759235285,0.06373195599525984,0.9955579605190179,0.09353957074119383,-0.004372462259908229,0.009776375941647672
1668678480.2619152,51670,1668678480,261822965,,-0.09533197169345194,-0.612999375923208,0.06373195599526123,0.9955579605942192,0.09353957071727692,-0.004372459418288424,0.009776369783420447
1668678480.2708032,51671,1668678480,270669722,,-0.09533196434630051,-0.6129993759229077,0.06373195599526293,0.9955579606688745,0.0935395706937364,-0.00437245660660656,0.009776363663800962
1668678480.2785847,51672,1668678480,278219358,,-0.09533195723598814,-0.6129993759226262,0.06373195599526449,0.9955579607429783,0.09353957067057254,-0.004372453824984798,0.009776357583265668
1668678480.2867916,51673,1668678480,286539233,,-0.0953319503578276,-0.612999375922363,0.06373195599526588,0.9955579608165259,0.09353957064778515,-0.004372451073540552,0.009776351542282818
1668678480.2942104,51674,1668678480,294048117,,-0.09533194370704343,-0.6129993759221174,0.06373195599526739,0.995557960889512,0.09353957062537437,-0.004372448352386884,0.00977634554131222
1668678480.30289,51675,1668678480,302679673,,-0.09533193727878934,-0.6129993759218876,0.06373195599526904,0.9955579609619319,0.09353957060333964,-0.004372445661631376,0.009776339580804018
1668678480.3102417,51676,1668678480,310075263,,-0.09533193106816268,-0.612999375921674,0.06373195599527039,0.9955579610337809,0.0935395705816812,-0.004372443001377266,0.00977633366120012
1668678480.3182817,51677,1668678480,318113963,,-0.09533192507021915,-0.6129993759214748,0.0637319559952717,0.9955579611050541,0.0935395705603989,-0.004372440371723058,0.009776327782933572
1668678480.3272607,51678,1668678480,327108595,,-0.09533191927998556,-0.6129993759212898,0.06373195599527313,0.9955579611757472,0.09353957053949218,-0.0043724377727625266,0.009776321946428947
1668678480.334899,51679,1668678480,334755874,,-0.0953319136924718,-0.6129993759211176,0.0637319559952747,0.9955579612458555,0.09353957051896072,-0.004372435204584716,0.009776316152101797
1668678480.3419616,51680,1668678480,341812535,,-0.09533190830268216,-0.6129993759209585,0.06373195599527595,0.9955579613153747,0.09353957049880478,-0.004372432667274152,0.00977631040035911
1668678480.3504403,51681,1668678480,350272325,,-0.09533190310562585,-0.6129993759208111,0.06373195599527748,0.9955579613843007,0.09353957047902314,-0.004372430160910536,0.009776304691599224
1668678480.358652,51682,1668678480,358549708,,-0.0953318980963258,-0.6129993759206745,0.06373195599527873,0.9955579614526294,0.09353957045961589,-0.004372427685569024,0.009776299026211455
1668678480.3668342,51683,1668678480,366713233,,-0.09533189326982841,-0.6129993759205488,0.06373195599528005,0.9955579615203567,0.09353957044058227,-0.004372425241320482,0.00977629340457704
1668678480.3739827,51684,1668678480,373847124,,-0.09533188862121043,-0.6129993759204332,0.06373195599528135,0.9955579615874787,0.09353957042192201,-0.004372422828230861,0.009776287827068183
1668678480.3823218,51685,1668678480,382183112,,-0.09533188414558698,-0.612999375920327,0.06373195599528268,0.9955579616539917,0.09353957040363427,-0.004372420446361921,0.0097762822940488
1668678480.3901463,51686,1668678480,390064697,,-0.09533187983811761,-0.6129993759202295,0.06373195599528396,0.995557961719892,0.0935395703857185,-0.004372418095770508,0.009776276805873792
1668678480.3988516,51687,1668678480,398756176,,-0.09533187569401305,-0.6129993759201406,0.06373195599528499,0.995557961785176,0.09353957036817424,-0.004372415776509425,0.009776271362889907
1668678480.406495,51688,1668678480,406279891,,-0.09533187170853973,-0.6129993759200592,0.06373195599528626,0.99555796184984,0.09353957035100062,-0.0043724134886270125,0.009776265965435257
1668678480.4146063,51689,1668678480,414451610,,-0.09533186787702544,-0.6129993759199854,0.06373195599528729,0.9955579619138812,0.09353957033419687,-0.004372411232166776,0.009776260613839105
1668678480.4240904,51690,1668678480,423776815,,-0.09533186419486347,-0.6129993759199186,0.0637319559952884,0.995557961977296,0.09353957031776222,-0.004372409007168526,0.009776255308423043
1668678480.4315817,51691,1668678480,431402405,,-0.09533186065751638,-0.6129993759198589,0.0637319559952895,0.9955579620400811,0.09353957030169595,-0.004372406813667322,0.009776250049499492
1668678480.4390004,51692,1668678480,438893698,,-0.09533185726051988,-0.6129993759198049,0.0637319559952907,0.9955579621022337,0.09353957028599706,-0.004372404651693853,0.009776244837372392
1668678480.4464242,51693,1668678480,446237870,,-0.0953318539994848,-0.6129993759197568,0.0637319559952916,0.9955579621637508,0.09353957027066472,-0.004372402521274635,0.009776239672337613
1668678480.4541745,51694,1668678480,453941613,,-0.09533185087010157,-0.6129993759197142,0.06373195599529254,0.9955579622246297,0.09353957025569797,-0.004372400422432137,0.009776234554682751
1668678480.462928,51695,1668678480,462797711,,-0.09533184708938487,-0.6129993759196767,0.0637319559952935,0.9955579622848675,0.09353957024109592,-0.004372398355184216,0.009776229484686498
1668678480.4706516,51696,1668678480,470558623,,-0.09533183960123884,-0.6129993759196438,0.06373195599529433,0.9955579623444614,0.09353957022685748,-0.004372396319544856,0.009776224462619984
1668678480.4783702,51697,1668678480,478208700,,-0.09533182248335538,-0.6129993759196148,0.0637319559952951,0.9955579624034093,0.09353957021298147,-0.004372394315523766,0.0097762194887453
1668678480.4861486,51698,1668678480,486025186,,-0.09533178718540705,-0.61299937591959,0.06373195599529602,0.9955579624617086,0.09353957019946682,-0.004372392343126716,0.009776214563316826
1668678480.4946659,51699,1668678480,494530514,,-0.09533172275362113,-0.6129993759195657,0.06373195599529685,0.995557962519357,0.09353957018631247,-0.004372390402355423,0.009776209686580504
1668678480.5020072,51700,1668678480,501875385,,-0.09533161604237175,-0.612999375919538,0.06373195599529757,0.9955579625763521,0.09353957017351733,-0.004372388493207256,0.009776204858774024
1668678480.5105286,51701,1668678480,510406898,,-0.0953314519133959,-0.6129993759194988,0.06373195599529842,0.9955579626326921,0.09353957016108007,-0.00437238661567599,0.009776200080127249
1668678480.5184565,51702,1668678480,518332993,,-0.09533121342321982,-0.6129993759194334,0.06373195599529896,0.9955579626883748,0.09353957014899941,-0.004372384769751408,0.009776195350861933
1668678480.5264323,51703,1668678480,526221284,,-0.09533088199935547,-0.6129993759193192,0.0637319559952989,0.9955579627433984,0.09353957013727408,-0.00437238295541909,0.009776190671191693
1668678480.534641,51704,1668678480,534515328,,-0.09533043760581042,-0.612999375919121,0.06373195599529717,0.9955579627977609,0.09353957012590279,-0.004372381172661003,0.009776186041322167
1668678480.5420241,51705,1668678480,541909603,,-0.09532985889842434,-0.6129993759187915,0.06373195599529351,0.9955579628514607,0.09353957011488435,-0.004372379421455584,0.009776181461452297
1668678480.5502455,51706,1668678480,550134504,,-0.09532912337053454,-0.6129993759182631,0.063731955995286,0.9955579629044962,0.09353957010421697,-0.004372377701777122,0.009776176931771767
1668678480.5586028,51707,1668678480,558375537,,-0.09532820748944204,-0.6129993759174492,0.06373195599527276,0.9955579629568656,0.09353957009389978,-0.004372376013596381,0.009776172452463821
1668678480.5665445,51708,1668678480,566274515,,-0.09532708682414191,-0.6129993759162372,0.0637319559952515,0.9955579630085678,0.0935395700839308,-0.004372374356880724,0.009776168023704207
1668678480.5744576,51709,1668678480,574195208,,-0.09532573616475008,-0.6129993759144872,0.06373195599521919,0.9955579630596014,0.09353957007430888,-0.004372372731593748,0.009776163645660732
1668678480.5822513,51710,1668678480,582120003,,-0.09532412963405133,-0.6129993759120271,0.0637319559951714,0.9955579631099651,0.09353957006503226,-0.004372371137695778,0.009776159318494525
1668678480.59093,51711,1668678480,590765082,,-0.09532224079156874,-0.612999375908652,0.06373195599510369,0.9955579631596576,0.09353957005609953,-0.004372369575143692,0.00977615504235984
1668678480.5985355,51712,1668678480,598425136,,-0.09532004273054209,-0.6129993759041172,0.06373195599501043,0.995557963208678,0.09353957004750899,-0.0043723680438908915,0.00977615081740332
1668678480.607863,51713,1668678480,607569851,,-0.09531750816818223,-0.61299937589814,0.06373195599488468,0.9955579632570251,0.0935395700392593,-0.004372366543887903,0.00977614664376553
1668678480.6153,51714,1668678480,615167382,,-0.09531460952955573,-0.6129993758903933,0.06373195599471874,0.995557963304698,0.09353957003134858,-0.004372365075081755,0.009776142521579649
1668678480.622846,51715,1668678480,622650716,,-0.09531131902543731,-0.6129993758805078,0.06373195599450376,0.995557963351696,0.09353957002377514,-0.004372363637416562,0.009776138450972943
1668678480.631094,51716,1668678480,630975739,,-0.09530760872445351,-0.6129993758680664,0.06373195599422965,0.9955579633980183,0.09353957001653732,-0.004372362230833133,0.009776134432065682
1668678480.6387424,51717,1668678480,638631981,,-0.09530345061982605,-0.6129993758526053,0.06373195599388524,0.9955579634436641,0.09353957000963317,-0.00437236085526985,0.009776130464972263
1668678480.6472085,51718,1668678480,647063500,,-0.0952988166910093,-0.6129993758336134,0.06373195599345792,0.9955579634886329,0.09353957000306116,-0.004372359510661561,0.009776126549800554
1668678480.654972,51719,1668678480,654796951,,-0.09529367896050517,-0.6129993758105304,0.06373195599293431,0.9955579635329243,0.09353956999681956,-0.00437235819694086,0.009776122686652525
1668678480.6626322,51720,1668678480,662520471,,-0.09528800954612311,-0.6129993757827482,0.06373195599229964,0.9955579635765375,0.09353956999090628,-0.0043723569140372166,0.009776118875624231
1668678480.6711917,51721,1668678480,671099637,,-0.09528178070894233,-0.6129993757496105,0.06373195599153747,0.9955579636194722,0.09353956998531957,-0.0043723556618774796,0.009776115116805525
1668678480.6790125,51722,1668678480,678866476,,-0.09527496489722129,-0.6129993757104143,0.0637319559906308,0.9955579636617284,0.0935395699800574,-0.004372354440385719,0.009776111410280591
1668678480.6866667,51723,1668678480,686543309,,-0.09526753478648842,-0.6129993756644104,0.06373195598956115,0.9955579637033055,0.0935395699751181,-0.004372353249483768,0.009776107756128093
1668678480.6941342,51724,1668678480,693947702,,-0.09525946331603682,-0.6129993756108063,0.06373195598830894,0.9955579637442037,0.0935395699704994,-0.004372352089090597,0.009776104154421018
1668678480.7024596,51725,1668678480,702320491,,-0.09525072372203243,-0.612999375548766,0.06373195598685402,0.9955579637844224,0.09353956996619979,-0.00437235095912278,0.009776100605226733
1668678480.7106922,51726,1668678480,710593089,,-0.09524128956744368,-0.6129993754774142,0.06373195598517424,0.9955579638239618,0.09353956996221709,-0.004372349859494412,0.009776097108607107
1668678480.71866,51727,1668678480,718536701,,-0.0952311347689781,-0.6129993753958379,0.06373195598324718,0.9955579638628219,0.0935395699585489,-0.004372348790117189,0.009776093664618518
1668678480.7271042,51728,1668678480,726779427,,-0.09522023362121401,-0.6129993753030892,0.06373195598104968,0.995557963901003,0.09353956995519346,-0.004372347750900645,0.00977609027331258
1668678480.7346876,51729,1668678480,734508741,,-0.09520856081809859,-0.6129993751981888,0.0637319559785574,0.9955579639385049,0.09353956995214867,-0.004372346741751818,0.009776086934735242
1668678480.7420187,51730,1668678480,741848120,,-0.09519609147198049,-0.6129993750801287,0.06373195597574537,0.9955579639753281,0.09353956994941222,-0.0043723457625754894,0.009776083648927075
1668678480.7508523,51731,1668678480,750686656,,-0.09518280113033116,-0.6129993749478754,0.06373195597258832,0.9955579640114728,0.09353956994698213,-0.004372344813274276,0.009776080415924036
1668678480.7585015,51732,1668678480,758286669,,-0.09516866579030739,-0.6129993748003738,0.0637319559690601,0.9955579640469392,0.0935395699448564,-0.004372343893748557,0.009776077235756436
1668678480.7662594,51733,1668678480,766083585,,-0.09515366191129536,-0.6129993746365509,0.06373195596513428,0.9955579640817279,0.0935395699430325,-0.004372343003896541,0.009776074108449872
1668678480.7741737,51734,1668678480,773966437,,-0.09513776642557063,-0.6129993744553197,0.063731955960784,0.9955579641158392,0.09353956994150868,-0.004372342143614409,0.00977607103402485
1668678480.782384,51735,1668678480,782202209,,-0.09512095674720425,-0.6129993742555808,0.0637319559559822,0.9955579641492737,0.09353956994028215,-0.004372341312795961,0.009776068012496574
1668678480.7905242,51736,1668678480,790376841,,-0.0951032107793318,-0.6129993740362304,0.06373195595070145,0.9955579641820321,0.09353956993935113,-0.0043723405113331,0.009776065043875232
1668678480.798575,51737,1668678480,798387313,,-0.09508450691990526,-0.6129993737961589,0.06373195594491532,0.9955579642141148,0.09353956993871307,-0.004372339739115677,0.009776062128166788
1668678480.8064764,51738,1668678480,806283578,,-0.09506478711154852,-0.6129993735330579,0.06373195593856633,0.9955579642455225,0.09353956993836583,-0.004372338996039527,0.009776059265389337
1668678480.8146737,51739,1668678480,814517421,,-0.09504401419489625,-0.6129993732445999,0.06373266835651721,0.9955579642762555,0.09353956993830691,-0.00437233828200242,0.009776056455564524
1668678480.8220146,51740,1668678480,821880617,,-0.0950221990890892,-0.6129993729288108,0.06373512491157318,0.995557964306315,0.09353956993853392,-0.004372337596878172,0.009776053698661791
1668678480.8306808,51741,1668678480,830473105,,-0.09499933340644587,-0.6129993725754599,0.06373955993443382,0.9955579643357021,0.09353956993904461,-0.004372336940544205,0.009776050994657145
1668678480.8384333,51742,1668678480,838318509,,-0.09497540406402456,-0.6129993721725541,0.063746035782665,0.9955579643644173,0.09353956993983659,-0.004372336312879062,0.009776048343528817
1668678480.8466506,51743,1668678480,846388349,,-0.09495040059403666,-0.6129993717056471,0.06375472624619039,0.9955579643924622,0.09353956994090765,-0.0043723357137572215,0.009776045745245626
1668678480.8557189,51744,1668678480,855077847,,-0.09492430887916994,-0.6129993711735082,0.06376507667450886,0.9955579644198377,0.09353956994225518,-0.004372335143052615,0.009776043199774343
1668678480.8623984,51745,1668678480,862185081,,-0.0948971124020483,-0.6129993705925562,0.06377645258042494,0.995557964446545,0.09353956994387673,-0.004372334600638761,0.009776040707079763
1668678480.8705318,51746,1668678480,870366848,,-0.09486879439547735,-0.6129993699717505,0.06378841915268699,0.9955579644725852,0.0935395699457698,-0.004372334086387343,0.009776038267122606
1668678480.8787012,51747,1668678480,878490808,,-0.09483933892636712,-0.6129993693315181,0.06380039946824909,0.9955579644979596,0.09353956994793196,-0.00437233360016797,0.009776035879858171
1668678480.8862197,51748,1668678480,886040772,,-0.09480872995456514,-0.6129993686837727,0.06381198268599372,0.9955579645226694,0.09353956995036108,-0.004372333141848942,0.009776033545237635
1668678480.893934,51749,1668678480,893817130,,-0.09477695162003624,-0.6129993680366427,0.06382285497242318,0.995557964546716,0.09353956995305429,-0.004372332711296222,0.009776031263207082
1668678480.902252,51750,1668678480,902120137,,-0.09474398833179087,-0.6129993673886701,0.06383293951442705,0.9955579645701009,0.09353956995600905,-0.004372332308374704,0.009776029033708783
1668678480.9104848,51751,1668678480,910284961,,-0.09470982493171587,-0.6129993667342992,0.06384221964911962,0.9955579645928254,0.09353956995922291,-0.0043723319329470245,0.009776026856679658
1668678480.9184175,51752,1668678480,918226672,,-0.09467444677350731,-0.6129993660698045,0.06385065039437304,0.995557964614891,0.09353956996269326,-0.004372331584874324,0.009776024732051941
1668678480.9264555,51753,1668678480,926255695,,-0.09463783964058711,-0.6129993653901232,0.0638582344920058,0.9955579646362995,0.09353956996641771,-0.004372331264015803,0.009776022659753239
1668678480.9344754,51754,1668678480,934301449,,-0.0945999897608565,-0.6129993646900205,0.06386499861995751,0.9955579646570524,0.09353956997039355,-0.0043723309702287,0.009776020639706133
1668678480.942008,51755,1668678480,941837578,,-0.09456088381021326,-0.6129993639646171,0.0638709808607227,0.9955579646771513,0.09353956997461826,-0.00437233070336881,0.00977601867182828
1668678480.9503696,51756,1668678480,950209427,,-0.09452050890770305,-0.6129993632095735,0.06387622656994116,0.9955579646965981,0.09353956997908906,-0.004372330463290022,0.009776016756032877
1668678480.9586084,51757,1668678480,958368516,,-0.09447885261342955,-0.6129993624211612,0.06388078114989737,0.9955579647153943,0.09353956998380358,-0.00437233024984447,0.009776014892227904
1668678480.9663286,51758,1668678480,966221728,,-0.09443927087655567,-0.6129982793249165,0.06388484865361711,0.995557964733585,0.09353956998876319,-0.004372330061229166,0.009776013076644632
1668678480.9745967,51759,1668678480,974133993,,-0.09440734573060698,-0.6129929654808344,0.06388854331320862,0.995557964751277,0.0935395699939758,-0.004372329893251197,0.009776011300210876
1668678480.9824052,51760,1668678480,982189734,,-0.0943848319118204,-0.6129816115930019,0.06389181015470768,0.995557964768486,0.09353956999943945,-0.0043723297452131086,0.009776009561633247
1668678480.9903245,51761,1668678480,990187528,,-0.09437214672096894,-0.6129635768764659,0.06389463570091129,0.9955579647851542,0.0935395700051459,-0.00437232961925327,0.009776007865921735
1668678480.9987457,51762,1668678480,998633272,,-0.09437106117413113,-0.6129382613393881,0.06389698681165525,0.9955579648012273,0.09353957001108658,-0.004372329517383855,0.009776006217821175
1668678481.006785,51763,1668678481,6595650,,-0.09438260440894397,-0.6129062544479197,0.06389886333885013,0.9955579648166223,0.09353957001725047,-0.00437232944269007,0.009776004624461404
1668678481.0145211,51764,1668678481,14134082,,-0.09440342655679217,-0.6128681601610868,0.06390028159600883,0.9955579648312852,0.0935395700236293,-0.004372329397190391,0.009776003090556826
1668678481.0228596,51765,1668678481,22757507,,-0.09442967585190713,-0.6128245593539986,0.06390126889526491,0.9955579648452312,0.0935395700302221,-0.004372329380236193,0.009776001614838176
1668678481.0302954,51766,1668678481,30123636,,-0.0944575995245705,-0.612776829813442,0.06390185416868711,0.9955579648585005,0.0935395700370298,-0.004372329390231413,0.009776000193938874
1668678481.0395906,51767,1668678481,39342447,,-0.09448212048868748,-0.6127267021065218,0.0639020632237328,0.9955579648712042,0.09353957004406083,-0.0043723294228414315,0.009775998818348428
1668678481.0467896,51768,1668678481,46668542,,-0.09450076421992994,-0.6126757680808083,0.06390192289865436,0.9955579648833989,0.09353957005131792,-0.004372329475861269,0.009775997483341929
1668678481.054755,51769,1668678481,54594702,,-0.09451471739965246,-0.612627079175986,0.06390186886495648,0.9955579648950861,0.09353957005879845,-0.004372329549139285,0.009775996188803848
1668678481.062153,51770,1668678481,61984513,,-0.09452690796867928,-0.6125836690246608,0.06390251934990038,0.9955579649062285,0.09353957006649559,-0.004372329644026092,0.009775994937994548
1668678481.0714746,51771,1668678481,71184611,,-0.09453819045284345,-0.6125462839687815,0.06390403364207586,0.9955579649168145,0.09353957007440485,-0.004372329760907485,0.009775993732006804
1668678481.0784526,51772,1668678481,78267751,,-0.09454744203075671,-0.6125141037414357,0.06390615179143982,0.995557964926848,0.09353957008252421,-0.004372329899541373,0.009775992570519603
1668678481.0862901,51773,1668678481,86159218,,-0.0945531355034089,-0.6124861415337239,0.06390853340890741,0.9955579649363376,0.09353957009085109,-0.0043723300595449235,0.009775991452892723
1668678481.094537,51774,1668678481,94414506,,-0.09455434413684359,-0.6124604659122345,0.06391089427201926,0.9955579649452789,0.09353957009938231,-0.004372330241009509,0.009775990379550643
1668678481.1027386,51775,1668678481,101848672,,-0.09455140708019526,-0.6124339990438038,0.06391298834490869,0.9955579649536608,0.0935395701081134,-0.004372330444285641,0.00977598935150354
1668678481.110343,51776,1668678481,110194476,,-0.09454509984441949,-0.6124053400203223,0.06391474843556318,0.9955579649614752,0.09353957011704085,-0.004372330669612835,0.00977598836951487
1668678481.1183295,51777,1668678481,118223769,,-0.09453581406844974,-0.6123739166874448,0.06391615297241839,0.9955579649687225,0.09353957012616128,-0.00437233091690088,0.009775987433602175
1668678481.12717,51778,1668678481,127068976,,-0.09452464775219555,-0.6123386146134555,0.06391715920008222,0.9955579649754038,0.09353957013547183,-0.004372331186039777,0.009775986543741073
1668678481.1344368,51779,1668678481,134225119,,-0.09451227452122314,-0.6122991365501229,0.06391776057694608,0.9955579649815219,0.09353957014496975,-0.0043723314768466925,0.009775985699740806
1668678481.1421854,51780,1668678481,141991924,,-0.09449859463632164,-0.6122557673987715,0.06391796886512535,0.9955579649870807,0.09353957015465227,-0.004372331789110102,0.00977598490133937
1668678481.1524558,51781,1668678481,151974069,,-0.0944834875389105,-0.6122088576405387,0.06391780812929991,0.9955579649920842,0.0935395701645168,-0.004372332122616158,0.009775984148268121
1668678481.1586895,51782,1668678481,158479815,,-0.09446690926002396,-0.6121588468781278,0.06391730438055979,0.9955579649965358,0.09353957017456054,-0.004372332477151387,0.009775983440258413
1668678481.166556,51783,1668678481,166344888,,-0.09444886268649713,-0.6121061816831279,0.06391648042605869,0.9955579650004395,0.0935395701847807,-0.004372332852505408,0.009775982777047169
1668678481.1747327,51784,1668678481,174631622,,-0.09442866304174084,-0.6120518570762469,0.06391536045927192,0.9955579650037987,0.09353957019517466,-0.004372333248481888,0.009775982158400294
1668678481.182169,51785,1668678481,181942870,,-0.09440456500098005,-0.611997732104068,0.0639139688008006,0.9955579650066135,0.09353957020573943,-0.00437233366501266,0.009775981584366147
1668678481.1905205,51786,1668678481,190390909,,-0.09437557082793642,-0.6119448726827671,0.0639123293210446,0.9955579650088775,0.09353957021647115,-0.004372334102278787,0.009775981055550947
1668678481.1989508,51787,1668678481,198788340,,-0.09434127311009016,-0.611893798846863,0.0639104646049903,0.9955579650105804,0.09353957022736552,-0.004372334560617264,0.009775980572912795
1668678481.206766,51788,1668678481,206645738,,-0.09430054643226252,-0.6118457304955792,0.0639083958456731,0.9955579650116997,0.09353957023841757,-0.004372335040811412,0.00977598013840475
1668678481.2146285,51789,1668678481,214520675,,-0.09425253042622067,-0.611801850002042,0.06390614316141628,0.9955579650122021,0.09353957024962033,-0.004372335544084207,0.009775979754962668
1668678481.2225795,51790,1668678481,222458086,,-0.09419720161579452,-0.6117624935471556,0.06390372549214178,0.9955579650120564,0.09353957026096787,-0.004372336071558151,0.009775979425297806
1668678481.2311687,51791,1668678481,231006008,,-0.09413473850839668,-0.6117276883979309,0.06390116056364095,0.9955579650112394,0.09353957027245469,-0.004372336624070416,0.009775979151482216
1668678481.238263,51792,1668678481,238122616,,-0.09406520434888227,-0.6116976132179924,0.06389846500171428,0.9955579650097236,0.09353957028407482,-0.004372337202600784,0.009775978935903817
1668678481.246365,51793,1668678481,246224534,,-0.09398882103844743,-0.6116722020310997,0.06389565437523977,0.9955579650074889,0.0935395702958234,-0.004372337807867627,0.009775978780364155
1668678481.2540681,51794,1668678481,253921353,,-0.09390588426020012,-0.6116512678570548,0.06389274325513784,0.9955579650045211,0.09353957030769598,-0.0043723384403438455,0.009775978686111929
1668678481.262562,51795,1668678481,262412112,,-0.09381673564375109,-0.6116345436865376,0.06388974526882207,0.9955579650008128,0.09353957031968853,-0.004372339100264355,0.0097759786538616
1668678481.2703106,51796,1668678481,270189249,,-0.09372171388343811,-0.6116217538962027,0.06388667314439345,0.9955579649963612,0.09353957033179805,-0.004372339787669531,0.0097759786838883
1668678481.2785056,51797,1668678481,278350681,,-0.09362113070975762,-0.6116126496256704,0.06388353875690615,0.9955579649911662,0.09353957034402151,-0.004372340502510752,0.009775978776265732
1668678481.2863226,51798,1668678481,286218889,,-0.09351529316991646,-0.6116069770879412,0.06388035317253657,0.9955579649852309,0.09353957035635632,-0.004372341244605599,0.009775978930765539
1668678481.2948337,51799,1668678481,294482772,,-0.09340449775562629,-0.6116044866196073,0.06387712668988756,0.9955579649785616,0.09353957036880008,-0.004372342013663796,0.00977597914691518
1668678481.304949,51800,1668678481,304756331,,-0.09328902897233736,-0.6116049352782341,0.06387386887975245,0.9955579649711668,0.09353957038135084,-0.004372342809306056,0.009775979424040602
1668678481.310906,51801,1668678481,310767578,,-0.09316915623133394,-0.611608091848074,0.06387058862270528,0.9955579649630567,0.0935395703940066,-0.004372343631082573,0.00977597976130745
1668678481.3181944,51802,1668678481,318069473,,-0.09304513266168815,-0.6116137390442273,0.06386729414543119,0.9955579649542431,0.09353957040676587,-0.004372344478495394,0.009775980157771414
1668678481.3264568,51803,1668678481,326237952,,-0.09291719752524555,-0.6116216704838872,0.06386399305583962,0.9955579649447387,0.0935395704196268,-0.004372345351002228,0.009775980612386421
1668678481.3340466,51804,1668678481,333943441,,-0.09278557639911118,-0.6116316908705492,0.0638606923764578,0.9955579649345572,0.09353957043258787,-0.004372346248027263,0.009775981124030017
1668678481.342371,51805,1668678481,342205606,,-0.0926504816810119,-0.6116436156929907,0.06385739857642607,0.995557964923713,0.09353957044564767,-0.004372347168969717,0.009775981691521262
1668678481.3505604,51806,1668678481,350344324,,-0.09251211293879297,-0.6116572711327,0.0638541176020722,0.9955579649122208,0.09353957045880484,-0.004372348113211448,0.009775982313638893
1668678481.358634,51807,1668678481,358417930,,-0.09237065738662527,-0.6116724937708974,0.06385085490616596,0.9955579649000958,0.09353957047205808,-0.004372349080124147,0.009775982989137344
1668678481.366226,51808,1668678481,366117627,,-0.09222629062060929,-0.6116891299040642,0.06384761547591483,0.9955579648873536,0.09353957048540575,-0.0043723500690735365,0.009775983716755551
1668678481.374031,51809,1668678481,373868348,,-0.0920791771581654,-0.6117070351321308,0.06384477503025635,0.995557964874009,0.09353957049884667,-0.0043723510794243395,0.009775984495228752
1668678481.382544,51810,1668678481,382370029,,-0.09192947097961089,-0.6117260739213745,0.06384267881398692,0.9955579648600776,0.09353957051237946,-0.00437235211054368,0.009775985323296514
1668678481.390383,51811,1668678481,390236391,,-0.09177731603437073,-0.6117461191936351,0.06384146858195609,0.9955579648455747,0.09353957052600269,-0.004372353161804583,0.009775986199709206
1668678481.3985832,51812,1668678481,398327121,,-0.0916228467424581,-0.6117670519322992,0.06384150288604658,0.995557964830515,0.0935395705397149,-0.004372354232588222,0.009775987123234516
1668678481.4066174,51813,1668678481,406508531,,-0.09146618849270098,-0.6117887607612202,0.06384303469159552,0.9955579648149131,0.09353957055351446,-0.00437235532228654,0.00977598809266257
1668678481.414012,51814,1668678481,413828072,,-0.09130745810831604,-0.6118111415647557,0.0638462390014805,0.9955579647987838,0.09353957056740021,-0.004372356430302999,0.009775989106808228
1668678481.422454,51815,1668678481,422279789,,-0.09114676429523332,-0.6118340971227296,0.06385115207102599,0.9955579647821408,0.09353957058137027,-0.004372357556054906,0.009775990164515816
1668678481.4304824,51816,1668678481,430317683,,-0.09098420806918305,-0.6118575367589018,0.06385795137449497,0.9955579647649978,0.09353957059542348,-0.004372358698974135,0.009775991264660073
1668678481.43839,51817,1668678481,438256182,,-0.09081988316342414,-0.6118813759983124,0.06386696710425706,0.9955579647473682,0.09353957060955785,-0.004372359858507311,0.009775992406148237
1668678481.4464824,51818,1668678481,446342011,,-0.09065387642456771,-0.6119055362495859,0.06387835794646156,0.995557964729265,0.09353957062377191,-0.004372361034116753,0.009775993587921417
1668678481.4548583,51819,1668678481,454643988,,-0.09048626818165971,-0.611929957572096,0.06389241696348485,0.9955579647107005,0.09353957063806392,-0.004372362225289758,0.009775994808974238
1668678481.4628303,51820,1668678481,462586706,,-0.09031713260711341,-0.6119545842427027,0.06390922766570566,0.9955579646916862,0.0935395706524321,-0.00437236343153694,0.009775996068352761
1668678481.4701269,51821,1668678481,470029339,,-0.09014653807278519,-0.6119793582642363,0.06392870988539279,0.9955579646722339,0.09353957066687459,-0.0043723646523716716,0.009775997365108135
1668678481.478314,51822,1668678481,478139396,,-0.08997454741569681,-0.6120043705340311,0.06395117946753409,0.995557964652352,0.09353957068138946,-0.004372365887422055,0.009775998698546078
1668678481.4867034,51823,1668678481,486555605,,-0.08980121824334454,-0.6120297740003886,0.06397695988586447,0.9955579646320457,0.09353957069597414,-0.00437236713645997,0.009776000068293158
1668678481.4945695,51824,1668678481,494389309,,-0.08962660329504511,-0.6120558126576146,0.06400611909035483,0.9955579646113192,0.09353957071062648,-0.004372368399280843,0.009776001474027383
1668678481.502286,51825,1668678481,502135931,,-0.08945031154924879,-0.6120828160886796,0.06403860780544872,0.9955579645901489,0.09353957072534176,-0.004372369676739133,0.009776002917796966
1668678481.510482,51826,1668678481,510354217,,-0.08927198334495678,-0.6121108373202335,0.06407420255955465,0.9955579645684959,0.0935395707401138,-0.004372370970282314,0.009776004402975406
1668678481.5203726,51827,1668678481,518396292,,-0.08909149538664118,-0.6121398373927889,0.06411264253553343,0.9955579645463628,0.0935395707549401,-0.004372372279781141,0.009776005929398843
1668678481.5266035,51828,1668678481,526354390,,-0.0889085412697865,-0.6121698004038862,0.06415371003904555,0.995557964523727,0.09353957076981637,-0.004372373606053875,0.009776007499024072
1668678481.5341518,51829,1668678481,533948625,,-0.08872247378027125,-0.6122008238959319,0.06419708459033766,0.9955579645005489,0.09353957078473642,-0.004372374950593324,0.009776009115315624
1668678481.5423634,51830,1668678481,542123794,,-0.08853289412993125,-0.6122329735436404,0.06424243835523695,0.9955579644767757,0.09353957079969372,-0.0043723763153624496,0.009776010782786781
1668678481.5510526,51831,1668678481,550839868,,-0.08833972085557328,-0.6122662078411556,0.06428949383506179,0.995557964452413,0.09353957081468621,-0.004372377700119444,0.00977601250100373
1668678481.5582893,51832,1668678481,558181540,,-0.0881427258645999,-0.612300633828893,0.0643382635091898,0.9955579644274345,0.09353957082970937,-0.0043723791058445025,0.009776014272269332
1668678481.5664096,51833,1668678481,566296773,,-0.0879419380643562,-0.6123363147763455,0.06438893088271563,0.9955579644018383,0.09353957084476111,-0.004372380532575598,0.009776016096770156
1668678481.574276,51834,1668678481,574083888,,-0.0877373649115774,-0.6123735086399189,0.06444163693082151,0.9955579643756235,0.09353957085983898,-0.004372381980320046,0.009776017974620731
1668678481.583018,51835,1668678481,582854052,,-0.08752910090108908,-0.6124123721657656,0.06449636373631217,0.9955579643487852,0.09353957087494034,-0.0043723834492346006,0.009776019906268333
1668678481.5905614,51836,1668678481,590357687,,-0.0873173385352709,-0.6124529627597988,0.0645529007816798,0.995557964321346,0.09353957089006495,-0.004372384938434144,0.009776021889821714
1668678481.5986292,51837,1668678481,598319930,,-0.08710221665327127,-0.6124954707244589,0.06461108065156468,0.9955579642933117,0.09353957090521126,-0.004372386447662656,0.009776023924798453
1668678481.6065722,51838,1668678481,606469083,,-0.0868838076007804,-0.6125399321266292,0.06467062989013621,0.9955579642646931,0.09353957092037789,-0.00437238797649248,0.009776026010328766
1668678481.6139748,51839,1668678481,613840013,,-0.08666178433659015,-0.6125862984332385,0.06473112439911177,0.9955579642354697,0.09353957093556166,-0.004372389525673469,0.009776028148180398
1668678481.6221495,51840,1668678481,622051061,,-0.08643598915992137,-0.6126343906946646,0.06479223060946587,0.9955579642056167,0.09353957095075824,-0.004372391096132732,0.009776030340513525
1668678481.6304064,51841,1668678481,630189239,,-0.08620648815813774,-0.6126840111519319,0.06485370558745475,0.9955579641751567,0.09353957096596761,-0.004372392686977211,0.009776032585404333
1668678481.6381857,51842,1668678481,638006895,,-0.08597319570100757,-0.6127350660749791,0.06491516655633267,0.995557964144083,0.0935395709811873,-0.0043723942984503,0.009776034883474406
1668678481.6465554,51843,1668678481,646308921,,-0.08573619064814458,-0.6127874816857755,0.06497625125707807,0.9955579641124047,0.09353957099641623,-0.004372395930184736,0.009776037233973852
1668678481.653901,51844,1668678481,653804685,,-0.085495737730749,-0.6128411777911116,0.06503701380708037,0.9955579640801511,0.09353957101165492,-0.004372397581036362,0.009776039634408446
1668678481.6623313,51845,1668678481,662077817,,-0.08525216430027051,-0.6128960293614094,0.06509758849347204,0.995557964047366,0.09353957102690473,-0.004372399249321045,0.009776042081074047
1668678481.6703312,51846,1668678481,670204188,,-0.08500585395379459,-0.612951850563091,0.06515806716013917,0.9955579640140982,0.09353957104216722,-0.0043724009331461144,0.009776044569799929
1668678481.678584,51847,1668678481,678329028,,-0.08475722384877576,-0.6130084756971088,0.06521863858985988,0.995557963980408,0.09353957105744468,-0.004372402630208059,0.009776047095496208
1668678481.6862931,51848,1668678481,686192955,,-0.08450648160601798,-0.6130657514040944,0.0652794401814231,0.9955579639463344,0.09353957107273796,-0.004372404338984062,0.009776049654825002
1668678481.6942387,51849,1668678481,694063835,,-0.084253496727354,-0.6131235430841324,0.0653402913740103,0.9955579639118805,0.09353957108804559,-0.004372406059347135,0.009776052247579721
1668678481.7023373,51850,1668678481,702209418,,-0.08399821325142616,-0.6131817113789936,0.06540086552480513,0.9955579638770392,0.09353957110336446,-0.004372407791540427,0.009776054874380734
1668678481.7111528,51851,1668678481,710985568,,-0.08374070455937183,-0.6132401202675158,0.06546095768669602,0.9955579638418351,0.09353957111869475,-0.004372409534610958,0.009776057533164342
1668678481.7183793,51852,1668678481,718178168,,-0.0834808598154959,-0.6132985677591674,0.06552027567731201,0.9955579638062682,0.09353957113403448,-0.004372411288533919,0.009776060223946108
1668678481.7264366,51853,1668678481,726312274,,-0.0832186213047204,-0.6133568183227676,0.06557860409771941,0.9955579637703424,0.09353957114938165,-0.004372413053131014,0.009776062946396434
1668678481.734009,51854,1668678481,733874252,,-0.0829541002151374,-0.6134147027565408,0.06563574633330328,0.9955579637340805,0.09353957116473625,-0.004372414827544319,0.009776065698659511
1668678481.743476,51855,1668678481,743281891,,-0.0826874963088679,-0.6134721070561083,0.06569157881141112,0.9955579636975156,0.09353957118009841,-0.0043724166104702426,0.009776068477879993
1668678481.750804,51856,1668678481,750538681,,-0.08241877568880021,-0.6135288546877421,0.06574587050362338,0.9955579636606644,0.09353957119546717,-0.004372418401258212,0.009776071282667437
1668678481.7582622,51857,1668678481,758077024,,-0.08214778348233882,-0.6135847307419313,0.06579829302273817,0.9955579636235175,0.09353957121084007,-0.004372420200253201,0.009776074113862514
1668678481.7662268,51858,1668678481,766120901,,-0.08187465745342053,-0.6136395259597981,0.0658486628044673,0.9955579635860976,0.09353957122621637,-0.004372422006568317,0.009776076969541162
1668678481.7745385,51859,1668678481,774367136,,-0.08159999552548484,-0.613692869897613,0.06589708566745743,0.9955579635484859,0.09353957124159937,-0.00437242381710409,0.009776079842819398
1668678481.782027,51860,1668678481,781886702,,-0.08132448851535318,-0.6137444153229992,0.06594385247803357,0.9955579635107973,0.09353957125699389,-0.004372425627452529,0.00977608272388485
1668678481.7902262,51861,1668678481,790096647,,-0.08104842672442364,-0.6137940793507167,0.06598908219587428,0.9955579634730868,0.09353957127240049,-0.0043724274355082995,0.00977608560809753
1668678481.7984385,51862,1668678481,798243123,,-0.08077192376355802,-0.6138417124171703,0.0660328164375684,0.9955579634353752,0.09353957128781848,-0.0043724292404473415,0.009776088493693491
1668678481.806444,51863,1668678481,806226461,,-0.08049509822058233,-0.6138870748710181,0.06607510119688204,0.9955579633976938,0.09353957130324718,-0.004372431041063795,0.009776091378053351
1668678481.814499,51864,1668678481,814289176,,-0.08021820839673674,-0.6139299143309769,0.0661158970853356,0.9955579633600805,0.09353957131868589,-0.004372432835889196,0.009776094257969405
1668678481.8229103,51865,1668678481,822735866,,-0.07994147367248813,-0.6139701093225283,0.06615516603661442,0.9955579633225826,0.09353957133413528,-0.0043724346230995925,0.009776097129438742
1668678481.8304677,51866,1668678481,830273876,,-0.0796648830474085,-0.61400752155856,0.06619271184589041,0.995557963285205,0.09353957134959273,-0.004372436402486759,0.009776099992083662
1668678481.838919,51867,1668678481,838723409,,-0.0793884085556364,-0.6140418877832127,0.06622823033042603,0.9955579632479586,0.0935395713650566,-0.004372438173603356,0.009776102844988642
1668678481.8463926,51868,1668678481,846226355,,-0.07911201158841064,-0.6140730825479732,0.06626161593775917,0.9955579632108474,0.09353957138052418,-0.0043724399362822415,0.009776105687864984
1668678481.8543758,51869,1668678481,854284951,,-0.07883575241992109,-0.6141009268966885,0.06629254764819151,0.9955579631738829,0.09353957139599378,-0.004372441690067114,0.009776108519774892
1668678481.8622684,51870,1668678481,862079747,,-0.07855976588785923,-0.6141253081673714,0.06632061574947462,0.9955579631370914,0.09353957141146418,-0.004372443433920583,0.009776111338475484
1668678481.870649,51871,1668678481,870505170,,-0.07828408877901631,-0.6141463404276664,0.06634580344759772,0.9955579631004792,0.09353957142693327,-0.004372445167603561,0.009776114143514944
1668678481.878259,51872,1668678481,878158753,,-0.07800877491377234,-0.6141641961102391,0.06636818988911464,0.9955579630640442,0.09353957144239844,-0.004372446891148004,0.009776116935047107
1668678481.8877606,51873,1668678481,887442387,,-0.07773390643515217,-0.6141790135963251,0.06638780130095738,0.9955579630277954,0.09353957145785743,-0.004372448604206201,0.009776119712372392
1668678481.8948553,51874,1668678481,894728421,,-0.07745906875595918,-0.6141910755838313,0.06640491853216386,0.9955579629916944,0.09353957147330641,-0.0043724503082197,0.009776122478799843
1668678481.9026237,51875,1668678481,902439493,,-0.07718384109266548,-0.6142006744203206,0.06641985734725431,0.995557962955663,0.09353957148873923,-0.004372452006136518,0.00977612524101129
1668678481.9114664,51876,1668678481,911235625,,-0.07690794159778859,-0.6142080932556259,0.06643306796950822,0.9955579629196744,0.09353957150415258,-0.004372453698963883,0.009776128001325808
1668678481.9184866,51877,1668678481,918260399,,-0.0766309444442033,-0.6142136538338443,0.06644513086214958,0.9955579628836619,0.09353957151954156,-0.004372455389218969,0.009776130765444457
1668678481.9262886,51878,1668678481,926155590,,-0.07635314363230765,-0.6142174081759502,0.06645625539445511,0.995557962847639,0.09353957153490466,-0.004372457076388359,0.009776133532264862
1668678481.9340885,51879,1668678481,933951093,,-0.076075213773117,-0.6142193736696803,0.06646663139000618,0.9955579628116991,0.09353957155024431,-0.004372458756904874,0.009776136293837934
1668678481.942277,51880,1668678481,942181779,,-0.07579739768411337,-0.614219710357838,0.06647645509599975,0.9955579627758788,0.0935395715655599,-0.004372460429352536,0.009776139047044724
1668678481.9501956,51881,1668678481,950099927,,-0.0755198030378271,-0.6142185582309219,0.06648583424885357,0.9955579627401846,0.09353957158084975,-0.0043724620934878595,0.009776141791395809
1668678481.9584277,51882,1668678481,958299273,,-0.07524267487407675,-0.6142161212026221,0.06649470390341575,0.9955579627046413,0.09353957159611259,-0.00437246374833873,0.0097761445247677
1668678481.9663818,51883,1668678481,966206229,,-0.07496618660855943,-0.6142126153162183,0.066502834536016,0.9955579626692678,0.09353957161134699,-0.004372465393191955,0.009776147245617279
1668678481.9752529,51884,1668678481,975127411,,-0.0746903062294308,-0.614208426887363,0.06651059147803175,0.9955579626340559,0.09353957162655091,-0.004372467028325922,0.009776149954624318
1668678481.9820402,51885,1668678481,981909130,,-0.0744146553826352,-0.6142041589765018,0.0665188738676853,0.995557962598951,0.09353957164172001,-0.00437246865581837,0.009776152656498789
1668678481.990161,51886,1668678481,990070774,,-0.07413892104702555,-0.6142001097883548,0.06652809853573519,0.9955579625638935,0.09353957165685034,-0.004372470277915954,0.009776155356321899
1668678481.998209,51887,1668678481,998090051,,-0.07386293784864655,-0.6141964200378002,0.0665384240694841,0.9955579625288703,0.09353957167193985,-0.004372471895113716,0.009776158055241036
1668678482.006421,51888,1668678482,6238002,,-0.07358656512189746,-0.6141932385897114,0.06655009664410559,0.9955579624938551,0.09353957168698564,-0.004372473508400672,0.009776160755506365
1668678482.013993,51889,1668678482,13885180,,-0.07330966683652701,-0.6141904917190989,0.06656289969550765,0.9955579624588441,0.09353957170198636,-0.004372475117916968,0.009776163457461507
1668678482.0221963,51890,1668678482,22033102,,-0.07303210207983923,-0.6141880905730732,0.06657652925355126,0.9955579624238226,0.09353957171693993,-0.0043724767242180485,0.009776166162378409
1668678482.0311255,51891,1668678482,30768446,,-0.0727538077446294,-0.6141859809211456,0.0665907926098695,0.9955579623887919,0.09353957173184446,-0.00437247832724678,0.009776168870152202
1668678482.0396252,51892,1668678482,39437845,,-0.07247468050431316,-0.6141841093982009,0.06660550332257227,0.9955579623537447,0.09353957174669889,-0.004372479927281493,0.00977617158142843
1668678482.047382,51893,1668678482,47189438,,-0.07219467816099848,-0.6141824565466428,0.06662058542388886,0.99555796231868,0.09353957176150171,-0.004372481524361497,0.00977617429631347
1668678482.0542192,51894,1668678482,54066687,,-0.07191377773849737,-0.6141809283361934,0.06663588180599635,0.9955579622836015,0.09353957177625143,-0.004372483118332045,0.009776177014477017
1668678482.0626307,51895,1668678482,62283337,,-0.07163198022366035,-0.6141794394353756,0.06665125124334235,0.995557962248517,0.09353957179094707,-0.004372484708914679,0.009776179735310624
1668678482.0709434,51896,1668678482,70806944,,-0.07134947749819072,-0.6141778889902415,0.06666666811011497,0.9955579622134495,0.093539571805588,-0.0043724862952206865,0.009776182456836004
1668678482.0782657,51897,1668678482,78091457,,-0.07106653229467422,-0.6141761313916622,0.06668211405806186,0.995557962178445,0.09353957182017399,-0.004372487875502307,0.009776185175149776
