Time,header.seq,header.stamp.secs,header.stamp.nsecs,header.frame_id,wrench.force.x,wrench.force.y,wrench.force.z,wrench.torque.x,wrench.torque.y,wrench.torque.z
1668678479.5740964,51584,1668678479,573834145,,-7.4679845412555824e-152,-5e-324,5e-324,5e-324,-5e-324,0.0
1668678479.5824754,51585,1668678479,582263505,,-3.951144893264833e-152,-5e-324,5e-324,5e-324,-5e-324,0.0
1668678479.5901294,51586,1668678479,589949318,,-2.0904630802768128e-152,-5e-324,5e-324,5e-324,-5e-324,0.0
1668678479.5993102,51587,1668678479,599034431,,-1.1060176247774749e-152,-5e-324,5e-324,5e-324,-5e-324,0.0
1668678479.6075501,51588,1668678479,607340948,,-5.851693808227529e-153,-5e-324,5e-324,5e-324,-5e-324,0.0
1668678479.6155784,51589,1668678479,615361724,,-3.096001334710898e-153,-5e-324,5e-324,5e-324,-5e-324,0.0
1668678479.6225386,51590,1668678479,622288085,,-3.096001334710898e-153,-5e-324,5e-324,5e-324,-5e-324,0.0
1668678479.6312633,51591,1668678479,631031405,,-1.6380256005628254e-153,-5e-324,5e-324,5e-324,-5e-324,0.0
1668678479.6382656,51592,1668678479,638064372,,-8.666429946322205e-154,-5e-324,5e-324,5e-324,-5e-324,0.0
1668678479.6468,51593,1668678479,646591008,,-4.5852157615060195e-154,-5e-324,5e-324,5e-324,-5e-324,0.0
1668678479.6553216,51594,1668678479,654996219,,-2.4259359055322796e-154,-5e-324,5e-324,5e-324,-5e-324,0.0
1668678479.6627927,51595,1668678479,662300278,,-2.4259359055322796e-154,-5e-324,5e-324,5e-324,-5e-324,0.0
1668678479.6711102,51596,1668678479,670819800,,-1.2835088518970223e-154,-5e-324,5e-324,5e-324,-5e-324,0.0
1668678479.6785774,51597,1668678479,678321133,,-6.790760502539139e-155,-5e-324,5e-324,5e-324,-5e-324,0.0
1668678479.686408,51598,1668678479,686184941,,-3.592840683154512e-155,-5e-324,5e-324,5e-324,-5e-324,0.0
1668678479.6940749,51599,1668678479,693802871,,-3.592840683154512e-155,-5e-324,5e-324,5e-324,-5e-324,0.0
1668678479.7026217,51600,1668678479,702398540,,-1.9008922740985423e-155,-5e-324,5e-324,5e-324,-5e-324,0.0
1668678479.7111819,51601,1668678479,710984671,,-1.005719918133128e-155,-5e-324,5e-324,5e-324,-5e-324,0.0
1668678479.7192538,51602,1668678479,719044810,,-5.321040900170816e-156,-5e-324,5e-324,5e-324,-5e-324,0.0
1668678479.7269292,51603,1668678479,726678947,,-2.8152446571653525e-156,-5e-324,5e-324,5e-324,-5e-324,0.0
1668678479.7344549,51604,1668678479,734212628,,-1.4894834729504967e-156,-5e-324,5e-324,5e-324,-5e-324,0.0
1668678479.7422674,51605,1668678479,741983137,,-1.4894834729504967e-156,-5e-324,5e-324,5e-324,-5e-324,0.0
1668678479.7511208,51606,1668678479,750917367,,-7.880526513196634e-157,-5e-324,5e-324,5e-324,-5e-324,0.0
1668678479.7588453,51607,1668678479,758608391,,-4.169411695597853e-157,-5e-324,5e-324,5e-324,-5e-324,0.0
1668678479.7669427,51608,1668678479,766759330,,-2.2059432016727743e-157,-5e-324,5e-324,5e-324,-5e-324,0.0
1668678479.774904,51609,1668678479,774605487,,-2.2059432016727743e-157,-5e-324,5e-324,5e-324,-5e-324,0.0
1668678479.7833238,51610,1668678479,783111510,,-1.1671155943041423e-157,-5e-324,5e-324,5e-324,-5e-324,0.0
1668678479.7913442,51611,1668678479,791085568,,-6.17494960629531e-158,-5e-324,5e-324,5e-324,-5e-324,0.0
1668678479.799054,51612,1668678479,798844253,,-3.2670288038624377e-158,-5e-324,5e-324,5e-324,-5e-324,0.0
1668678479.8064754,51613,1668678479,806225751,,-1.7285124390950995e-158,-5e-324,5e-324,5e-324,-5e-324,0.0
1668678479.8142612,51614,1668678479,814035053,,-1.7285124390950995e-158,-5e-324,5e-324,5e-324,-5e-324,0.0
1668678479.823061,51615,1668678479,822701981,,-9.145175728399526e-159,-5e-324,5e-324,5e-324,-5e-324,0.0
1668678479.8305511,51616,1668678479,830302022,,-4.838509530604911e-159,-5e-324,5e-324,5e-324,-5e-324,0.0
1668678479.838686,51617,1668678479,838354605,,-2.559948017734995e-159,-5e-324,5e-324,5e-324,-5e-324,0.0
1668678479.8464022,51618,1668678479,846196539,,-1.354411686502565e-159,-5e-324,5e-324,5e-324,-5e-324,0.0
1668678479.8541002,51619,1668678479,853858614,,-1.354411686502565e-159,-5e-324,5e-324,5e-324,-5e-324,0.0
1668678479.8625045,51620,1668678479,862280619,,-7.165891665869841e-160,-5e-324,5e-324,5e-324,-5e-324,0.0
1668678479.8707688,51621,1668678479,870572418,,-3.791314256862446e-160,-5e-324,5e-324,5e-324,-5e-324,0.0
1668678479.8784125,51622,1668678479,878177818,,-2.0059002374750007e-160,-5e-324,5e-324,5e-324,-5e-324,0.0
1668678479.886602,51623,1668678479,886231618,,-1.0612773012470033e-160,-5e-324,5e-324,5e-324,-5e-324,0.0
1668678479.894122,51624,1668678479,893917618,,-1.0612773012470033e-160,-5e-324,5e-324,5e-324,-5e-324,0.0
1668678479.9024487,51625,1668678479,902235383,,-5.6149826850806156e-161,-5e-324,5e-324,5e-324,-5e-324,0.0
1668678479.9104073,51626,1668678479,910177147,,-2.9707627324837355e-161,-5e-324,5e-324,5e-324,-5e-324,0.0
1668678479.918694,51627,1668678479,918417962,,-1.5717646353859634e-161,-5e-324,5e-324,5e-324,-5e-324,0.0
1668678479.9265711,51628,1668678479,926358331,,-8.315857884027416e-162,-5e-324,5e-324,5e-324,-5e-324,0.0
1668678479.9345117,51629,1668678479,934227384,,-4.3997358631471927e-162,-5e-324,5e-324,5e-324,-5e-324,0.0
1668678479.9425628,51630,1668678479,942285326,,-4.3997358631471927e-162,-5e-324,5e-324,5e-324,-5e-324,0.0
1668678479.9506423,51631,1668678479,950354370,,-2.3278026074308694e-162,-5e-324,5e-324,5e-324,-5e-324,0.0
1668678479.9586186,51632,1668678479,958316033,,-1.231588701619444e-162,-5e-324,5e-324,5e-324,-5e-324,0.0
1668678479.9666114,51633,1668678479,966345619,,-6.516062509401213e-163,-5e-324,5e-324,5e-324,-5e-324,0.0
1668678479.9741585,51634,1668678479,973820588,,-6.516062509401213e-163,-5e-324,5e-324,5e-324,-5e-324,0.0
1668678479.9831812,51635,1668678479,982802733,,-3.447504071009553e-163,-5e-324,5e-324,5e-324,-5e-324,0.0
1668678479.9913094,51636,1668678479,991005079,,-1.8239978978838292e-163,-5e-324,5e-324,5e-324,-5e-324,0.0
1668678479.998709,51637,1668678479,998333058,,-9.650368100973328e-164,-5e-324,5e-324,5e-324,-5e-324,0.0
1668678480.0072114,51638,1668678480,6943390,,-5.105795603839835e-164,-5e-324,5e-324,5e-324,-5e-324,0.0
1668678480.0148332,51639,1668678480,14297137,,-2.7013631475426183e-164,-5e-324,5e-324,5e-324,-5e-324,0.0
1668678480.021899,51640,1668678480,21731601,,-2.7013631475426183e-164,-5e-324,5e-324,5e-324,-5e-324,0.0
1668678480.0301957,51641,1668678480,29993791,,-1.4292312934370794e-164,-5e-324,5e-324,5e-324,-5e-324,0.0
1668678480.0384762,51642,1668678480,38221271,,-7.561745602393505e-165,-5e-324,5e-324,5e-324,-5e-324,0.0
1668678480.0467093,51643,1668678480,46315155,,-4.0007517899925416e-165,-5e-324,5e-324,5e-324,-5e-324,0.0
1668678480.0542755,51644,1668678480,54023298,,-2.1167089884724728e-165,-5e-324,5e-324,5e-324,-5e-324,0.0
1668678480.0620716,51645,1668678480,61854630,,-2.1167089884724728e-165,-5e-324,5e-324,5e-324,-5e-324,0.0
1668678480.0705554,51646,1668678480,70256161,,-1.119903752361631e-165,-5e-324,5e-324,5e-324,-5e-324,0.0
1668678480.0786433,51647,1668678480,78323493,,-5.925162227703043e-166,-5e-324,5e-324,5e-324,-5e-324,0.0
1668678480.0867124,51648,1668678480,86394539,,-3.1348718450638983e-166,-5e-324,5e-324,5e-324,-5e-324,0.0
1668678480.0940447,51649,1668678480,93781877,,-3.1348718450638983e-166,-5e-324,5e-324,5e-324,-5e-324,0.0
1668678480.1026123,51650,1668678480,102325418,,-1.6585911249866388e-166,-5e-324,5e-324,5e-324,-5e-324,0.0
1668678480.111518,51651,1668678480,111231878,,-8.775237572202483e-167,-5e-324,5e-324,5e-324,-5e-324,0.0
1668678480.1188712,51652,1668678480,118666453,,-4.6427834617295726e-167,-5e-324,5e-324,5e-324,-5e-324,0.0
1668678480.126402,51653,1668678480,126143465,,-2.4563936981935712e-167,-5e-324,5e-324,5e-324,-5e-324,0.0
1668678480.13658,51654,1668678480,136296055,,-1.2996233940829316e-167,-5e-324,5e-324,5e-324,-5e-324,0.0
1668678480.1430387,51655,1668678480,142636702,,-1.2996233940829316e-167,-5e-324,5e-324,5e-324,-5e-324,0.0
1668678480.150462,51656,1668678480,150127259,,-6.876018969148727e-168,-5e-324,5e-324,5e-324,-5e-324,0.0
1668678480.1586525,51657,1668678480,158373911,,-3.6379490458045814e-168,-5e-324,5e-324,5e-324,-5e-324,0.0
1668678480.16636,51658,1668678480,166141478,,-1.924758107743987e-168,-5e-324,5e-324,5e-324,-5e-324,0.0
1668678480.1741605,51659,1668678480,173899168,,-1.924758107743987e-168,-5e-324,5e-324,5e-324,-5e-324,0.0
1668678480.182956,51660,1668678480,182715812,,-1.0183468010907422e-168,-5e-324,5e-324,5e-324,-5e-324,0.0
1668678480.1904695,51661,1668678480,190230816,,-5.387846935775493e-169,-5e-324,5e-324,5e-324,-5e-324,0.0
1668678480.1984694,51662,1668678480,198238965,,-2.850590248062131e-169,-5e-324,5e-324,5e-324,-5e-324,0.0
1668678480.2068012,51663,1668678480,206418665,,-1.5081840407140924e-169,-5e-324,5e-324,5e-324,-5e-324,0.0
1668678480.2143123,51664,1668678480,214119253,,-7.979467067253889e-170,-5e-324,5e-324,5e-324,-5e-324,0.0
1668678480.222218,51665,1668678480,221986813,,-7.979467067253889e-170,-5e-324,5e-324,5e-324,-5e-324,0.0
1668678480.2309103,51666,1668678480,230706453,,-4.221758947087262e-170,-5e-324,5e-324,5e-324,-5e-324,0.0
1668678480.23834,51667,1668678480,238090700,,-2.2336389707596305e-170,-5e-324,5e-324,5e-324,-5e-324,0.0
1668678480.2463138,51668,1668678480,246053709,,-1.1817688111109055e-170,-5e-324,5e-324,5e-324,-5e-324,0.0
1668678480.255,51669,1668678480,254767886,,-6.252476524617251e-171,-5e-324,5e-324,5e-324,-5e-324,0.0
1668678480.2620184,51670,1668678480,261822965,,-6.252476524617251e-171,-5e-324,5e-324,5e-324,-5e-324,0.0
1668678480.2711182,51671,1668678480,270669722,,-3.308046575889962e-171,-5e-324,5e-324,5e-324,-5e-324,0.0
1668678480.2786236,51672,1668678480,278219358,,-1.7502140320194477e-171,-5e-324,5e-324,5e-324,-5e-324,0.0
1668678480.2868707,51673,1668678480,286539233,,-9.259994040602853e-172,-5e-324,5e-324,5e-324,-5e-324,0.0
1668678480.294288,51674,1668678480,294048117,,-9.259994040602853e-172,-5e-324,5e-324,5e-324,-5e-324,0.0
1668678480.3031168,51675,1668678480,302679673,,-4.899257351574448e-172,-5e-324,5e-324,5e-324,-5e-324,0.0
1668678480.3102996,51676,1668678480,310075263,,-2.5920883417105986e-172,-5e-324,5e-324,5e-324,-5e-324,0.0
1668678480.318363,51677,1668678480,318113963,,-1.371416418668592e-172,-5e-324,5e-324,5e-324,-5e-324,0.0
1668678480.3273244,51678,1668678480,327108595,,-7.255859930115655e-173,-5e-324,5e-324,5e-324,-5e-324,0.0
1668678480.3350189,51679,1668678480,334755874,,-3.838914468923274e-173,-5e-324,5e-324,5e-324,-5e-324,0.0
1668678480.3420134,51680,1668678480,341812535,,-3.838914468923274e-173,-5e-324,5e-324,5e-324,-5e-324,0.0
1668678480.3505442,51681,1668678480,350272325,,-2.031084453345223e-173,-5e-324,5e-324,5e-324,-5e-324,0.0
1668678480.3587737,51682,1668678480,358549708,,-1.074601710982562e-173,-5e-324,5e-324,5e-324,-5e-324,0.0
1668678480.3669422,51683,1668678480,366713233,,-5.685479180074122e-174,-5e-324,5e-324,5e-324,-5e-324,0.0
1668678480.374052,51684,1668678480,373847124,,-5.685479180074122e-174,-5e-324,5e-324,5e-324,-5e-324,0.0
1668678480.3824704,51685,1668678480,382183112,,-3.0080608635454574e-174,-5e-324,5e-324,5e-324,-5e-324,0.0
1668678480.3902612,51686,1668678480,390064697,,-1.5914982488205818e-174,-5e-324,5e-324,5e-324,-5e-324,0.0
1668678480.3989801,51687,1668678480,398756176,,-8.420264053479322e-175,-5e-324,5e-324,5e-324,-5e-324,0.0
1668678480.4065588,51688,1668678480,406279891,,-4.4549748504504365e-175,-5e-324,5e-324,5e-324,-5e-324,0.0
1668678480.4146636,51689,1668678480,414451610,,-2.357028329764199e-175,-5e-324,5e-324,5e-324,-5e-324,0.0
1668678480.4241564,51690,1668678480,423776815,,-2.357028329764199e-175,-5e-324,5e-324,5e-324,-5e-324,0.0
1668678480.4316666,51691,1668678480,431402405,,-1.2470513827366033e-175,-5e-324,5e-324,5e-324,-5e-324,0.0
1668678480.439076,51692,1668678480,438893698,,-6.597872123755308e-176,-5e-324,5e-324,5e-324,-5e-324,0.0
1668678480.4465048,51693,1668678480,446237870,,-3.4907877224672464e-176,-5e-324,5e-324,5e-324,-5e-324,0.0
1668678480.4542542,51694,1668678480,453941613,,-3.4907877224672464e-176,-5e-324,5e-324,5e-324,-5e-324,0.0
1668678480.463056,51695,1668678480,462797711,,-1.8468983173308904e-176,-5e-324,5e-324,5e-324,-5e-324,0.0
1668678480.470738,51696,1668678480,470558623,,-9.771529138267959e-177,-5e-324,5e-324,5e-324,-5e-324,0.0
1668678480.4784737,51697,1668678480,478208700,,-5.169899219899124e-177,-5e-324,5e-324,5e-324,-5e-324,0.0
1668678480.486332,51698,1668678480,486025186,,-2.735278948229303e-177,-5e-324,5e-324,5e-324,-5e-324,0.0
1668678480.4947808,51699,1668678480,494530514,,-1.447175390930036e-177,-5e-324,5e-324,5e-324,-5e-324,0.0
1668678480.50207,51700,1668678480,501875385,,-1.447175390930036e-177,-5e-324,5e-324,5e-324,-5e-324,0.0
1668678480.5106761,51701,1668678480,510406898,,-7.656683840122664e-178,-5e-324,5e-324,5e-324,-5e-324,0.0
1668678480.5186248,51702,1668678480,518332993,,-4.0509815047310864e-178,-5e-324,5e-324,5e-324,-5e-324,0.0
1668678480.5265088,51703,1668678480,526221284,,-2.1432844158562557e-178,-5e-324,5e-324,5e-324,-5e-324,0.0
1668678480.534689,51704,1668678480,534515328,,-1.1339642212356211e-178,-5e-324,5e-324,5e-324,-5e-324,0.0
1668678480.542183,51705,1668678480,541909603,,-1.1339642212356211e-178,-5e-324,5e-324,5e-324,-5e-324,0.0
1668678480.5503662,51706,1668678480,550134504,,-5.999553048253718e-179,-5e-324,5e-324,5e-324,-5e-324,0.0
1668678480.5586724,51707,1668678480,558375537,,-3.174230377356087e-179,-5e-324,5e-324,5e-324,-5e-324,0.0
1668678480.5666165,51708,1668678480,566274515,,-1.679414850988425e-179,-5e-324,5e-324,5e-324,-5e-324,0.0
1668678480.5744882,51709,1668678480,574195208,,-1.679414850988425e-179,-5e-324,5e-324,5e-324,-5e-324,0.0
1668678480.582306,51710,1668678480,582120003,,-8.885411285332412e-180,-5e-324,5e-324,5e-324,-5e-324,0.0
1668678480.5910678,51711,1668678480,590765082,,-4.701073928401073e-180,-5e-324,5e-324,5e-324,-5e-324,0.0
1668678480.5986571,51712,1668678480,598425136,,-2.4872338905430323e-180,-5e-324,5e-324,5e-324,-5e-324,0.0
1668678480.60797,51713,1668678480,607569851,,-1.3159402554577398e-180,-5e-324,5e-324,5e-324,-5e-324,0.0
1668678480.615346,51714,1668678480,615167382,,-6.962347861688647e-181,-5e-324,5e-324,5e-324,-5e-324,0.0
1668678480.622965,51715,1668678480,622650716,,-6.962347861688647e-181,-5e-324,5e-324,5e-324,-5e-324,0.0
1668678480.6311917,51716,1668678480,630975739,,-3.683623747059783e-181,-5e-324,5e-324,5e-324,-5e-324,0.0
1668678480.6388261,51717,1668678480,638631981,,-1.9489235785773726e-181,-5e-324,5e-324,5e-324,-5e-324,0.0
1668678480.6473129,51718,1668678480,647063500,,-1.0311322154350277e-181,-5e-324,5e-324,5e-324,-5e-324,0.0
1668678480.6551154,51719,1668678480,654796951,,-5.455491725766187e-182,-5e-324,5e-324,5e-324,-5e-324,0.0
1668678480.6627626,51720,1668678480,662520471,,-5.455491725766187e-182,-5e-324,5e-324,5e-324,-5e-324,0.0
1668678480.671309,51721,1668678480,671099637,,-2.8863796052911392e-182,-5e-324,5e-324,5e-324,-5e-324,0.0
1668678480.679134,51722,1668678480,678866476,,-1.527119395396127e-182,-5e-324,5e-324,5e-324,-5e-324,0.0
1668678480.6867995,51723,1668678480,686543309,,-8.079649826793319e-183,-5e-324,5e-324,5e-324,-5e-324,0.0
1668678480.6941864,51724,1668678480,693947702,,-8.079649826793319e-183,-5e-324,5e-324,5e-324,-5e-324,0.0
1668678480.702542,51725,1668678480,702320491,,-4.2747634219305965e-183,-5e-324,5e-324,5e-324,-5e-324,0.0
1668678480.7108164,51726,1668678480,710593089,,-2.261682462138124e-183,-5e-324,5e-324,5e-324,-5e-324,0.0
1668678480.7188883,51727,1668678480,718536701,,-1.196606000065614e-183,-5e-324,5e-324,5e-324,-5e-324,0.0
1668678480.7272406,51728,1668678480,726779427,,-6.330976798747366e-184,-5e-324,5e-324,5e-324,-5e-324,0.0
1668678480.7347472,51729,1668678480,734508741,,-3.3495793288751396e-184,-5e-324,5e-324,5e-324,-5e-324,0.0
1668678480.7420785,51730,1668678480,741848120,,-3.3495793288751396e-184,-5e-324,5e-324,5e-324,-5e-324,0.0
1668678480.7509184,51731,1668678480,750686656,,-1.7721880899401707e-184,-5e-324,5e-324,5e-324,-5e-324,0.0
1668678480.7585652,51732,1668678480,758286669,,-9.376253904637297e-185,-5e-324,5e-324,5e-324,-5e-324,0.0
1668678480.7663162,51733,1668678480,766083585,,-4.960767865627297e-185,-5e-324,5e-324,5e-324,-5e-324,0.0
1668678480.774226,51734,1668678480,773966437,,-4.960767865627297e-185,-5e-324,5e-324,5e-324,-5e-324,0.0
1668678480.7824488,51735,1668678480,782202209,,-2.6246321896711014e-185,-5e-324,5e-324,5e-324,-5e-324,0.0
1668678480.7906742,51736,1668678480,790376841,,-1.3886346464201332e-185,-5e-324,5e-324,5e-324,-5e-324,0.0
1668678480.7986434,51737,1668678480,798387313,,0.011548327366911042,-5e-324,5e-324,5e-324,-5e-324,0.0
1668678480.8065336,51738,1668678480,806283578,,0.006109963732443601,-5e-324,0.2226335600541178,5e-324,-5e-324,0.0
1668678480.8148234,51739,1668678480,814517421,,0.0032326462201566117,-5e-324,0.34044210748126413,5e-324,-5e-324,0.0
1668678480.822131,51740,1668678480,821880617,,0.0032326462201566117,-5e-324,0.34044210748126413,5e-324,-5e-324,0.0
1668678480.830739,51741,1668678480,830473105,,0.001710321377065439,-5e-324,0.41151399679682477,5e-324,-5e-324,0.0
1668678480.838585,51742,1668678480,838318509,,0.0009048930856112374,-5e-324,0.44913446899842024,5e-324,-5e-324,0.0
1668678480.846706,51743,1668678480,846388349,,0.0004787588504518217,-5e-324,0.29822507648689833,5e-324,-5e-324,0.0
1668678480.8558028,51744,1668678480,855077847,,0.0004787588504518217,-5e-324,0.29822507648689833,5e-324,-5e-324,0.0
1668678480.8624709,51745,1668678480,862185081,,0.0002533006832858303,-5e-324,0.19468020493391955,5e-324,-5e-324,0.0
1668678480.870598,51746,1668678480,870366848,,0.00013401577034558688,-5e-324,0.1398983975049888,5e-324,-5e-324,0.0
1668678480.8787727,51747,1668678480,878490808,,7.090477004775527e-05,-5e-324,0.0740171375321079,5e-324,-5e-324,0.0
1668678480.886411,51748,1668678480,886040772,,3.7514140332594124e-05,-5e-324,0.039160824899739176,5e-324,-5e-324,0.0
1668678480.894015,51749,1668678480,893817130,,3.7514140332594124e-05,-5e-324,0.039160824899739176,5e-324,-5e-324,0.0
1668678480.9023097,51750,1668678480,902120137,,1.984789914621715e-05,-5e-324,0.02071912340791056,5e-324,-5e-324,0.0
1668678480.9105551,51751,1668678480,910284961,,1.0501082978999624e-05,-5e-324,0.01096202840188605,5e-324,-5e-324,0.0
1668678480.9184873,51752,1668678480,918226672,,5.555889966966742e-06,-5e-324,0.005799765961038536,5e-324,-5e-324,0.0
1668678480.926567,51753,1668678480,926255695,,2.939498086699464e-06,-5e-324,0.0030685274631320845,5e-324,-5e-324,0.0
1668678480.9346151,51754,1668678480,934301449,,1.5552232051181538e-06,-5e-324,0.0016234897848032771,5e-324,-5e-324,0.0
1668678480.9423356,51755,1668678480,941837578,,1.5552232051181538e-06,-5e-324,0.0016234897848032771,5e-324,-5e-324,0.0
1668678480.9504948,51756,1668678480,950209427,,8.228340847310354e-07,-5e-324,0.0008589524170887752,5e-324,-5e-324,0.0
1668678480.9586647,51757,1668678480,958368516,,-1.0524758332626354,0.3382797678604603,0.05113559339000931,5e-324,-5e-324,0.0
1668678480.966427,51758,1668678480,966221728,,-1.833212023113294,1.0114397715672359,0.02705470767525622,5e-324,-5e-324,0.0
1668678480.9746687,51759,1668678480,974133993,,-1.833212023113294,1.0114397715672359,0.02705470767525622,5e-324,-5e-324,0.0
1668678480.9828877,51760,1668678480,982189734,,-2.246172452440051,1.3677403042847014,0.014314045440148837,5e-324,-5e-324,0.0
1668678480.9903848,51761,1668678480,990187528,,-2.6865625763406067,1.3749428605527756,0.007573243788918717,5e-324,-5e-324,0.0
1668678480.998844,51762,1668678480,998633272,,-2.9195398114020827,1.3788100907898042,0.0040068352253183545,5e-324,-5e-324,0.0
1668678481.0071497,51763,1668678481,6595650,,-2.0255588202880213,1.3710693627726984,0.0021199275991013924,5e-324,-5e-324,0.0
1668678481.014575,51764,1668678481,14134082,,-2.0255588202880213,1.3710693627726984,0.0021199275991013924,5e-324,-5e-324,0.0
1668678481.0229757,51765,1668678481,22757507,,-1.071678221155366,1.1033933462718775,0.001121606647818847,5e-324,-5e-324,0.0
1668678481.0303583,51766,1668678481,30123636,,-0.5670011644171463,0.9617547801189155,0.0005934171869665173,5e-324,-5e-324,0.0
1668678481.0396323,51767,1668678481,39342447,,-0.2999877333550776,0.696111768530236,0.0003139638646686499,5e-324,-5e-324,0.0
1668678481.0469234,51768,1668678481,46668542,,-0.8757173493800672,0.05951185786968982,0.12793171440004794,5e-324,-5e-324,0.0
1668678481.054926,51769,1668678481,54594702,,-1.1803038707336906,-0.27730486165771684,0.19548201526506448,5e-324,-5e-324,0.0
1668678481.062266,51770,1668678481,61984513,,-1.1803038707336906,-0.27730486165771684,0.19548201526506448,5e-324,-5e-324,0.0
1668678481.0715532,51771,1668678481,71184611,,-0.8884772262100304,-0.14671584842785237,0.13655163026536948,5e-324,-5e-324,0.0
1668678481.0785148,51772,1668678481,78267751,,-0.734078330340886,-0.0776240995243494,0.10537120973088306,5e-324,-5e-324,0.0
1668678481.0863652,51773,1668678481,86159218,,-0.5909661957684762,0.36991682398313436,0.05574956869893547,5e-324,-5e-324,0.0
1668678481.0946543,51774,1668678481,94414506,,-0.8074868518156335,0.8435241794203097,0.02949585961910432,5e-324,-5e-324,0.0
1668678481.102816,51775,1668678481,101848672,,-0.8074868518156335,0.8435241794203097,0.02949585961910432,5e-324,-5e-324,0.0
1668678481.1103942,51776,1668678481,110194476,,-0.9220309267736055,1.0941041658084807,0.015605604760248512,5e-324,-5e-324,0.0
1668678481.1184492,51777,1668678481,118223769,,-1.1515861898957234,1.2793946079220166,0.00825657916324482,5e-324,-5e-324,0.0
1668678481.1273055,51778,1668678481,127068976,,-1.1604135355699863,1.3045224783296772,0.004368372807478622,5e-324,-5e-324,0.0
1668678481.1346111,51779,1668678481,134225119,,-1.1651013249098394,1.3178057926153124,0.002311209110677163,5e-324,-5e-324,0.0
1668678481.1426125,51780,1668678481,141991924,,-1.1651013249098394,1.3178057926153124,0.002311209110677163,5e-324,-5e-324,0.0
1668678481.1525304,51781,1668678481,151974069,,-1.1908148542729524,1.2967705559092888,0.0012228094507254952,5e-324,-5e-324,0.0
1668678481.158762,51782,1668678481,158479815,,-1.2044150807004383,1.2856532930248021,0.0006469613441189183,5e-324,-5e-324,0.0
1668678481.1666145,51783,1668678481,166344888,,-1.015322305492785,1.0838372149064541,0.0003422928899803854,5e-324,-5e-324,0.0
1668678481.1748416,51784,1668678481,174631622,,-0.6801499931566757,0.7791631462630095,0.00018109957201645137,5e-324,-5e-324,0.0
1668678481.1822326,51785,1668678481,181942870,,-0.6801499931566757,0.7791631462630095,0.00018109957201645137,5e-324,-5e-324,0.0
1668678481.1906145,51786,1668678481,190390909,,-0.5028219020970308,0.6179707352630954,9.581576464068899e-05,5e-324,-5e-324,0.0
1668678481.199085,51787,1668678481,198788340,,-0.26603190991051084,0.38530868294940024,5.06939947535929e-05,5e-324,-5e-324,0.0
1668678481.206916,51788,1668678481,206645738,,-0.1407515798247327,0.2038582734813964,2.6821067636567004e-05,5e-324,-5e-324,0.0
1668678481.2147427,51789,1668678481,214520675,,-0.1407515798247327,0.2038582734813964,2.6821067636567004e-05,5e-324,-5e-324,0.0
1668678481.222741,51790,1668678481,222458086,,-0.07446853736389077,0.10785688853078179,1.4190431680555559e-05,5e-324,-5e-324,0.0
1668678481.2312877,51791,1668678481,231006008,,-0.039399650533391284,0.05706468619044347,7.507842491921371e-06,5e-324,-5e-324,0.0
1668678481.2383158,51792,1668678481,238122616,,-0.02084548075072137,0.030191659099125932,3.972232850445131e-06,5e-324,-5e-324,0.0
1668678481.2464707,51793,1668678481,246224534,,-0.011028881267878928,0.015973736824132178,2.101620250442609e-06,5e-324,-5e-324,0.0
1668678481.2541256,51794,1668678481,253921353,,-0.011028881267878928,0.015973736824132178,2.101620250442609e-06,5e-324,-5e-324,0.0
1668678481.2626946,51795,1668678481,262412112,,-0.005835136328854465,0.008451349668757468,1.1119206359152645e-06,5e-324,-5e-324,0.0
1668678481.2704148,51796,1668678481,270189249,,-0.0030872411398137596,0.0044714215596504524,5.882925330177146e-07,5e-324,-5e-324,0.0
1668678481.2785485,51797,1668678481,278350681,,-0.001633390775846649,0.00236572991862096,3.1125252398928676e-07,5e-324,-5e-324,0.0
1668678481.286455,51798,1668678481,286218889,,-0.0008641908117296808,0.0012516552002973854,1.6467680321005254e-07,5e-324,-5e-324,0.0
1668678481.294908,51799,1668678481,294482772,,-0.0008641908117296808,0.0012516552002973854,1.6467680321005254e-07,5e-324,-5e-324,0.0
1668678481.3050234,51800,1668678481,304756331,,-0.0004572241805950546,0.000662222990080254,8.712684211491175e-08,5e-324,-5e-324,0.0
1668678481.3110194,51801,1668678481,310767578,,-0.0002419071673562427,0.000350367488176167,4.6096878667446524e-08,5e-324,-5e-324,0.0
1668678481.3182642,51802,1668678481,318069473,,-0.00012798771390909713,0.0001853716627325181,2.438883553335633e-08,5e-324,-5e-324,0.0
1668678481.326514,51803,1668678481,326237952,,-6.771545916022305e-05,9.80760330334665e-05,1.2903591650190431e-08,5e-324,-5e-324,0.0
1668678481.3341439,51804,1668678481,333943441,,-6.771545916022305e-05,9.80760330334665e-05,1.2903591650190431e-08,5e-324,-5e-324,0.0
1668678481.3424375,51805,1668678481,342205606,,-3.582674671833415e-05,5.188985260094047e-05,6.827003989064603e-09,5e-324,-5e-324,0.0
1668678481.3506203,51806,1668678481,350344324,,-1.895513663109951e-05,2.745376948544143e-05,3.612016307569386e-09,5e-324,-5e-324,0.0
1668678481.3587968,51807,1668678481,358417930,,-1.0028742144197594e-05,1.4525180188044983e-05,1.911037671436129e-09,5e-324,-5e-324,0.0
1668678481.3663254,51808,1668678481,366117627,,-5.305984913334331e-06,7.684950498584772e-06,0.11599153064066679,5e-324,-5e-324,0.0
1668678481.3740897,51809,1668678481,373868348,,-5.305984913334331e-06,7.684950498584772e-06,0.11599153064066679,5e-324,-5e-324,0.0
1668678481.382639,51810,1668678481,382370029,,-2.8072788686485975e-06,4.065936766437271e-06,0.177374078033899,5e-324,-5e-324,0.0
1668678481.390442,51811,1668678481,390236391,,-1.4852689510209276e-06,2.1511969129418342e-06,0.24916971001534302,5e-324,-5e-324,0.0
1668678481.3986492,51812,1668678481,398327121,,-7.858228412942707e-07,1.1381505478515839e-06,0.2871762932345948,5e-324,-5e-324,0.0
1668678481.406763,51813,1668678481,406508531,,-4.1576142655869716e-07,6.021701973360382e-07,0.3417774190281406,5e-324,-5e-324,0.0
1668678481.4140706,51814,1668678481,413828072,,-4.1576142655869716e-07,6.021701973360382e-07,0.3417774190281406,5e-324,-5e-324,0.0
1668678481.4225407,51815,1668678481,422279789,,-2.1997014432594248e-07,3.1859488821070076e-07,0.44245789857491935,5e-324,-5e-324,0.0
1668678481.4305317,51816,1668678481,430317683,,-1.1638132184430706e-07,1.6856148517982172e-07,0.4957267768886205,5e-324,-5e-324,0.0
1668678481.4385138,51817,1668678481,438256182,,-6.15747746846879e-08,8.918214113729443e-08,0.5523308496683699,5e-324,-5e-324,0.0
1668678481.4465363,51818,1668678481,446342011,,-3.2577846834754304e-08,-0.004088471331311777,0.6529741523469004,5e-324,-5e-324,0.0
1668678481.4549522,51819,1668678481,454643988,,-3.2577846834754304e-08,-0.004088471331311777,0.6529741523469004,5e-324,-5e-324,0.0
1668678481.462938,51820,1668678481,462586706,,-1.7236215801413786e-08,-0.006213670827144704,0.706227541387555,5e-324,-5e-324,0.0
1668678481.4702373,51821,1668678481,470029339,,-9.119299279041713e-09,-0.05140947024186379,0.8296461117980518,5e-324,-5e-324,0.0
1668678481.4784248,51822,1668678481,478139396,,-4.8248188754929285e-09,-0.07532305875550827,0.8949206409604544,5e-324,-5e-324,0.0
1668678481.486868,51823,1668678481,486555605,,-2.552704595934598e-09,-0.15298509430454216,0.9485160650152998,5e-324,-5e-324,0.0
1668678481.4947433,51824,1668678481,494389309,,0.13722056965304277,-0.2101000252857296,0.9809162746442153,5e-324,-5e-324,0.0
1668678481.5023386,51825,1668678481,502135931,,0.13722056965304277,-0.2101000252857296,0.9809162746442153,5e-324,-5e-324,0.0
1668678481.5106347,51826,1668678481,510354217,,0.20981892551265585,-0.24033964034689895,0.9980462886218338,5e-324,-5e-324,0.0
1668678481.5204215,51827,1668678481,518396292,,0.27048475223705754,-0.24722478450676255,1.0068356735988462,5e-324,-5e-324,0.0
1668678481.5266793,51828,1668678481,526354390,,0.45774963830692467,-0.31314091677438993,0.9880915002995252,5e-324,-5e-324,0.0
1668678481.5342076,51829,1668678481,533948625,,0.45774963830692467,-0.31314091677438993,0.9880915002995252,5e-324,-5e-324,0.0
1668678481.5424123,51830,1668678481,542123794,,0.5569764906299968,-0.3477933391498469,0.9782046422921049,5e-324,-5e-324,0.0
1668678481.5511074,51831,1668678481,550839868,,0.606078426750994,-0.3939114565450703,1.063015060577434,5e-324,-5e-324,0.0
1668678481.5583777,51832,1668678481,558181540,,0.6320609370742604,-0.41823748331187705,1.107933067770774,5e-324,-5e-324,0.0
1668678481.5665104,51833,1668678481,566296773,,0.6885624106059498,-0.527522364830327,1.185153191609184,5e-324,-5e-324,0.0
1668678481.5743318,51834,1668678481,574083888,,0.6885624106059498,-0.527522364830327,1.185153191609184,5e-324,-5e-324,0.0
1668678481.5831358,51835,1668678481,582854052,,0.7135200193042914,-0.6106140972917744,1.2030003010577128,5e-324,-5e-324,0.0
1668678481.5906315,51836,1668678481,590357687,,0.7267341927539568,-0.6546460719828173,1.2123815995012954,5e-324,-5e-324,0.0
1668678481.5987008,51837,1668678481,598319930,,0.7702360580871445,-0.6954141097185598,1.193976770365778,5e-324,-5e-324,0.0
1668678481.6066558,51838,1668678481,606469083,,0.907600255619359,-0.7151460181010032,1.1503810565492343,5e-324,-5e-324,0.0
1668678481.6141033,51839,1668678481,613840013,,0.907600255619359,-0.7151460181010032,1.1503810565492343,5e-324,-5e-324,0.0
1668678481.6222632,51840,1668678481,622051061,,0.9803527060212411,-0.7255795370698519,1.1272459765148897,5e-324,-5e-324,0.0
1668678481.6304603,51841,1668678481,630189239,,1.0274929911204427,-0.7541832013079087,1.0777763576106008,5e-324,-5e-324,0.0
1668678481.638241,51842,1668678481,638006895,,1.0523798632345036,-0.7693913253499773,1.0515927750018426,5e-324,-5e-324,0.0
1668678481.6466384,51843,1668678481,646308921,,1.040872377344607,-0.7949968848748152,1.1230557100200844,5e-324,-5e-324,0.0
1668678481.6539805,51844,1668678481,653804685,,1.040872377344607,-0.7949968848748152,1.1230557100200844,5e-324,-5e-324,0.0
1668678481.66239,51845,1668678481,662077817,,1.0047486542720456,-0.7992090094265496,1.1844610311685964,5e-324,-5e-324,0.0
1668678481.6703968,51846,1668678481,670204188,,0.9855664820002573,-0.8015040312642987,1.2169569375672913,5e-324,-5e-324,0.0
1668678481.6786222,51847,1668678481,678329028,,1.0051491272954405,-0.8060028370065278,1.2670259659629237,5e-324,-5e-324,0.0
1668678481.686476,51848,1668678481,686192955,,1.0868985391622465,-0.8108216280346487,1.2036990572654656,5e-324,-5e-324,0.0
1668678481.6943023,51849,1668678481,694063835,,1.0868985391622465,-0.8108216280346487,1.2036990572654656,5e-324,-5e-324,0.0
1668678481.7024446,51850,1668678481,702209418,,1.1301279743869936,-0.8134391000871475,1.1701591640903284,5e-324,-5e-324,0.0
1668678481.7112174,51851,1668678481,710985568,,1.1863640449816792,-0.7896465100470818,1.137544595043855,5e-324,-5e-324,0.0
1668678481.7184513,51852,1668678481,718178168,,1.2162874996575763,-0.7768200742565065,1.1203066340788301,5e-324,-5e-324,0.0
1668678481.7265544,51853,1668678481,726312274,,1.221730911751914,-0.7677905045983792,1.0876305495556744,5e-324,-5e-324,0.0
1668678481.7340603,51854,1668678481,733874252,,1.221730911751914,-0.7677905045983792,1.0876305495556744,5e-324,-5e-324,0.0
1668678481.7435713,51855,1668678481,743281891,,1.2956511592977829,-0.7361395896902247,1.0175158565570714,5e-324,-5e-324,0.0
1668678481.7508512,51856,1668678481,750538681,,1.3347239039963992,-0.7194187130620996,0.9804430412037874,5e-324,-5e-324,0.0
1668678481.7584257,51857,1668678481,758077024,,1.321517457366867,-0.6836476035427508,0.946318596166012,5e-324,-5e-324,0.0
1668678481.7663307,51858,1668678481,766120901,,1.2138448496994512,-0.6106466748424623,0.9938759210736825,5e-324,-5e-324,0.0
1668678481.7746305,51859,1668678481,774367136,,1.1569095962989486,-0.572049089910621,1.0189856951599485,5e-324,-5e-324,0.0
1668678481.7821164,51860,1668678481,781886702,,1.1569095962989486,-0.572049089910621,1.0189856951599485,5e-324,-5e-324,0.0
1668678481.7902863,51861,1668678481,790096647,,1.1474636228100135,-0.509454426364806,1.0219182397388062,5e-324,-5e-324,0.0
1668678481.7985432,51862,1668678481,798243123,,1.1425280108643496,-0.4763507464474105,1.0233945325731848,5e-324,-5e-324,0.0
1668678481.8065298,51863,1668678481,806226461,,1.085790761097201,-0.40244290326801846,0.9998880786101644,5e-324,-5e-324,0.0
1668678481.8145957,51864,1668678481,814289176,,1.085790761097201,-0.40244290326801846,0.9998880786101644,5e-324,-5e-324,0.0
1668678481.8230236,51865,1668678481,822735866,,1.0946139724326072,-0.31871145834357484,0.9250810323687246,5e-324,-5e-324,0.0
1668678481.830549,51866,1668678481,830273876,,1.0992717618803691,-0.2745257761206467,0.8854377930907154,5e-324,-5e-324,0.0
1668678481.8390362,51867,1668678481,838723409,,1.111112156472776,-0.2254932045095941,0.8639360064202063,5e-324,-5e-324,0.0
1668678481.846484,51868,1668678481,846226355,,1.084900446551054,-0.15952190919465856,0.7530389296400704,5e-324,-5e-324,0.0
1668678481.854479,51869,1668678481,854284951,,1.0709818509512643,-0.12469100997379143,0.6943808724383052,5e-324,-5e-324,0.0
1668678481.8623292,51870,1668678481,862079747,,1.0709818509512643,-0.12469100997379143,0.6943808724383052,5e-324,-5e-324,0.0
1668678481.8707938,51871,1668678481,870505170,,1.0497376209366887,-0.10886013789428908,0.6635105357416379,5e-324,-5e-324,0.0
1668678481.8783689,51872,1668678481,878158753,,1.0384690669405345,-0.10050171831343731,0.6472018069991821,5e-324,-5e-324,0.0
1668678481.8878999,51873,1668678481,887442387,,1.1692562734403464,-0.13138992381016695,0.6948370837822408,5e-324,-5e-324,0.0
1668678481.8950078,51874,1668678481,894728421,,1.1692562734403464,-0.13138992381016695,0.6948370837822408,5e-324,-5e-324,0.0
1668678481.902772,51875,1668678481,902439493,,1.266395416398367,-0.16501962519139218,0.7909469837470222,5e-324,-5e-324,0.0
1668678481.9115286,51876,1668678481,911235625,,1.3178777705870273,-0.18278919686982162,0.841700933472461,5e-324,-5e-324,0.0
1668678481.9185584,51877,1668678481,918260399,,1.200423936616507,-0.13880106273876122,0.8354710066787048,5e-324,-5e-324,0.0
1668678481.926365,51878,1668678481,926155590,,1.1253472492862848,-0.1457886815097832,0.8847094907339896,5e-324,-5e-324,0.0
1668678481.9341416,51879,1668678481,933951093,,1.1253472492862848,-0.1457886815097832,0.8847094907339896,5e-324,-5e-324,0.0
1668678481.9423847,51880,1668678481,942181779,,1.0855801719226752,-0.14951137474745907,0.9107932408370045,5e-324,-5e-324,0.0
1668678481.950309,51881,1668678481,950099927,,1.0389760025167862,-0.17198840117375774,0.8592127582235938,5e-324,-5e-324,0.0
1668678481.9585907,51882,1668678481,958299273,,1.0143788321812757,-0.18375219320217148,0.831941694995201,5e-324,-5e-324,0.0
1668678481.966447,51883,1668678481,966206229,,1.0264170304808118,-0.2641544117012259,0.9601355722623122,5e-324,-5e-324,0.0
1668678481.9753108,51884,1668678481,975127411,,1.109557755800071,-0.3528303710981474,1.1084728665121466,5e-324,-5e-324,0.0
1668678481.9821262,51885,1668678481,981909130,,1.109557755800071,-0.3528303710981474,1.1084728665121466,5e-324,-5e-324,0.0
1668678481.9902878,51886,1668678481,990070774,,1.1535259951900674,-0.39973353359329666,1.1869823891724134,5e-324,-5e-324,0.0
1668678481.9983146,51887,1668678481,998090051,,1.149161701985391,-0.4059917887854937,1.2189482261518472,5e-324,-5e-324,0.0
1668678482.0065072,51888,1668678482,6238002,,1.194577159704295,-0.3873038659151192,1.1597616342657682,5e-324,-5e-324,0.0
1668678482.0140722,51889,1668678482,13885180,,1.194577159704295,-0.3873038659151192,1.1597616342657682,5e-324,-5e-324,0.0
1668678482.0223007,51890,1668678482,22033102,,1.218693933146141,-0.37742178639111623,1.1283489625852838,5e-324,-5e-324,0.0
1668678482.0312684,51891,1668678482,30768446,,1.2324193077677528,-0.3765488410528124,1.1259399570117257,5e-324,-5e-324,0.0
1668678482.039712,51892,1668678482,39437845,,1.2396319831760185,-0.3760783412247767,1.1247230009159843,5e-324,-5e-324,0.0
1668678482.0474427,51893,1668678482,47189438,,1.2480862448590557,-0.3515499614081344,1.095311893752016,5e-324,-5e-324,0.0
1668678482.0543213,51894,1668678482,54066687,,1.2480862448590557,-0.3515499614081344,1.095311893752016,5e-324,-5e-324,0.0
1668678482.062697,51895,1668678482,62283337,,1.196549705193861,-0.3200572552928941,1.0985834812924296,5e-324,-5e-324,0.0
1668678482.0710502,51896,1668678482,70806944,,1.169269482662122,-0.3035109995397461,1.1002572252238256,5e-324,-5e-324,0.0
1668678482.0783265,51897,1668678482,78091457,,1.2262286559639382,-0.34389423659060975,1.078166981811195,5e-324,-5e-324,0.0
1668678482.086271,51898,1668678482,86011184,,1.2338157377534873,-0.2980566878602744,1.0370251910898332,5e-324,-5e-324,0.0
1668678482.094555,51899,1668678482,94142362,,1.2338157377534873,-0.2980566878602744,1.0370251910898332,5e-324,-5e-324,0.0
1668678482.1027162,51900,1668678482,102494232,,1.2378202140751835,-0.273913992072121,1.0152006678817636,5e-324,-5e-324,0.0
1668678482.1106882,51901,1668678482,110510866,,1.2427889324163384,-0.25104007057489974,0.9987481465866425,5e-324,-5e-324,0.0
1668678482.1183126,51902,1668678482,118120753,,1.2454007665125006,-0.23896933551334995,0.990043390594999,5e-324,-5e-324,0.0
1668678482.1267183,51903,1668678482,126456468,,1.2120972384607747,-0.17699607658792105,0.975218914870398,5e-324,-5e-324,0.0
1668678482.1343307,51904,1668678482,134131539,,1.2304085150923698,-0.15666071077952243,0.9579240923947916,5e-324,-5e-324,0.0
1668678482.142169,51905,1668678482,141977442,,1.2304085150923698,-0.15666071077952243,0.9579240923947916,5e-324,-5e-324,0.0
1668678482.1505575,51906,1668678482,150297951,,1.2400596025340984,-0.1460043444563118,0.9487567220190021,5e-324,-5e-324,0.0
1668678482.1587098,51907,1668678482,158324005,,1.4020429013231634,-0.1818672657439035,0.9766003022278427,5e-324,-5e-324,0.0
1668678482.1669059,51908,1668678482,166643659,,1.4662991249570285,-0.23791937754980558,1.0158324083717543,5e-324,-5e-324,0.0
1668678482.1743977,51909,1668678482,174159973,,1.4662991249570285,-0.23791937754980558,1.0158324083717543,5e-324,-5e-324,0.0
1668678482.1830888,51910,1668678482,182742682,,1.5003320925733687,-0.2675255906364226,1.036575751316984,5e-324,-5e-324,0.0
1668678482.1914961,51911,1668678482,191136515,,1.5176715083798746,-0.2547188740606056,1.0422090722120543,5e-324,-5e-324,0.0
1668678482.198548,51912,1668678482,198340765,,1.5268294154577702,-0.24789663986283095,1.0452374876268575,5e-324,-5e-324,0.0
1668678482.2064383,51913,1668678482,206188930,,1.622531933066873,-0.2872746605697794,1.1600721105038594,5e-324,-5e-324,0.0
1668678482.214577,51914,1668678482,214299005,,1.704630218272898,-0.32075522143183954,1.2491502970778998,5e-324,-5e-324,0.0
1668678482.2222466,51915,1668678482,222051785,,1.704630218272898,-0.32075522143183954,1.2491502970778998,5e-324,-5e-324,0.0
1668678482.2305145,51916,1668678482,230270209,,1.748013094478063,-0.3384221219843786,1.2963704132655371,5e-324,-5e-324,0.0
1668678482.238429,51917,1668678482,238195655,,1.806839213647656,-0.30619543164647034,1.3909444965262094,5e-324,-5e-324,0.0
1668678482.2466195,51918,1668678482,246401645,,1.8195869993713982,-0.22258928713838078,1.3454628269660638,5e-324,-5e-324,0.0
1668678482.2546594,51919,1668678482,254296370,,1.8263696222083912,-0.1782782606214947,1.3213902955427566,5e-324,-5e-324,0.0
1668678482.2622347,51920,1668678482,261980364,,1.8263696222083912,-0.1782782606214947,1.3213902955427566,5e-324,-5e-324,0.0
1668678482.2706687,51921,1668678482,270414197,,1.807004993045951,-0.13537942367576328,1.2989940426673101,5e-324,-5e-324,0.0
1668678482.2784076,51922,1668678482,278196387,,1.7966954767078298,-0.11282233852418963,1.2871564012259658,5e-324,-5e-324,0.0
1668678482.288034,51923,1668678482,287226123,,1.8679425598484638,-0.14720185723686335,1.3566759305123337,5e-324,-5e-324,0.0
1668678482.294752,51924,1668678482,294487426,,1.8679425598484638,-0.14720185723686335,1.3566759305123337,5e-324,-5e-324,0.0
1668678482.303158,51925,1668678482,302951575,,1.9696253433410695,-0.17169815188865745,1.4307592925219397,5e-324,-5e-324,0.0
1668678482.3115828,51926,1668678482,311344399,,2.023387064952283,-0.18464804113528943,1.4700048192451813,5e-324,-5e-324,0.0
1668678482.3205433,51927,1668678482,319012041,,2.0230151557436455,-0.13889234496557912,1.518123007801027,5e-324,-5e-324,0.0
1668678482.3270645,51928,1668678482,326821443,,1.9797226219327295,-0.07348485745955483,1.528806918190599,5e-324,-5e-324,0.0
1668678482.3341093,51929,1668678482,333892994,,1.9797226219327295,-0.07348485745955483,1.528806918190599,5e-324,-5e-324,0.0
1668678482.3434596,51930,1668678482,343224476,,1.9569313409888056,-0.03887920732556821,1.534422448229502,5e-324,-5e-324,0.0
1668678482.3504992,51931,1668678482,350080479,,1.9392434455568304,-0.020570125798998508,1.518498205110383,5e-324,-5e-324,0.0
1668678482.3582673,51932,1668678482,358089963,,1.9298128119518676,-0.010883197073525728,1.5101410563823476,5e-324,-5e-324,0.0
1668678482.3662262,51933,1668678482,366012896,,1.9483669925573937,-0.005758058054606823,1.533191211570338,5e-324,-5e-324,0.0
1668678482.3743618,51934,1668678482,374119021,,1.9601584447486968,-0.003046460735409758,1.5356841645847217,5e-324,-5e-324,0.0
1668678482.3821194,51935,1668678482,381921127,,1.9601584447486968,-0.003046460735409758,1.5356841645847217,5e-324,-5e-324,0.0
1668678482.3909767,51936,1668678482,390730997,,1.9664454218119007,-0.0016118147688643078,1.5368810456207158,5e-324,-5e-324,0.0
1668678482.3993256,51937,1668678482,399106540,,2.047749484312609,-0.0028484757763657543,1.5476650716284959,5e-324,-5e-324,0.0
1668678482.407466,51938,1668678482,407207251,,2.1555554477365355,-0.03779588426647194,1.614850892355095,5e-324,-5e-324,0.0
1668678482.414602,51939,1668678482,414291551,,2.1555554477365355,-0.03779588426647194,1.614850892355095,5e-324,-5e-324,0.0
1668678482.422895,51940,1668678482,422563959,,2.212585731690793,-0.0563195941063978,1.650392966907923,5e-324,-5e-324,0.0
1668678482.4307199,51941,1668678482,430432121,,2.274149040570629,-0.05559079902158651,1.6546879032983388,5e-324,-5e-324,0.0
1668678482.4384627,51942,1668678482,438198617,,2.306807015242013,-0.05509257314628518,1.656896565248148,5e-324,-5e-324,0.0
1668678482.446343,51943,1668678482,446140113,,2.0959054374301265,-0.04118046847121705,1.6357853664766917,5e-324,-5e-324,0.0
1668678482.4552884,51944,1668678482,455056311,,1.9924419050895974,-0.07477303029978474,1.6583859579723292,5e-324,-5e-324,0.0
1668678482.4624414,51945,1668678482,462184358,,1.9924419050895974,-0.07477303029978474,1.6583859579723292,5e-324,-5e-324,0.0
1668678482.4707992,51946,1668678482,470627690,,1.9376599457636643,-0.09260973082241176,1.6703617440163367,5e-324,-5e-324,0.0
1668678482.479634,51947,1668678482,479369768,,1.86769161631116,-0.13869414990880904,1.6682649491735564,5e-324,-5e-324,0.0
1668678482.4875205,51948,1668678482,487278695,,1.7648527248975272,-0.24115564682801022,1.7492838749661141,5e-324,-5e-324,0.0
1668678482.494784,51949,1668678482,494438438,,1.7648527248975272,-0.24115564682801022,1.7492838749661141,5e-324,-5e-324,0.0
1668678482.5025213,51950,1668678482,502258632,,1.7104425026567396,-0.2953433723315324,1.792160293352083,5e-324,-5e-324,0.0
1668678482.5107746,51951,1668678482,510479605,,1.6870407740169506,-0.32789785572279617,1.8149349690190433,5e-324,-5e-324,0.0
1668678482.5182202,51952,1668678482,518049665,,1.6746213336699123,-0.3450740009820975,1.8270431529624576,5e-324,-5e-324,0.0
1668678482.52623,51953,1668678482,526008975,,1.7218240337835038,-0.3345930405559584,1.8231773026085767,5e-324,-5e-324,0.0
1668678482.5340703,51954,1668678482,533814363,,1.7218240337835038,-0.3345930405559584,1.8231773026085767,5e-324,-5e-324,0.0
1668678482.542538,51955,1668678482,542257806,,1.7741107232539997,-0.3481899167600536,1.8119615968685943,5e-324,-5e-324,0.0
1668678482.5503078,51956,1668678482,550120853,,1.8020056490144531,-0.3551770161901482,1.805894286630442,5e-324,-5e-324,0.0
1668678482.5586107,51957,1668678482,558442108,,2.0085355379907535,-0.4852380602617338,1.8228443382362949,5e-324,-5e-324,0.0
1668678482.5665696,51958,1668678482,566378884,,2.4310216256207218,-0.6994126560338971,1.648981910980881,5e-324,-5e-324,0.0
1668678482.5751588,51959,1668678482,574469943,,2.6545426058730333,-0.8128211435743553,1.5569324507372566,5e-324,-5e-324,0.0
1668678482.58234,51960,1668678482,582114594,,2.6545426058730333,-0.8128211435743553,1.5569324507372566,5e-324,-5e-324,0.0
1668678482.5903764,51961,1668678482,590162897,,2.809824521551569,-0.8961135600679127,1.4238066635548245,5e-324,-5e-324,0.0
1668678482.598557,51962,1668678482,598305442,,2.8920853687234236,-0.9401150271559862,1.3532477999216859,5e-324,-5e-324,0.0
1668678482.6065896,51963,1668678482,606311503,,2.9283187221340246,-1.289298121662134,1.1392070136921573,5e-324,-5e-324,0.0
1668678482.6140873,51964,1668678482,613868466,,2.9283187221340246,-1.289298121662134,1.1392070136921573,5e-324,-5e-324,0.0
1668678482.6223342,51965,1668678482,622096524,,3.096776245723751,-1.6651495330039712,0.8355669509402185,5e-324,-5e-324,0.0
1668678482.6307638,51966,1668678482,630422938,,3.18585999524176,-1.864081829927518,0.674881728899177,5e-324,-5e-324,0.0
1668678482.6391988,51967,1668678482,638861521,,2.782197828929887,-2.8639481395273543,0.3992958411813844,5e-324,-5e-324,0.0
1668678482.6472807,51968,1668678482,647020408,,1.8260338114766892,-4.336712719908565,0.21125856850266858,5e-324,-0.10608031823508488,0.0
1668678482.6544492,51969,1668678482,654216701,,1.8260338114766892,-4.336712719908565,0.21125856850266858,5e-324,-0.10608031823508488,0.0
1668678482.6625905,51970,1668678482,662313162,,1.3201398193557625,-5.115943417102258,0.11177222040117112,5e-324,-0.16220379889600384,0.0
1668678482.6706984,51971,1668678482,670391800,,1.026340311486148,-5.567233432173476,0.059136201395069865,5e-324,-0.1976100292903502,0.0
1668678482.6784127,51972,1668678482,678230193,,0.8706812112376088,-5.806057751098715,0.03128765182338296,5e-324,-0.21634734690725269,0.0
1668678482.6864226,51973,1668678482,686191900,,0.901531600879844,-6.111230065521768,0.016553602252559467,5e-324,-0.2535445198767764,0.0
1668678482.6944554,51974,1668678482,694222025,,0.9119945945726067,-6.300660796525464,0.008758143598720009,5e-324,-0.2775738061734366,0.0
1668678482.7026427,51975,1668678482,702080234,,0.9119945945726067,-6.300660796525464,0.008758143598720009,5e-324,-0.2775738061734366,0.0
1668678482.7104273,51976,1668678482,710197507,,0.917612621178153,-6.4008627718789,0.004633739419704878,5e-324,-0.2902856867770537,0.0
1668678482.7184577,51977,1668678482,718192719,,1.0447787354764944,-6.5388715229278205,0.0024516086962612644,5e-324,-0.3121273015394328,0.0
1668678482.7267203,51978,1668678482,726456001,,1.3874157891077723,-6.783874888085732,0.00129709175574803,5e-324,-0.36333578144535217,0.0
1668678482.7347074,51979,1668678482,734436934,,1.3874157891077723,-6.783874888085732,0.00129709175574803,5e-324,-0.36333578144535217,0.0
1668678482.742541,51980,1668678482,742298188,,1.5684315071364385,-6.913613411520782,0.0006862624632533163,5e-324,-0.39044163635719553,0.0
1668678482.7505922,51981,1668678482,750319591,,1.6745312992178576,-7.062739820904815,0.00036308623995448183,5e-324,-0.42590397440079586,0.0
1668678482.758536,51982,1668678482,758261204,,1.7305982980798473,-7.1416159492065585,0.0001921008720472903,5e-324,-0.44466638808916115,0.0
1668678482.7672758,51983,1668678482,766991205,,1.8118622660178139,-7.417502837356963,-0.13778657277440817,5e-324,-0.49609695097484796,0.0
1668678482.774218,51984,1668678482,773996512,,1.8118622660178139,-7.417502837356963,-0.13778657277440817,5e-324,-0.49609695097484796,0.0
1668678482.7827775,51985,1668678482,782473989,,1.8666681791822395,-7.629017415503333,-0.24755449140790392,5e-324,-0.534407188738899,0.0
1668678482.7907262,51986,1668678482,790472420,,1.8956375334046718,-7.740902793590932,-0.30583258759225485,5e-324,-0.5546772971770013,0.0
1668678482.7988312,51987,1668678482,798599801,,1.9076760568713946,-7.866001249442984,-0.4903399730143317,5e-324,-0.5766172204584759,0.0
1668678482.8072753,51988,1668678482,806710524,,1.9055111324240808,-7.968876558860297,-0.6724953828024994,5e-324,-0.5926008475176048,0.0
1668678482.8143024,51989,1668678482,813940901,,1.9055111324240808,-7.968876558860297,-0.6724953828024994,5e-324,-0.5926008475176048,0.0
1668678482.8225737,51990,1668678482,822210470,,1.904407995250407,-8.023317606782905,-0.7687462793409601,5e-324,-0.6010575832192561,0.0
1668678482.8304756,51991,1668678482,830214939,,1.9319014719017842,-8.0464067712224,-0.7960555879362148,5e-324,-0.6021323495675206,0.0
1668678482.8383884,51992,1668678482,838209128,,1.9466321490189515,-8.05854771291176,-0.8105776830602989,5e-324,-0.6026945679141849,0.0
1668678482.8463612,51993,1668678482,846154831,,1.7738209272481091,-8.093141596380269,-0.7506033503062213,5e-324,-0.6012216258123639,0.0
1668678482.8544104,51994,1668678482,854146338,,1.618880489762971,-8.127086040247534,-0.651901835773748,5e-324,-0.6018026837405586,0.0
1668678482.8622181,51995,1668678482,861946313,,1.618880489762971,-8.127086040247534,-0.651901835773748,5e-324,-0.6018026837405586,0.0
1668678482.8703306,51996,1668678482,870124069,,1.5371797625878354,-8.144949893537412,-0.5998123715155794,5e-324,-0.6020996838221537,0.0
1668678482.8784099,51997,1668678482,878181399,,1.5438814130815324,-8.224354081564595,-0.7122293785819502,5e-324,-0.6196028004271132,0.0
1668678482.8864508,51998,1668678482,886233783,,1.6574201817582357,-8.425853738080125,-0.9243490715640297,5e-324,-0.6623263544405782,0.0
1668678482.8948474,51999,1668678482,894547882,,1.717905643752808,-8.532296221977287,-1.0367860136956892,5e-324,-0.6849157172933776,0.0
1668678482.9020805,52000,1668678482,901844967,,1.717905643752808,-8.532296221977287,-1.0367860136956892,5e-324,-0.6849157172933776,0.0
1668678482.9104545,52001,1668678482,910199991,,1.7227536726941788,-8.69933468997516,-1.1035084729970495,5e-324,-0.7150078789541144,0.0
1668678482.9185069,52002,1668678482,918194384,,1.7248712115341345,-8.787849712320885,-1.138740712450931,5e-324,-0.7309418405198971,0.0
1668678482.9265373,52003,1668678482,926250196,,1.580017181650987,-8.817977200440005,-1.0907279661689901,5e-324,-0.7331857342495978,0.0
1668678482.9339745,52004,1668678482,933783588,,1.580017181650987,-8.817977200440005,-1.0907279661689901,5e-324,-0.7331857342495978,0.0
1668678482.9431875,52005,1668678482,942980128,,1.562784464272883,-8.870350360137177,-1.0558811638775598,5e-324,-0.7401515822106847,0.0
1668678482.9503794,52006,1668678482,950200039,,1.5536921084012696,-8.89817624651879,-1.0368395150711756,5e-324,-0.7438385406668219,0.0
1668678482.9591227,52007,1668678482,958830970,,1.6228782358644853,-8.976641689483058,-1.0874541314369277,5e-324,-0.7617239600445644,0.0
1668678482.9663515,52008,1668678482,966137822,,1.707867760002022,-9.023798892849218,-1.1330552966154646,5e-324,-0.7713091592328903,0.0
1668678482.9739563,52009,1668678482,973753129,,1.707867760002022,-9.023798892849218,-1.1330552966154646,5e-324,-0.7713091592328903,0.0
1668678482.9825401,52010,1668678482,982125682,,1.7523112892705583,-9.048753945762638,-1.1578280689354956,5e-324,-0.7763961980413046,0.0
1668678482.9910707,52011,1668678482,990748550,,1.7976959246234019,-9.047859740551932,-1.1472956440509545,5e-324,-0.7761077972120688,0.0
1668678482.9986854,52012,1668678482,998440598,,1.8219306778203976,-9.047231087264313,-1.142157717869778,5e-324,-0.7759485932804125,0.0
1668678483.0065913,52013,1668678483,6326041,,1.9136598172236376,-9.038416855047325,-1.2246148170394928,5e-324,-0.7777930868064276,0.0
1668678483.0142229,52014,1668678483,14030773,,2.1243178616393124,-9.110640291782563,-1.380563686453921,5e-324,-0.7937194117054903,0.0
1668678483.0242517,52015,1668678483,22281855,,2.1243178616393124,-9.110640291782563,-1.380563686453921,5e-324,-0.7937194117054903,0.0
1668678483.0318437,52016,1668678483,31418052,,2.2359291387035154,-9.14883980087622,-1.4629156594555066,5e-324,-0.8021414303553974,0.0
1668678483.0389864,52017,1668678483,38741892,,2.385534084373864,-9.274748670483945,-1.6599070199342971,5e-324,-0.8292379423038736,0.0
1668678483.0473344,52018,1668678483,47080947,,2.446066991572895,-9.445599580201934,-1.761662418485781,5e-324,-0.8580200470900092,0.0
1668678483.054999,52019,1668678483,54709568,,2.446066991572895,-9.445599580201934,-1.761662418485781,5e-324,-0.8580200470900092,0.0
1668678483.0632205,52020,1668678483,63018039,,2.478100669244638,-9.535815365087881,-1.8161471948446264,5e-324,-0.8732448889239123,0.0
1668678483.0710163,52021,1668678483,70779522,,2.462147083178368,-9.613789341818848,-1.8290415382621505,5e-324,-0.8874107863619944,0.0
1668678483.079284,52022,1668678483,79090144,,2.4538347216882475,-9.654893667000223,-1.8362725573239473,5e-324,-0.8949004298811791,0.0
1668678483.0866742,52023,1668678483,86352290,,2.443842932237389,-9.75048354327069,-1.8806113084331666,5e-324,-0.9100555623430051,0.0
1668678483.0944326,52024,1668678483,94126008,,2.443842932237389,-9.75048354327069,-1.8806113084331666,5e-324,-0.9100555623430051,0.0
1668678483.1025515,52025,1668678483,102336824,,2.3153228865979,-9.755483249610236,-1.8002339140670398,5e-324,-0.9085042752152044,0.0
1668678483.1106005,52026,1668678483,110363212,,2.2473290449938412,-9.758243287802465,-1.7572482256374835,5e-324,-0.907682885956618,0.0
1668678483.1191506,52027,1668678483,118626595,,2.2427700626632894,-9.849661762372387,-1.7376578009126011,5e-324,-0.9174281943428404,0.0
1668678483.1268182,52028,1668678483,126492768,,2.5086461115836896,-10.117294080696343,-2.068736904082257,5e-324,-0.9703343786976854,0.0
1668678483.134366,52029,1668678483,134126924,,2.649048407963049,-10.258779669007291,-2.2445727022383712,5e-324,-0.9983349202127277,0.0
1668678483.1419694,52030,1668678483,141757983,,2.649048407963049,-10.258779669007291,-2.2445727022383712,5e-324,-0.9983349202127277,0.0
1668678483.150289,52031,1668678483,150085468,,2.7427674634806536,-10.518349514718404,-2.404335031116104,5e-324,-1.0457681249346218,0.0
1668678483.1584527,52032,1668678483,158260898,,2.792460222793549,-10.655642426211134,-2.488876610059467,5e-324,-1.0708569072591314,0.0
1668678483.1663163,52033,1668678483,166122565,,2.5230029689168223,-10.647706228840693,-1.9114040658969782,5e-324,-1.0543694820467744,0.0
1668678483.1742322,52034,1668678483,173937816,,2.5230029689168223,-10.647706228840693,-1.9114040658969782,5e-324,-1.0543694820467744,0.0
1668678483.182853,52035,1668678483,182482837,,2.287348303362933,-10.618458148149344,-1.3847480270118593,5e-324,-1.0359336121491236,0.0
1668678483.1905396,52036,1668678483,190264288,,2.1630299945929563,-10.602768901866735,-1.106883902999408,5e-324,-1.0261677727059135,0.0
1668678483.198519,52037,1668678483,198283692,,1.8058366487361437,-10.529930773096142,-0.5856277094057634,5e-324,-0.994896263487002,0.0
1668678483.2065873,52038,1668678483,206291606,,1.2367363379744856,-10.413757017708491,-0.05980568720686502,5e-324,-0.9439748751401735,0.0
1668678483.2143755,52039,1668678483,213923795,,1.2367363379744856,-10.413757017708491,-0.05980568720686502,5e-324,-0.9439748751401735,0.0
1668678483.2223709,52040,1668678483,222137319,,0.9358474102930154,-10.352282777054445,0.2182449584565318,5e-324,-0.9170334313756203,0.0
1668678483.2306147,52041,1668678483,230320919,,0.5596121480909146,-10.40518857131902,0.561322107999094,5e-324,-0.9082892938557736,0.0
1668678483.238309,52042,1668678483,238134282,,0.36011696269925525,-10.433206795581617,0.7429333136919258,5e-324,-0.9036594160690461,0.0
1668678483.247037,52043,1668678483,246788434,,0.19052989334495576,-10.452154670921388,1.4143739887482858,5e-324,-0.8859560819197632,0.0
1668678483.2560127,52044,1668678483,255545977,,0.19052989334495576,-10.452154670921388,1.4143739887482858,5e-324,-0.8859560819197632,0.0
1668678483.2625577,52045,1668678483,262293298,,0.10080513838043456,-10.533212168676933,1.8647519534629304,5e-324,-0.8837871347963949,0.0
1668678483.2707903,52046,1668678483,270539011,,0.05333376167644608,-10.576276845229543,2.102351505642265,5e-324,-0.88263871339491,0.0
1668678483.279071,52047,1668678483,278689893,,0.1583529047556208,-10.80361872917705,2.316733344942845,5e-324,-0.9231145809004183,0.0
1668678483.2865224,52048,1668678483,286300449,,0.2963281668829459,-11.127556677996076,2.5037447173707523,5e-324,-0.9830430696841099,0.0
1668678483.2940164,52049,1668678483,293778251,,0.2963281668829459,-11.127556677996076,2.5037447173707523,5e-324,-0.9830430696841099,0.0
1668678483.302395,52050,1668678483,302158300,,0.36930735590911257,-11.2985776518681,2.6039315661549143,5e-324,-1.0147569333108963,0.0
1668678483.3106973,52051,1668678483,310215057,,0.41175622172045984,-11.407461127279653,2.6751089253342917,5e-324,-1.0408537475814132,0.0
1668678483.3184874,52052,1668678483,318293168,,0.43402294288274307,-11.465089411568284,2.7127736616772204,5e-324,-1.0546558856935175,0.0
1668678483.3264935,52053,1668678483,326197871,,0.34239806895679037,-11.458346122306107,2.699509479098076,5e-324,-1.049764515724608,0.0
1668678483.334123,52054,1668678483,333900471,,0.34239806895679037,-11.458346122306107,2.699509479098076,5e-324,-1.049764515724608,0.0
1668678483.3425443,52055,1668678483,342277169,,0.32831034293786054,-11.458307174748436,2.6776230407687787,5e-324,-1.0407819932506,0.0
1668678483.3507774,52056,1668678483,350612051,,0.3207517787176584,-11.458372573172767,2.665787825064326,5e-324,-1.0360276364195162,0.0
1668678483.3586063,52057,1668678483,358357541,,0.16970264808191635,-11.63292472132878,2.5665373326162744,5e-324,-1.0518496863829332,0.0
1668678483.3664765,52058,1668678483,366267206,,0.0897859051044111,-11.851874323356213,2.5163787192230442,5e-324,-1.0758285736710356,0.0
1668678483.3749352,52059,1668678483,374131602,,0.0897859051044111,-11.851874323356213,2.5163787192230442,5e-324,-1.0758285736710356,0.0
1668678483.382434,52060,1668678483,382210771,,0.047503729885976696,-11.967800723476092,2.489638313391734,5e-324,-1.088502386718785,0.0
1668678483.3905656,52061,1668678483,390303205,,0.06243624351857004,-12.04121694560158,2.532974255396004,5e-324,-1.105409023974231,0.0
1668678483.399064,52062,1668678483,398843973,,0.0704112386729377,-12.079943733278181,2.55630525774594,5e-324,-1.1143545697528627,0.0
1668678483.407829,52063,1668678483,406489108,,0.12075467150863065,-12.037374049385678,2.6516396735727925,5e-324,-1.118778055587728,0.0
1668678483.4146376,52064,1668678483,414300840,,0.3504646202255004,-12.100657805904532,2.716707450126116,5e-324,-1.1394777338285647,0.0
1668678483.422302,52065,1668678483,422006048,,0.3504646202255004,-12.100657805904532,2.716707450126116,5e-324,-1.1394777338285647,0.0
1668678483.4303977,52066,1668678483,430231913,,0.47278728058269537,-12.133850150380713,2.751805316685096,5e-324,-1.1504437608410487,0.0
1668678483.4391665,52067,1668678483,438920712,,0.5729558315263796,-11.963957600230845,2.6955756337415564,5e-324,-1.1299349492664799,0.0
1668678483.4470706,52068,1668678483,446702673,,0.610930111465988,-11.873566311029776,2.5994058570960483,5e-324,-1.1137354492066531,0.0
1668678483.4542503,52069,1668678483,454094828,,0.6307886133042035,-11.825687854387862,2.5488339179462365,5e-324,-1.1051630888240775,0.0
1668678483.4621477,52070,1668678483,461741837,,0.6307886133042035,-11.825687854387862,2.5488339179462365,5e-324,-1.1051630888240775,0.0
1668678483.4711385,52071,1668678483,470839900,,0.6719332192831295,-11.808964276689586,2.5219626246794764,5e-324,-1.1008951646710625,0.0
1668678483.4789562,52072,1668678483,478742536,,0.693613578200861,-11.8002515076876,2.507293403353351,5e-324,-1.098633862316809,0.0
1668678483.4872346,52073,1668678483,487011962,,0.5087368301601533,-11.670395162750317,2.4834494877025683,5e-324,-1.0721519746861592,0.0
1668678483.4947493,52074,1668678483,494523505,,0.5087368301601533,-11.670395162750317,2.4834494877025683,5e-324,-1.0721519746861592,0.0
