Time,header.seq,header.stamp.secs,header.stamp.nsecs,header.frame_id,pose.position.x,pose.position.y,pose.position.z,pose.orientation.x,pose.orientation.y,pose.orientation.z,pose.orientation.w
1668680516.5922823,22853,1668680516,592165892,,-0.0987977584844526,-0.6160097986508498,0.07088206679085886,0.9955612061784591,0.09352317225540453,-0.004348146633217499,0.009612212265325177
1668680516.599671,22854,1668680516,599581909,,-0.09879788950343203,-0.6160097986388285,0.0708820667898804,0.9955612060680209,0.0935231722617098,-0.00434814957016603,0.00961222231379521
1668680516.6085885,22855,1668680516,607694970,,-0.09879801074399493,-0.6160097986270366,0.07088206678892785,0.9955612059596901,0.09352317226706904,-0.0043481524128711,0.009612232195801589
1668680516.615538,22856,1668680516,615372379,,-0.09879812273960986,-0.6160097986154789,0.07088206678800056,0.9955612058534642,0.09352317227148901,-0.00434815516171673,0.009612241911400234
1668680516.6240804,22857,1668680516,623875838,,-0.09879822599983001,-0.6160097986041593,0.07088206678709875,0.9955612057493399,0.09352317227497682,-0.004348157817096039,0.009612251460668414
1668680516.632354,22858,1668680516,632150519,,-0.09879832101117932,-0.6160097985930817,0.07088206678622187,0.995561205647314,0.09352317227753913,-0.004348160379410981,0.009612260843703941
1668680516.6398563,22859,1668680516,639721083,,-0.09879840823801059,-0.6160097985822475,0.07088206678536979,0.9955612055473826,0.0935231722791833,-0.004348162849071908,0.009612270060624595
1668680516.6478126,22860,1668680516,647661266,,-0.09879848812334285,-0.616009798571659,0.07088206678454205,0.9955612054495422,0.09352317227991622,-0.004348165226498251,0.009612279111569207
1668680516.655871,22861,1668680516,655704725,,-0.09879856108967215,-0.6160097985613175,0.07088206678373819,0.9955612053537886,0.09352317227974502,-0.004348167512117593,0.009612287996696245
1668680516.6634378,22862,1668680516,663320633,,-0.09879862753976043,-0.616009798551224,0.07088206678295816,0.9955612052601175,0.09352317227867706,-0.0043481697063660375,0.009612296716184493
1668680516.6720417,22863,1668680516,671847059,,-0.09879868785739956,-0.616009798541378,0.07088206678220134,0.9955612051685242,0.09352317227671927,-0.00434817180968768,0.009612305270232274
1668680516.679844,22864,1668680516,679689995,,-0.09879874240815377,-0.6160097985317796,0.07088206678146743,0.9955612050790044,0.09352317227387902,-0.004348173822535097,0.009612313659057525
1668680516.6878626,22865,1668680516,687595516,,-0.09879879154007833,-0.6160097985224281,0.0708820667807562,0.9955612049915525,0.09352317227016382,-0.004348175745368614,0.009612321882897885
1668680516.6954887,22866,1668680516,695384620,,-0.09879883558441684,-0.6160097985133223,0.07088206678006717,0.9955612049061638,0.09352317226558109,-0.004348177578656482,0.009612329942009988
1668680516.704319,22867,1668680516,704099214,,-0.09879887485627567,-0.6160097985044607,0.07088206677939975,0.9955612048228327,0.09352317226013844,-0.004348179322874539,0.00961233783666939
1668680516.7117004,22868,1668680516,711572307,,-0.09879890965527825,-0.6160097984958411,0.07088206677875372,0.9955612047415535,0.09352317225384327,-0.0043481809785066135,0.00961234556717079
1668680516.7199898,22869,1668680516,719847648,,-0.09879894026619632,-0.6160097984874615,0.07088206677812854,0.9955612046623203,0.09352317224670297,-0.00434818254604356,0.009612353133827252
1668680516.7279954,22870,1668680516,727870365,,-0.0987989669595625,-0.6160097984793195,0.07088206677752397,0.995561204585127,0.09352317223872551,-0.004348184025984095,0.009612360536970871
1668680516.7356956,22871,1668680516,735543891,,-0.09879898999226128,-0.6160097984714125,0.0708820667769394,0.9955612045099674,0.09352317222991836,-0.004348185418833787,0.009612367776951479
1668680516.7433412,22872,1668680516,743172332,,-0.09879900960810117,-0.6160097984637369,0.0708820667763743,0.9955612044368349,0.093523172220289,-0.0043481867251056435,0.00961237485413719
1668680516.751634,22873,1668680516,751535975,,-0.098799026038366,-0.6160097984562899,0.07088206677582841,0.9955612043657227,0.09352317220984559,-0.0043481879453194745,0.009612381768914118
1668680516.7596169,22874,1668680516,759515991,,-0.0987990395023499,-0.6160097984490681,0.07088206677530114,0.9955612042966241,0.09352317219859548,-0.004348189080002105,0.009612388521685892
1668680516.767681,22875,1668680516,767590037,,-0.09879905020786989,-0.616009798442068,0.07088206677479228,0.9955612042295319,0.09352317218654689,-0.004348190129687068,0.009612395112874006
1668680516.7759366,22876,1668680516,775786698,,-0.09879905835176479,-0.6160097984352857,0.07088206677430128,0.9955612041644385,0.09352317217370765,-0.004348191094914635,0.009612401542917204
1668680516.7842274,22877,1668680516,783995992,,-0.09879906412037331,-0.6160097984287172,0.07088206677382759,0.9955612041013367,0.09352317216008539,-0.004348191976231262,0.009612407812271075
1668680516.7926211,22878,1668680516,792452500,,-0.09879906768999602,-0.6160097984223588,0.07088206677337079,0.9955612040402186,0.0935231721456886,-0.004348192774190228,0.009612413921408424
1668680516.8008678,22879,1668680516,800630103,,-0.09879906922734183,-0.6160097984162065,0.07088206677293041,0.9955612039810764,0.093523172130525,-0.004348193489350855,0.009612419870818775
1668680516.807665,22880,1668680516,807509634,,-0.0987990688899559,-0.6160097984102558,0.07088206677250619,0.9955612039239019,0.09352317211460233,-0.004348194122278861,0.009612425661008209
1668680516.8153949,22881,1668680516,815261482,,-0.09879906682663306,-0.616009798404503,0.07088206677209768,0.9955612038686869,0.09352317209792894,-0.004348194673545697,0.009612431292499207
1668680516.8238504,22882,1668680516,823728959,,-0.09879906317781606,-0.6160097983989431,0.07088206677170422,0.9955612038154228,0.09352317208051307,-0.004348195143728818,0.009612436765830214
1668680516.8316786,22883,1668680516,831573380,,-0.09879905807597852,-0.6160097983935726,0.07088206677132562,0.9955612037641008,0.09352317206236252,-0.004348195533411675,0.009612442081555938
1668680516.839809,22884,1668680516,839611039,,-0.09879905164599297,-0.6160097983883867,0.07088206677096145,0.9955612037147126,0.09352317204348552,-0.004348195843183267,0.009612447240246826
1668680516.84781,22885,1668680516,847649459,,-0.09879904400548488,-0.6160097983833807,0.07088206677061118,0.9955612036672485,0.09352317202389052,-0.004348196073637969,0.009612452242488426
1668680516.8555655,22886,1668680516,855377447,,-0.09879903526517397,-0.6160097983785514,0.07088206677027453,0.9955612036216999,0.09352317200358545,-0.004348196225375805,0.009612457088882503
1668680516.8643365,22887,1668680516,864093016,,-0.09879902552920097,-0.616009798373893,0.07088206676995085,0.9955612035780571,0.09352317198257858,-0.004348196299001927,0.009612461780045075
1668680516.8717902,22888,1668680516,871627932,,-0.09879901489544222,-0.616009798369402,0.07088206676963982,0.9955612035363106,0.09352317196087827,-0.004348196295126912,0.009612466316607848
1668680516.8796852,22889,1668680516,879579989,,-0.09879900345581129,-0.6160097983650737,0.07088206676934126,0.9955612034964506,0.0935231719384927,-0.00434819621436635,0.009612470699216984
1668680516.8878112,22890,1668680516,887629180,,-0.09879899129654916,-0.6160097983609042,0.07088206676905474,0.9955612034584674,0.09352317191543015,-0.004348196057340728,0.009612474928533213
1668680516.8954952,22891,1668680516,895355363,,-0.09879897849850203,-0.6160097983568887,0.07088206676877967,0.9955612034223511,0.09352317189169905,-0.004348195824675367,0.009612479005231956
1668680516.9038222,22892,1668680516,903650697,,-0.09879896513738805,-0.6160097983530234,0.07088206676851568,0.9955612033880913,0.09352317186730776,-0.004348195517000285,0.009612482930002275
1668680516.9116719,22893,1668680516,911576717,,-0.09879895128405357,-0.6160097983493035,0.07088206676826277,0.9955612033556775,0.09352317184226458,-0.004348195134950163,0.009612486703547746
1668680516.919927,22894,1668680516,919744445,,-0.09879893700471831,-0.6160097983457258,0.07088206676802027,0.9955612033250996,0.09352317181657786,-0.004348194679164178,0.009612490326585295
1668680516.9283128,22895,1668680516,928056891,,-0.09879892236120955,-0.6160097983422846,0.0708820667677879,0.9955612032963467,0.09352317179025592,-0.0043481941502858815,0.009612493799845597
1668680516.935726,22896,1668680516,935530213,,-0.0987989074111879,-0.6160097983389773,0.07088206676756538,0.995561203269408,0.09352317176330736,-0.004348193548962988,0.009612497124072934
1668680516.9435878,22897,1668680516,943413259,,-0.09880063973372145,-0.6160097983322752,0.07088301998716806,0.995561203244272,0.09352317173574055,-0.0043481928758716286,0.009612500300060908
1668680516.9516892,22898,1668680516,951599180,,-0.09880572537840633,-0.616009798299543,0.0708858024511654,0.9955612032209252,0.09352317170756368,-0.004348192131786713,0.009612503328812316
1668680516.9599085,22899,1668680516,959733677,,-0.09881481393355826,-0.6160097981906228,0.07089076850595309,0.9955612031993499,0.09352317167878477,-0.0043481913176027735,0.009612506211631493
1668680516.967846,22900,1668680516,967744202,,-0.0988331406564062,-0.6160095904030493,0.07090628286233593,0.9955612031795058,0.09352317164940938,-0.0043481904351553935,0.009612508951862261
1668680516.975813,22901,1668680516,975674329,,-0.09886704141717922,-0.6160088723602515,0.07094377958458781,0.9955612031612878,0.0935231716194367,-0.00434818948879132,0.009612511558375919
1668680516.9836488,22902,1668680516,983477855,,-0.09891863796927147,-0.6160073401510636,0.07100811563099756,0.9955612031445509,0.0935231715888618,-0.004348188484435127,0.00961251404360355
1668680516.991801,22903,1668680516,991655746,,-0.09898739206595168,-0.6160048259185764,0.07109945612310374,0.9955612031291631,0.09352317155768056,-0.0043481874274582145,0.009612516418794069
1668680516.9996092,22904,1668680516,999456301,,-0.09907141614669547,-0.616001669035599,0.07121597539398342,0.9955612031150489,0.0935231715258945,-0.004348186321026972,0.00961251869034582
1668680517.0077975,22905,1668680517,7629962,,-0.0991687324701857,-0.6159983208281743,0.07135620035028443,0.9955612031021809,0.09352317149351029,-0.004348185166396542,0.009612520860438772
1668680517.0158129,22906,1668680517,15579801,,-0.09927621021270477,-0.6159950121053935,0.07151732790753332,0.9955612030905934,0.0935231714605404,-0.004348183962412908,0.00961252292593437
1668680517.0240335,22907,1668680517,23807825,,-0.09939115546184037,-0.6159918196144076,0.07169647687332648,0.9955612030803791,0.09352317142700384,-0.004348182705621366,0.009612524878613853
1668680517.031758,22908,1668680517,31632250,,-0.09951072783508177,-0.6159887799250594,0.07189044935783144,0.9955612030716111,0.0935231713929171,-0.0043481813933392765,0.009612526711949993
1668680517.039903,22909,1668680517,39733997,,-0.0996312318480909,-0.6159859485112089,0.07209551903315646,0.9955612030644665,0.09352317135830844,-0.00434818001879907,0.009612528410398459
1668680517.047752,22910,1668680517,47621066,,-0.09974883741835135,-0.6159833485155272,0.07230776903240994,0.9955612030590971,0.09352317132320337,-0.004348178576227409,0.009612529960592997
1668680517.0554855,22911,1668680517,55313828,,-0.09985979809626551,-0.6159809870684798,0.07252333265699742,0.9955612030556829,0.09352317128763024,-0.0043481770587495,0.009612531346726438
1668680517.063763,22912,1668680517,63608931,,-0.09996312479159096,-0.6159788573149301,0.07274052603893157,0.9955612030542565,0.09352317125160288,-0.004348175465279356,0.009612532565759958
1668680517.0721612,22913,1668680517,71934243,,-0.1000584570550419,-0.6159769488318922,0.07295786959159234,0.9955612030547817,0.09352317121512749,-0.004348173797462065,0.009612533620686496
1668680517.0796962,22914,1668680517,79535366,,-0.10014507681793537,-0.6159752541995939,0.07317288941233986,0.9955612030572492,0.09352317117821349,-0.004348172055845005,0.00961253451208038
1668680517.0879138,22915,1668680517,87641345,,-0.10022288720168492,-0.6159737635549252,0.07338364629901757,0.9955612030616187,0.09352317114086661,-0.004348170242224414,0.009612535243280224
1668680517.0954473,22916,1668680517,95345943,,-0.10029210571886363,-0.615972465531882,0.07358892023388734,0.9955612030678372,0.09352317110309141,-0.00434816835886866,0.009612535818675019
1668680517.1045966,22917,1668680517,104138087,,-0.10035316228004162,-0.6159713480270631,0.07378818613283529,0.9955612030758489,0.09352317106489201,-0.004348166408175682,0.009612536242948546
1668680517.1116254,22918,1668680517,111491170,,-0.10040652179920652,-0.6159703989369222,0.07398120204086454,0.9955612030855995,0.09352317102627292,-0.004348164392468396,0.009612536520628023
1668680517.1196616,22919,1668680517,119549193,,-0.10045259618477925,-0.6159696071196415,0.07416758611752043,0.9955612030970412,0.09352317098723877,-0.004348162313805565,0.009612536655664488
1668680517.1275656,22920,1668680517,127463749,,-0.10049182199922983,-0.6159689616934252,0.07434712591587496,0.9955612031101297,0.09352317094779498,-0.004348160174113019,0.009612536651723404
1668680517.1357887,22921,1668680517,135644717,,-0.1005246374935341,-0.6159684522361263,0.07451970603213365,0.9955612031248247,0.09352317090794718,-0.004348157975166193,0.009612536512145197
1668680517.1433253,22922,1668680517,143229670,,-0.10055147090783373,-0.6159680687665434,0.07468533068022128,0.9955612031410893,0.09352317086770148,-0.004348155718592158,0.009612536239949804
1668680517.1518486,22923,1668680517,151704202,,-0.10057273724989806,-0.6159678017870953,0.07484412200668523,0.99556120315889,0.09352317082706385,-0.0043481534058810375,0.009612535837860942
1668680517.1597612,22924,1668680517,159623596,,-0.10058883190004697,-0.6159676422912522,0.07499623655427279,0.9955612031781964,0.09352317078604129,-0.004348151038399789,0.009612535308337096
1668680517.1676197,22925,1668680517,167527680,,-0.10060012790789362,-0.6159675818393209,0.07514179450801972,0.9955612031989812,0.0935231707446405,-0.004348148617404972,0.009612534653599314
1668680517.1758788,22926,1668680517,175663825,,-0.10060698007817948,-0.6159676124379739,0.07528101566410167,0.9955612032212189,0.09352317070286861,-0.0043481461440593875,0.009612533875667057
1668680517.1834068,22927,1668680517,183291395,,-0.10060972486129686,-0.6159677264822134,0.07541436220707931,0.9955612032448864,0.09352317066073329,-0.004348143619443874,0.009612532976385278
1668680517.1916893,22928,1668680517,191577991,,-0.10060868091166404,-0.6159679167992931,0.07554224546198542,0.9955612032699621,0.09352317061824193,-0.004348141044568659,0.009612531957448961
1668680517.1995811,22929,1668680517,199489979,,-0.10060414939146863,-0.6159681767574474,0.07566495604742239,0.9955612032964261,0.09352317057540206,-0.0043481384203837405,0.009612530820425645
1668680517.2079132,22930,1668680517,207772081,,-0.1005964144114516,-0.6159685000286361,0.07578310053510345,0.9955612033242597,0.09352317053222163,-0.0043481357477874,0.009612529566774676
1668680517.2154875,22931,1668680517,215356708,,-0.10058574408075625,-0.6159688806352244,0.07589730935903201,0.9955612033534449,0.09352317048870842,-0.004348133027634351,0.009612528197865188
1668680517.2238443,22932,1668680517,223696544,,-0.10057239127031588,-0.6159693131176397,0.07600784217219707,0.9955612033839653,0.09352317044487028,-0.0043481302607426804,0.009612526714990566
1668680517.2320883,22933,1668680517,231873565,,-0.10055659421579406,-0.6159697924310091,0.07611483332839171,0.9955612034158046,0.09352317040071557,-0.004348127447899693,0.009612525119382652
1668680517.2397172,22934,1668680517,239567536,,-0.10053857713740867,-0.6159703138475945,0.07621834057807708,0.9955612034489472,0.09352317035625222,-0.004348124589867072,0.009612523412221938
1668680517.248414,22935,1668680517,248122660,,-0.10051855095701981,-0.6159708729861324,0.07631832344713238,0.9955612034833783,0.09352317031148807,-0.004348121687385868,0.00961252159464937
1668680517.2555811,22936,1668680517,255458198,,-0.1004967138957655,-0.6159714657145214,0.07641481938407546,0.9955612035190832,0.09352317026643149,-0.004348118741179909,0.009612519667773382
1668680517.2637944,22937,1668680517,263644336,,-0.10047325208759658,-0.6159720881487752,0.07650790837263875,0.9955612035560476,0.09352317022109043,-0.004348115751959438,0.009612517632678145
1668680517.2717743,22938,1668680517,271592817,,-0.10044834016752803,-0.6159727366587344,0.07659765836723038,0.9955612035942574,0.09352317017547322,-0.004348112720423917,0.00961251549042981
1668680517.2802913,22939,1668680517,279973842,,-0.10042214183372761,-0.6159734078580805,0.07668412914948164,0.9955612036336984,0.09352317012958802,-0.004348109647264559,0.009612513242082031
1668680517.2887042,22940,1668680517,288526023,,-0.10039481039184851,-0.6159740985921258,0.07676733598318397,0.9955612036743571,0.09352317008344266,-0.004348106533166013,0.00961251088867961
1668680517.2966716,22941,1668680517,296508067,,-0.10036648927495771,-0.6159748059309451,0.07684727494321326,0.9955612037162196,0.09352317003704536,-0.004348103378808735,0.00961250843126368
1668680517.3038175,22942,1668680517,303631269,,-0.10033731252655771,-0.6159755271180253,0.07692406902276532,0.9955612037592719,0.09352316999040433,-0.004348100184869936,0.009612505870874121
1668680517.3120515,22943,1668680517,311898762,,-0.10030740528146007,-0.6159762595717382,0.07699787150904813,0.9955612038035007,0.09352316994352722,-0.004348096952024887,0.009612503208552288
1668680517.319663,22944,1668680517,319570296,,-0.10027688422397188,-0.6159770008803042,0.07706901608026867,0.9955612038488919,0.09352316989642248,-0.004348093680947948,0.0096125004453429
1668680517.3276944,22945,1668680517,327592832,,-0.10024585801444592,-0.615977748762006,0.07713794387056752,0.9955612038954318,0.09352316984909763,-0.004348090372313257,0.009612497582296205
1668680517.3353803,22946,1668680517,335264854,,-0.10021442773267661,-0.615978501126643,0.07720513106658933,0.9955612039431062,0.09352316980156106,-0.004348087026795671,0.009612494620469304
1668680517.3439286,22947,1668680517,343785962,,-0.1001826872712159,-0.6159792560466122,0.07727089109234059,0.9955612039919016,0.09352316975382025,-0.004348083645070251,0.009612491560926147
1668680517.3517046,22948,1668680517,351576267,,-0.10015090247878972,-0.6159800117755181,0.0773357161419848,0.9955612040418051,0.09352316970588335,-0.004348080227753229,0.009612488404608252
1668680517.3597229,22949,1668680517,359568885,,-0.10011941292376855,-0.6159807666221035,0.07740033071425058,0.9955612040928065,0.09352316965775859,-0.004348076775374449,0.009612485152277283
1668680517.367669,22950,1668680517,367541824,,-0.10008838364454245,-0.6159815190818426,0.07746526352017466,0.9955612041448929,0.09352316960945353,-0.004348073288559648,0.009612481804907709
1668680517.376003,22951,1668680517,375832154,,-0.10005788787009626,-0.6159822677699183,0.07753092736080147,0.9955612041980497,0.09352316956097628,-0.0043480697679917244,0.00961247836360376
1668680517.3836935,22952,1668680517,383497439,,-0.10002796110586931,-0.6159830114499785,0.0775976491615936,0.9955612042522622,0.09352316951233437,-0.004348066214372536,0.009612474829516887
1668680517.392108,22953,1668680517,391865143,,-0.09999861812613346,-0.6159837490050843,0.07766553210318372,0.9955612043075152,0.09352316946353499,-0.0043480626284164,0.009612471203830842
1668680517.3998697,22954,1668680517,399733986,,-0.09996971877210205,-0.6159844794238092,0.0777348938143782,0.9955612043637919,0.09352316941458574,-0.004348059010885085,0.009612467487837
1668680517.407916,22955,1668680517,407751209,,-0.09994105267734464,-0.6159852016659724,0.0778063114177191,0.9955612044210744,0.09352316936549393,-0.004348055362605703,0.00961246368297308
1668680517.4154212,22956,1668680517,415309951,,-0.09991253505733198,-0.615985914912155,0.07787980117913909,0.9955612044793464,0.09352316931626645,-0.004348051684335513,0.009612459790531139
1668680517.4237077,22957,1668680517,423549830,,-0.09988416793006222,-0.6159866185123141,0.07795508649003904,0.995561204538592,0.0935231692669112,-0.004348047976789423,0.009612455811718042
1668680517.4319103,22958,1668680517,431740496,,-0.09985597292571109,-0.6159873120172125,0.0780311256108082,0.9955612045987964,0.0935231692174351,-0.004348044240660682,0.009612451747699485
1668680517.439808,22959,1668680517,439705602,,-0.09982795778158898,-0.6159879951977942,0.07810656009518895,0.9955612046599442,0.09352316916784581,-0.004348040476652779,0.009612447599669265
1668680517.44778,22960,1668680517,447585724,,-0.09980014544135188,-0.615988667787586,0.07818010487989072,0.9955612047220207,0.0935231691181504,-0.004348036685459451,0.009612443368805287
1668680517.4553943,22961,1668680517,455205935,,-0.09977256521425291,-0.6159893295846552,0.07825056156210357,0.9955612047850105,0.09352316906835599,-0.004348032867769284,0.009612439056280437
1668680517.4636528,22962,1668680517,463497934,,-0.09974524985754817,-0.6159899802080425,0.07831761905285556,0.995561204848899,0.09352316901846999,-0.0043480290242675365,0.009612434663265777
1668680517.4719088,22963,1668680517,471745215,,-0.09971823055728463,-0.6159906192445689,0.07838104122122112,0.9955612049136707,0.09352316896849941,-0.004348025155637572,0.009612430190934464
1668680517.4798293,22964,1668680517,479651093,,-0.09969153454730707,-0.6159912464178143,0.07844028445257793,0.9955612049793109,0.09352316891845147,-0.004348021262563445,0.009612425640466245
1668680517.4878535,22965,1668680517,487663875,,-0.0996651867427717,-0.615991860705943,0.0784950524386483,0.9955612050458046,0.09352316886833292,-0.0043480173457275005,0.009612421013043057
1668680517.4960163,22966,1668680517,495866062,,-0.0996392077170329,-0.6159924589288356,0.07854532169689525,0.9955612051131365,0.09352316881815091,-0.004348013405812001,0.00961241630985241
1668680517.5034769,22967,1668680517,503367883,,-0.09961361292128285,-0.6159930352255355,0.07859123946949964,0.9955612051812915,0.09352316876791233,-0.004348009443498728,0.009612411532086217
1668680517.5117464,22968,1668680517,511603067,,-0.0995884129707047,-0.6159935812952799,0.07863304267248786,0.9955612052502545,0.09352316871762435,-0.004348005459468871,0.009612406680940636
1668680517.5199869,22969,1668680517,519818324,,-0.0995636138160148,-0.6159940866249454,0.07867096532133876,0.9955612053200102,0.09352316866729347,-0.0043480014544028155,0.009612401757615557
1668680517.5281963,22970,1668680517,527700969,,-0.09953921699536522,-0.6159945386810951,0.07870531603347432,0.9955612053905436,0.0935231686169265,-0.0043479974289801805,0.009612396763314901
1668680517.535622,22971,1668680517,535437966,,-0.09951522006998734,-0.6159949230906397,0.07873643991148865,0.9955612054618392,0.09352316856653047,-0.004347993383878914,0.009612391699244481
1668680517.5443025,22972,1668680517,544204387,,-0.09949161693624442,-0.615995223834362,0.07876457571202004,0.9955612055338818,0.09352316851611181,-0.0043479893197755455,0.009612386566612601
1668680517.5523863,22973,1668680517,552242897,,-0.09946839809512756,-0.6159954233995681,0.07878994237328243,0.9955612056066563,0.09352316846567715,-0.0043479852373448724,0.009612381366628923
1668680517.560246,22974,1668680517,560035500,,-0.09944555092096259,-0.6159955029239533,0.07881278501547567,0.9955612056801473,0.09352316841523281,-0.00434798113725956,0.009612376100503871
1668680517.5687032,22975,1668680517,568497263,,-0.0994230599488455,-0.6159954423447905,0.07883331614231619,0.9955612057543396,0.09352316836478568,-0.0043479770201898145,0.00961237076944908
1668680517.5767539,22976,1668680517,576589034,,-0.09940090712628208,-0.615995220534361,0.07885167844573247,0.995561205829218,0.09352316831434199,-0.00434797288680359,0.00961236537467551
1668680517.5840354,22977,1668680517,583840518,,-0.0993790720513804,-0.6159948154256087,0.0788679164317937,0.9955612059047674,0.09352316826390843,-0.004347968737766222,0.00961235991739447
1668680517.5917783,22978,1668680517,591666897,,-0.09935753219642086,-0.6159942041245143,0.07888209483984723,0.9955612059809724,0.09352316821349102,-0.004347964573739972,0.00961235439881588
1668680517.5998192,22979,1668680517,599655082,,-0.09933626311774002,-0.6159933630163481,0.07889431084098997,0.9955612060578181,0.09352316816309647,-0.00434796039538421,0.009612348820148959
1668680517.607565,22980,1668680517,607470332,,-0.09931523865683152,-0.6159922678747989,0.07890465199735337,0.9955612061352891,0.09352316811273075,-0.0043479562033552814,0.009612343182601589
1668680517.6156986,22981,1668680517,615563510,,-0.09929443112724447,-0.6159908939553596,0.0789132371992917,0.9955612062133705,0.09352316806239994,-0.004347951998306244,0.009612337487379788
1668680517.6234283,22982,1668680517,623301252,,-0.09927381149078326,-0.6159892160873716,0.07892016773050098,0.9955612062920473,0.09352316801211037,-0.004347947780886592,0.00961233173568743
1668680517.6316721,22983,1668680517,631577923,,-0.09925334952179402,-0.6159872087574083,0.07892554318594949,0.9955612063713044,0.09352316796186831,-0.0043479435517424945,0.009612325928726382
1668680517.6398766,22984,1668680517,639714477,,-0.09923301396085603,-0.6159848461869647,0.07892934596479513,0.995561206451127,0.09352316791167954,-0.004347939311516522,0.00961232006769631
1668680517.647981,22985,1668680517,647835309,,-0.09921277265827508,-0.615982102404097,0.07893149426568624,0.9955612065314999,0.09352316786155013,-0.004347935060847521,0.009612314153793856
1668680517.6558113,22986,1668680517,655639805,,-0.09919259270725941,-0.615978951307366,0.07893206955418398,0.9955612066124085,0.09352316781148572,-0.004347930800370545,0.009612308188212876
1668680517.6636283,22987,1668680517,663503432,,-0.09917244056987586,-0.6159753667302854,0.0789311547963395,0.9955612066938379,0.09352316776149248,-0.004347926530717129,0.009612302172144687
1668680517.6721933,22988,1668680517,672041765,,-0.0991522821936417,-0.6159713224988626,0.07892880567375427,0.9955612067757732,0.09352316771157618,-0.004347922252514514,0.00961229610677676
1668680517.6800232,22989,1668680517,679764804,,-0.09913208311983143,-0.6159667924843298,0.0789251063844368,0.9955612068582002,0.09352316766174268,-0.004347917966386463,0.00961228999329426
1668680517.6875403,22990,1668680517,687447893,,-0.09911180858314045,-0.6159617506490247,0.07891998251864189,0.9955612069411036,0.09352316761199753,-0.004347913672952328,0.009612283832878009
1668680517.6953275,22991,1668680517,695222598,,-0.09909142360450461,-0.615956171089632,0.0789133203503101,0.9955612070244692,0.09352316756234645,-0.004347909372827693,0.009612277626705886
1668680517.7036433,22992,1668680517,703486384,,-0.09907089307940706,-0.6159500280836024,0.0789051727913996,0.9955612071082823,0.09352316751279525,-0.004347905066624172,0.009612271375952369
1668680517.7116396,22993,1668680517,711547580,,-0.09905018185789655,-0.615943296127036,0.07889566232376997,0.9955612071925287,0.09352316746334902,-0.00434790075494881,0.00961226508178745
1668680517.719778,22994,1668680517,719596465,,-0.09902925481661687,-0.6159359499640702,0.07888483919901786,0.9955612072771937,0.09352316741401354,-0.0043478964384051355,0.00961225874537832
1668680517.7278244,22995,1668680517,727697694,,-0.09900807692631125,-0.6159279646169139,0.0788727286649504,0.995561207362263,0.09352316736479399,-0.004347892117592143,0.009612252367887557
1668680517.7360456,22996,1668680517,735888058,,-0.09898661331509978,-0.6159193154166339,0.0788593732485775,0.9955612074477223,0.09352316731569618,-0.004347887793104703,0.009612245950474234
1668680517.7433314,22997,1668680517,743225909,,-0.0989648293263449,-0.6159099780305732,0.0788449281610116,0.9955612075335574,0.09352316726672487,-0.004347883465533687,0.009612239494293363
1668680517.7517526,22998,1668680517,751647195,,-0.09894269057163023,-0.6158999284872257,0.07882958700125037,0.995561207619754,0.09352316721788562,-0.004347879135465411,0.009612233000495646
1668680517.7597792,22999,1668680517,759636851,,-0.09892016297459398,-0.6158891431856751,0.078813492660535,0.9955612077062984,0.09352316716918363,-0.004347874803482197,0.00961222647022806
1668680517.7675192,23000,1668680517,767405565,,-0.0988972128173709,-0.6158775989227246,0.07879687631116063,0.9955612077931761,0.09352316712062383,-0.004347870470161945,0.009612219904632742
1668680517.7753758,23001,1668680517,775210842,,-0.09887380677838543,-0.6158652729048023,0.07877996197619513,0.9955612078803734,0.09352316707221153,-0.004347866136078156,0.009612213304848023
1668680517.7837126,23002,1668680517,783592682,,-0.098849911964275,-0.6158521427520425,0.0787628584792808,0.9955612079678763,0.09352316702395173,-0.004347861801800282,0.009612206672007725
1668680517.791956,23003,1668680517,791794803,,-0.0988254959428561,-0.6158381865138625,0.07874565768141725,0.995561208055671,0.09352316697584924,-0.004347857467893336,0.009612200007241311
1668680517.799783,23004,1668680517,799622836,,-0.0988005267739462,-0.6158233826863635,0.0787285107525812,0.9955612081437437,0.09352316692790887,-0.004347853134917729,0.009612193311673413
1668680517.807977,23005,1668680517,807814849,,-0.09877497303270848,-0.6158077102157477,0.0787115487951974,0.9955612082320808,0.09352316688013562,-0.004347848803429927,0.00961218658642467
1668680517.8154678,23006,1668680517,815303940,,-0.09874880382954664,-0.6157911484988556,0.07869480049177117,0.9955612083206686,0.09352316683253416,-0.004347844473981479,0.009612179832610358
1668680517.824001,23007,1668680517,823787800,,-0.09872198883013052,-0.6157736773906649,0.07867825667451542,0.9955612084094934,0.09352316678510943,-0.004347840147119905,0.009612173051341735
1668680517.8319492,23008,1668680517,831780876,,-0.09869449827221571,-0.6157552772087331,0.0786617858280346,0.995561208498542,0.09352316673786576,-0.004347835823388262,0.009612166243724954
1668680517.8397987,23009,1668680517,839666114,,-0.09866630297816174,-0.6157359287310611,0.07864518846965309,0.9955612085878005,0.09352316669080793,-0.004347831503324745,0.009612159410861132
1668680517.8478432,23010,1668680517,847683180,,-0.09863737437302295,-0.61571561321534,0.07862835809443458,0.9955612086772563,0.09352316664394031,-0.0043478271874634175,0.009612152553846533
1668680517.8561616,23011,1668680517,856030441,,-0.09860768449251064,-0.6156943123941292,0.07861123771686379,0.9955612087668955,0.09352316659726756,-0.004347822876333929,0.009612145673773055
1668680517.8634148,23012,1668680517,863299907,,-0.09857720598985709,-0.615672008471554,0.07859373677349327,0.9955612088567051,0.09352316655079417,-0.004347818570460881,0.009612138771726158
1668680517.8717473,23013,1668680517,871590195,,-0.09854591214150643,-0.6156486841209916,0.07857581018407413,0.995561208946672,0.09352316650452408,-0.004347814270364842,0.009612131848787153
1668680517.88002,23014,1668680517,879827491,,-0.0985137768550812,-0.6156243224933536,0.07855748532212113,0.995561209036783,0.09352316645846208,-0.0043478099765614404,0.009612124906031864
1668680517.8883998,23015,1668680517,888256193,,-0.09848077466777504,-0.6155989072016028,0.07853876618830224,0.9955612091270255,0.09352316641261198,-0.0043478056895620175,0.009612117944530985
1668680517.89567,23016,1668680517,895571216,,-0.09844688075156502,-0.615572422328367,0.07851977770480018,0.9955612092173864,0.09352316636697802,-0.004347801409872751,0.00961211096534904
1668680517.9034894,23017,1668680517,903307073,,-0.09841207092029862,-0.6155448524421769,0.07850106112111446,0.995561209307853,0.09352316632156438,-0.00434779713799563,0.009612103969545501
1668680517.9117923,23018,1668680517,911665697,,-0.0983763216214433,-0.6155161825725692,0.07848303552327139,0.9955612093984122,0.09352316627637525,-0.004347792874427863,0.009612096958174395
1668680517.9196856,23019,1668680517,919564618,,-0.09833960991740955,-0.615486398157936,0.07846589546450435,0.9955612094890518,0.09352316623141432,-0.004347788619661778,0.009612089932283767
1668680517.9277995,23020,1668680517,927675913,,-0.09830192930700536,-0.6154554851287567,0.07845060707062783,0.9955612095797592,0.09352316618668573,-0.004347784374180512,0.009612082892906135
1668680517.9355247,23021,1668680517,935358198,,-0.09826328113863096,-0.615423429872304,0.07843826011697812,0.9955612096705222,0.09352316614219301,-0.004347780138455227,0.009612075841053638
1668680517.9438925,23022,1668680517,943726794,,-0.0982236496581432,-0.6153902191203205,0.07842906379092444,0.9955612097613283,0.0935231660979405,-0.0043477759129598205,0.009612068777747463
1668680517.952163,23023,1668680517,951978437,,-0.09818324783403443,-0.6153558400157121,0.07842315136827288,0.9955612098521673,0.09352316605393159,-0.004347771698094829,0.00961206170385836
1668680517.959999,23024,1668680517,959803911,,-0.09814305579456482,-0.61532028022674,0.07842162069544238,0.9955612099430363,0.09352316601017101,-0.004347767493945047,0.009612054619594492
1668680517.9680617,23025,1668680517,967810382,,-0.09810415145139142,-0.6152835278507849,0.07842562938372147,0.9955612100339368,0.09352316596666346,-0.004347763300418464,0.009612047524796838
1668680517.975801,23026,1668680517,975665305,,-0.09806738678982858,-0.6152455712560908,0.07843585666577603,0.9955612101248639,0.09352316592341285,-0.004347759117686303,0.009612040419871673
1668680517.9838219,23027,1668680517,983671579,,-0.09803312326777698,-0.6152063991520151,0.07845239660920905,0.9955612102158087,0.09352316588042306,-0.004347754946058075,0.009612033305527429
1668680517.99159,23028,1668680517,991491402,,-0.0980009194721337,-0.615166000547153,0.07847468734130388,0.9955612103067529,0.09352316583769683,-0.0043477507862460215,0.009612026183320115
1668680517.9997718,23029,1668680517,999655536,,-0.09797030108221644,-0.6151243648706699,0.07850218365913669,0.9955612103976789,0.09352316579523705,-0.004347746638934753,0.009612019054745126
1668680518.0076387,23030,1668680518,7526122,,-0.09794021824602207,-0.6150814819640501,0.07853377312899532,0.9955612104885685,0.09352316575304673,-0.004347742504834593,0.00961201192134288
1668680518.0154877,23031,1668680518,15343294,,-0.0979093785844124,-0.6150373420665934,0.07856810582651698,0.995561210579401,0.09352316571112824,-0.004347738384757393,0.00961200478485569
1668680518.0239575,23032,1668680518,23788328,,-0.09787731297776212,-0.614991935826073,0.07860456359232887,0.9955612106701616,0.09352316566948451,-0.004347734279278948,0.00961199764654705
1668680518.03231,23033,1668680518,32044080,,-0.09784370884327807,-0.6149452542543727,0.07864262078586472,0.9955612107608373,0.09352316562811858,-0.004347730188882581,0.009611990507497377
1668680518.039879,23034,1668680518,39755775,,-0.09780800992534372,-0.6148972887324211,0.07868096116311744,0.9955612108514125,0.09352316558703326,-0.004347726114156763,0.00961198336900921
1668680518.0483875,23035,1668680518,48041633,,-0.09776982493140475,-0.6148480310034717,0.07871821914886257,0.9955612109418723,0.0935231655462312,-0.004347722055681241,0.009611976232374909
1668680518.055531,23036,1668680518,55420596,,-0.09772898854552078,-0.6147974730827349,0.07875352673361524,0.9955612110322025,0.09352316550571531,-0.004347718013977902,0.009611969098775024
1668680518.0639443,23037,1668680518,63774962,,-0.09768549265223592,-0.6147456072710485,0.07878652694929728,0.9955612111223905,0.09352316546548804,-0.0043477139895188276,0.009611961969291757
1668680518.0717726,23038,1668680518,71656994,,-0.09763936731571334,-0.6146924261371263,0.07881725545339771,0.9955612112124244,0.09352316542555215,-0.0043477099827406735,0.009611954844936422
1668680518.0798726,23039,1668680518,79680164,,-0.09759062132552145,-0.614637922552615,0.07884570635937997,0.995561211302292,0.09352316538591027,-0.004347705994088922,0.009611947726741702
1668680518.0876515,23040,1668680518,87552253,,-0.09753929350027017,-0.6145820896743114,0.07887228466626023,0.9955612113919817,0.09352316534656492,-0.0043477020239857745,0.009611940615694554
1668680518.0958679,23041,1668680518,95718520,,-0.09748543676393602,-0.6145249209396703,0.0788975819312079,0.9955612114814821,0.09352316530751896,-0.004347698072835885,0.00961193351274759
1668680518.1041365,23042,1668680518,103961278,,-0.0974291098069581,-0.614466410084499,0.07892202233395978,0.9955612115707826,0.09352316526877473,-0.004347694141029113,0.009611926418824954
1668680518.1119573,23043,1668680518,111764528,,-0.09737037438807619,-0.6144065511231575,0.07894582655094366,0.9955612116598725,0.09352316523033447,-0.004347690228942267,0.009611919334826021
1668680518.1201668,23044,1668680518,120006273,,-0.09730929054951169,-0.6143453383332249,0.0789695155831745,0.9955612117487416,0.09352316519220105,-0.004347686336941104,0.009611912261629333
1668680518.1279845,23045,1668680518,127850841,,-0.09724591429353281,-0.6142827662348251,0.07899384323778333,0.9955612118373796,0.09352316515437648,-0.0043476824653836755,0.009611905200099632
1668680518.1354156,23046,1668680518,135307240,,-0.09718029985844409,-0.6142188296064656,0.07901914623325755,0.9955612119257766,0.09352316511686326,-0.004347678614618583,0.009611898151084984
1668680518.1439288,23047,1668680518,143749653,,-0.09711249943598066,-0.6141535234711398,0.07904545899134778,0.995561212013923,0.09352316507966377,-0.004347674784985891,0.00961189111541774
1668680518.1517146,23048,1668680518,151579638,,-0.09704256257508691,-0.6140868430827786,0.07907291333473593,0.9955612121018091,0.0935231650427801,-0.004347670976817803,0.009611884093916504
1668680518.1597905,23049,1668680518,159609065,,-0.09697053594533468,-0.614018783910298,0.07910176786781138,0.9955612121894256,0.09352316500621456,-0.00434766719043956,0.009611877087387609
1668680518.167946,23050,1668680518,167838483,,-0.09689646378495566,-0.6139493416492605,0.07913191903754704,0.9955612122767632,0.09352316496996926,-0.0043476634261691805,0.009611870096625567
1668680518.1755822,23051,1668680518,175426563,,-0.09682038792478023,-0.613878512214871,0.07916308945301903,0.9955612123638127,0.09352316493404633,-0.0043476596843181085,0.00961186312241268
1668680518.1837518,23052,1668680518,183630507,,-0.09674234786894872,-0.6138062917230229,0.07919509708787346,0.9955612124505652,0.09352316489844768,-0.004347655965191256,0.009611856165521078
1668680518.191886,23053,1668680518,191772035,,-0.09666238085074372,-0.6137326764826664,0.07922786538566122,0.9955612125370119,0.09352316486317529,-0.004347652269087363,0.00961184922671239
1668680518.1997447,23054,1668680518,199606023,,-0.09658052191677262,-0.6136576630003029,0.07926102302381724,0.995561212623144,0.09352316482823128,-0.004347648596299451,0.00961184230673824
1668680518.2076983,23055,1668680518,207597933,,-0.09649680405879799,-0.6135812479807763,0.07929401625533399,0.995561212708953,0.09352316479361736,-0.004347644947114453,0.009611835406341017
1668680518.215466,23056,1668680518,215266344,,-0.09641125829503852,-0.61350342828765,0.07932674727004065,0.9955612127944303,0.09352316475933538,-0.004347641321813963,0.009611828526253589
1668680518.2240746,23057,1668680518,223902505,,-0.09632391376673959,-0.6134242009447124,0.07935928477204955,0.9955612128795678,0.0935231647253871,-0.004347637720673877,0.009611821667200428
1668680518.2316515,23058,1668680518,231551996,,-0.09623479782933649,-0.6133435631387938,0.07939204958062314,0.9955612129643568,0.09352316469177417,-0.004347634143965012,0.009611814829896885
1668680518.2400608,23059,1668680518,239877126,,-0.09614393613549653,-0.6132615122036874,0.07942567743673978,0.9955612130487894,0.09352316465849807,-0.004347630591952894,0.00961180801505037
1668680518.2477357,23060,1668680518,247622445,,-0.09605138015810318,-0.6131780456417325,0.07946075590963302,0.9955612131328582,0.09352316462556093,-0.004347627064879213,0.009611801223318957
1668680518.2560372,23061,1668680518,255778877,,-0.09595719218745566,-0.6130931611060713,0.07949782507468091,0.9955612132165563,0.09352316459296386,-0.004347623562952107,0.009611794455291152
1668680518.2639694,23062,1668680518,263757321,,-0.09586140236800067,-0.6130068564075964,0.07953690497477954,0.9955612132998762,0.09352316456070871,-0.004347620086405206,0.009611787711613537
1668680518.2718446,23063,1668680518,271739168,,-0.09576403081215872,-0.6129191295027954,0.07957799767263024,0.9955612133828105,0.09352316452879672,-0.004347616635483752,0.009611780992960502
1668680518.2795482,23064,1668680518,279459086,,-0.09566507316396017,-0.6128299784655773,0.07962133234012429,0.995561213465351,0.09352316449722926,-0.0043476132104404664,0.009611774300024977
1668680518.2879045,23065,1668680518,287686275,,-0.09556450659259624,-0.6127394014989229,0.07966699991156125,0.9955612135474889,0.09352316446600745,-0.0043476098115585345,0.00961176763356965
1668680518.2956376,23066,1668680518,295512394,,-0.09546241723966992,-0.6126473969645616,0.07971498833476698,0.9955612136292181,0.0935231644351328,-0.004347606439025441,0.009611760994151364
1668680518.3039773,23067,1668680518,303713477,,-0.09535898253334352,-0.6125539633845499,0.07976520451990493,0.9955612137105361,0.09352316440460698,-0.004347603092878408,0.009611754382003056
1668680518.312048,23068,1668680518,311805779,,-0.09525428149316635,-0.6124590993940474,0.07981741829488047,0.9955612137914384,0.09352316437443127,-0.004347599773223647,0.009611747797509734
1668680518.3199341,23069,1668680518,319684769,,-0.09514834617358489,-0.6123628037231499,0.0798713925373144,0.9955612138719181,0.09352316434460672,-0.0043475964802667895,0.00961174124127575
1668680518.327648,23070,1668680518,327519854,,-0.09504126943315191,-0.612265075241735,0.07992675319790948,0.995561213951971,0.09352316431513458,-0.004347593214124286,0.009611734713713191
1668680518.3356254,23071,1668680518,335419745,,-0.09493312400267918,-0.6121659129417258,0.07998304892824179,0.995561214031592,0.09352316428601629,-0.0043475899749092035,0.009611728215230157
1668680518.344016,23072,1668680518,343806417,,-0.094823912057872,-0.6120653158811651,0.08004001437576246,0.9955612141107751,0.09352316425725253,-0.004347586762812632,0.009611721746406413
1668680518.3516822,23073,1668680518,351565829,,-0.09471359222587505,-0.6119632831928508,0.08009745604443608,0.9955612141895118,0.0935231642288443,-0.004347583578083849,0.009611715307951163
1668680518.3597565,23074,1668680518,359564173,,-0.09460221333434898,-0.6118598141161127,0.08015530415977681,0.9955612142677963,0.09352316420079203,-0.00434758042090091,0.009611708900419997
1668680518.3679802,23075,1668680518,367851833,,-0.09448987435293799,-0.6117549079965026,0.08021357974224391,0.9955612143456254,0.09352316417309739,-0.004347577291314872,0.009611702524095586
1668680518.3756113,23076,1668680518,375460308,,-0.09437666577789934,-0.61164856425686,0.08027238839621417,0.995561214422995,0.09352316414576081,-0.004347574189416386,0.009611696179348444
1668680518.3839219,23077,1668680518,383682417,,-0.09426262352628088,-0.6115407823998465,0.08033176844600198,0.9955612144999008,0.09352316411878342,-0.004347571115303151,0.009611689866566736
1668680518.3917232,23078,1668680518,391571889,,-0.09414795867404037,-0.6114316346592658,0.08039196675291133,0.99556121457634,0.09352316409216589,-0.004347568069019498,0.009611683586024449
1668680518.3999953,23079,1668680518,399819646,,-0.09403300460939958,-0.611321225359707,0.08045342583007284,0.9955612146523172,0.0935231640659096,-0.004347565050308763,0.009611677337342087
1668680518.408055,23080,1668680518,407915146,,-0.09391810324818894,-0.6112096905127671,0.08051612368244353,0.9955612147278342,0.09352316404001616,-0.004347562059024877,0.009611671120383107
1668680518.4154456,23081,1668680518,415253722,,-0.09380358633913422,-0.6110971753681373,0.08057981184874541,0.9955612148028953,0.09352316401448643,-0.004347559094925703,0.00961166493480413
1668680518.42382,23082,1668680518,423642132,,-0.09368945095822878,-0.6109836999077598,0.08064427744219498,0.9955612148774956,0.09352316398932113,-0.004347556158132554,0.00961165878105664
1668680518.4318123,23083,1668680518,431704630,,-0.09357559424837608,-0.6108692056211057,0.08070925062443826,0.9955612149516256,0.09352316396452025,-0.004347553248943696,0.009611652659979188
1668680518.4395695,23084,1668680518,439448952,,-0.09346174062366029,-0.6107535489678039,0.0807741341141795,0.995561215025275,0.09352316394008346,-0.004347550367703225,0.009611646572512487
1668680518.447668,23085,1668680518,447525170,,-0.09334747511718368,-0.6106365682203058,0.08083827518329756,0.9955612150984259,0.09352316391601022,-0.004347547515029626,0.009611640520196547
1668680518.456074,23086,1668680518,455877881,,-0.09323205533168598,-0.6105184138084513,0.0809010244236977,0.995561215171054,0.09352316389229899,-0.00434754469181501,0.009611634505171015
1668680518.4634514,23087,1668680518,463249381,,-0.0931145996271008,-0.6103992556942576,0.08096186322738581,0.9955612152431214,0.09352316386894714,-0.004347541899501017,0.009611628530774978
1668680518.4716454,23088,1668680518,471511842,,-0.09299483234603675,-0.6102790390285426,0.08102071512459898,0.9955612153146103,0.09352316384595366,-0.004347539138696568,0.009611622598535577
1668680518.4799886,23089,1668680518,479817971,,-0.09287263801903956,-0.610157719258544,0.08107756433082924,0.9955612153855129,0.09352316382331874,-0.004347536409638094,0.009611616709169008
1668680518.4877882,23090,1668680518,487606063,,-0.09274794888142739,-0.610035347530632,0.08113249356616543,0.9955612154558184,0.09352316380104161,-0.004347533712679034,0.009611610863649946
1668680518.4957888,23091,1668680518,495683399,,-0.09262087811001382,-0.6099120270633845,0.08118568900755442,0.9955612155255232,0.09352316377912247,-0.004347531047881942,0.009611605062318377
1668680518.5035486,23092,1668680518,503401015,,-0.09249153238266998,-0.6097878809331195,0.08123732085204867,0.9955612155946235,0.0935231637575614,-0.004347528415313308,0.009611599305525569
1668680518.5117853,23093,1668680518,511656155,,-0.09235999212611806,-0.6096629727982255,0.0812874994345715,0.9955612156631157,0.0935231637363581,-0.004347525815042276,0.009611593593629023
1668680518.5198307,23094,1668680518,519699039,,-0.09222614477663776,-0.6095375113252443,0.08133626046117115,0.9955612157309902,0.09352316371551246,-0.0043475232473649435,0.00961158792748481
1668680518.5280192,23095,1668680518,527862584,,-0.09208980860419373,-0.6094118322469105,0.08138364997349014,0.9955612157982285,0.09352316369502288,-0.0043475207129355115,0.009611582308733447
1668680518.5355422,23096,1668680518,535327042,,-0.0919511663589099,-0.609285883627805,0.08142959153172562,0.9955612158648278,0.09352316367488935,-0.004347518211786793,0.00961157673765826
1668680518.543884,23097,1668680518,543742665,,-0.09181046758755881,-0.6091594702817512,0.08147400725342409,0.9955612159307978,0.09352316365511264,-0.004347515743442471,0.009611571213429225
1668680518.5517945,23098,1668680518,551669501,,-0.09166761051195221,-0.6090323808479079,0.08151668975989289,0.9955612159961339,0.09352316363569234,-0.004347513308020981,0.009611565736518668
1668680518.5598986,23099,1668680518,559700522,,-0.09152243122021066,-0.6089043575138138,0.08155732453395668,0.9955612160608269,0.09352316361662785,-0.004347510905791547,0.009611560307731911
1668680518.5678618,23100,1668680518,567696504,,-0.09137487771101653,-0.6087753951802016,0.08159569653601116,0.99556121612487,0.09352316359791848,-0.004347508536941825,0.009611554927695868
1668680518.575788,23101,1668680518,575623137,,-0.09122495532089579,-0.6086456122768906,0.08163164935779436,0.9955612161882563,0.0935231635795636,-0.004347506201668446,0.00961154959705888
1668680518.5833511,23102,1668680518,583219922,,-0.09107269795125322,-0.6085151024472097,0.08166512304384699,0.9955612162509809,0.09352316356156255,-0.004347503900077563,0.009611544316272777
1668680518.5926661,23103,1668680518,592440987,,-0.09091815852112069,-0.6083838884441487,0.08169615709563499,0.9955612163130404,0.09352316354391497,-0.004347501632223228,0.009611539085675117
1668680518.6001632,23104,1668680518,600046746,,-0.09076139233132344,-0.6082520314427362,0.08172478913946474,0.9955612163744327,0.09352316352662017,-0.004347499398108753,0.009611533905494836
1668680518.6086192,23105,1668680518,608410082,,-0.09060244880491145,-0.608119663036071,0.08175100896358192,0.995561216435153,0.09352316350967776,-0.004347497197834842,0.009611528776174239
1668680518.6160192,23106,1668680518,615901229,,-0.09044137887579101,-0.6079868174836051,0.08177472850285701,0.9955612164951989,0.09352316349308701,-0.004347495031419606,0.009611523697975874
1668680518.6247947,23107,1668680518,624640974,,-0.09027823369876832,-0.6078534479268826,0.08179592124985265,0.9955612165545691,0.09352316347684737,-0.004347492898828812,0.009611518671049212
1668680518.6322432,23108,1668680518,632081157,,-0.09011306230902304,-0.6077194825029494,0.0818146209650303,0.9955612166132634,0.09352316346095844,-0.004347490799984081,0.00961151369544654
1668680518.6404397,23109,1668680518,640305875,,-0.08994591050709208,-0.607584870835966,0.08183079802403662,0.9955612166712812,0.09352316344541983,-0.004347488734828533,0.00961150877126943
1668680518.6485548,23110,1668680518,648437689,,-0.08977682207239675,-0.6074495662065995,0.0818446552204001,0.995561216728622,0.09352316343023083,-0.004347486703295613,0.009611503898598411
1668680518.6556523,23111,1668680518,655520345,,-0.0896058385573821,-0.6073135241111788,0.08185650328473756,0.9955612167852853,0.0935231634153908,-0.0043474847053230296,0.009611499077524985
1668680518.6638703,23112,1668680518,663645599,,-0.0894329992991893,-0.6071766688389846,0.08186653126347332,0.9955612168412713,0.09352316340089914,-0.004347482740823548,0.009611494308085675
1668680518.6721487,23113,1668680518,671890686,,-0.08925834134603262,-0.6070389313923934,0.08187504201258054,0.9955612168965801,0.09352316338675497,-0.00434748080970142,0.009611489590300556
1668680518.6798637,23114,1668680518,679703230,,-0.08908189948679879,-0.6069001403334865,0.08188253150622224,0.995561216951213,0.09352316337295781,-0.0043474789118191,0.009611484924097996
1668680518.687958,23115,1668680518,687808689,,-0.08890370644483454,-0.6067600616984864,0.08188939285738073,0.995561217005174,0.09352316335950728,-0.0043474770469456225,0.009611480309201333
1668680518.695424,23116,1668680518,695295416,,-0.08872379292632983,-0.6066185227245668,0.08189565334973559,0.9955612170584652,0.09352316334640272,-0.004347475214903166,0.009611475745452423
1668680518.703641,23117,1668680518,703546479,,-0.08854218772008937,-0.6064754211200682,0.08190122610315154,0.9955612171110884,0.09352316333364342,-0.0043474734155445095,0.009611471232760812
1668680518.7116804,23118,1668680518,711542895,,-0.08835891779121731,-0.6063306381599658,0.08190599691919048,0.9955612171630444,0.09352316332122837,-0.004347471648745572,0.009611466771088357
1668680518.720025,23119,1668680518,719846191,,-0.08817400837385991,-0.6061840185392913,0.08190977867304833,0.995561217214336,0.09352316330915676,-0.004347469914318519,0.009611462360256487
1668680518.7277892,23120,1668680518,727679921,,-0.08798748305627019,-0.6060354857916217,0.08191245410221552,0.9955612172649642,0.09352316329742771,-0.00434746821213725,0.009611458000224114
1668680518.7353892,23121,1668680518,735265101,,-0.08779936386746473,-0.6058850050093887,0.08191394564837284,0.995561217314929,0.09352316328604007,-0.004347466542108536,0.009611453691022514
1668680518.7439187,23122,1668680518,743778877,,-0.08760967136525485,-0.6057325688879874,0.08191428860663341,0.9955612173642303,0.093523163274993,-0.004347464904158702,0.009611449432726762
1668680518.7518082,23123,1668680518,751668432,,-0.08741842471863838,-0.6055781582648984,0.08191366551398455,0.9955612174128678,0.09352316326428518,-0.004347463298213305,0.0096114452254113
1668680518.7600288,23124,1668680518,759798132,,-0.08722564176866494,-0.6054219817007696,0.0819124195278491,0.9955612174608386,0.09352316325391519,-0.0043474617243017604,0.009611441069378982
1668680518.7678277,23125,1668680518,767701293,,-0.08703133908316535,-0.6052643774064898,0.08191086703490762,0.9955612175081346,0.09352316324388123,-0.0043474601826511555,0.009611436965369001
1668680518.7756944,23126,1668680518,775558094,,-0.08683553209003071,-0.6051053480266712,0.08190943061012046,0.995561217554754,0.09352316323418194,-0.0043474586732506395,0.00961143291359621
1668680518.7837455,23127,1668680518,783569329,,-0.08663823514402201,-0.6049447408567972,0.08190875105805705,0.9955612176007,0.09352316322481607,-0.004347457195895204,0.00961142891384927
1668680518.7919505,23128,1668680518,791815353,,-0.08643946152479443,-0.6047824999308782,0.08190911331367055,0.9955612176459734,0.09352316321578262,-0.004347455750457986,0.009611424966089207
1668680518.7998385,23129,1668680518,799685531,,-0.0862392234996509,-0.6046185918562488,0.08191061593815627,0.9955612176905746,0.0935231632070801,-0.004347454336843038,0.009611421070345365
1668680518.8078449,23130,1668680518,807663250,,-0.08603753240600494,-0.6044530522518601,0.08191344582152699,0.995561217734503,0.09352316319870704,-0.004347452954980487,0.009611417226705155
1668680518.8157973,23131,1668680518,815678452,,-0.08583439868494554,-0.6042859678258031,0.08191764294909193,0.9955612177777566,0.09352316319066165,-0.0043474516048730245,0.009611413435415859
1668680518.8236806,23132,1668680518,823520736,,-0.08562983194638626,-0.6041173984324195,0.08192288237791523,0.995561217820334,0.09352316318294254,-0.004347450286488696,0.009611409696648913
1668680518.8320951,23133,1668680518,831938724,,-0.08542384101948078,-0.603947364900542,0.08192881082517822,0.9955612178622342,0.09352316317554833,-0.004347448999777554,0.009611406010535992
1668680518.8403506,23134,1668680518,840090251,,-0.0852164340212213,-0.6037757601173109,0.08193482672130152,0.9955612179034588,0.09352316316847728,-0.0043474477445908325,0.009611402376991625
1668680518.8481462,23135,1668680518,847898204,,-0.08500761837460268,-0.6036024432168086,0.08194009251892474,0.995561217944011,0.09352316316172819,-0.0043474465207140895,0.009611398795786026
1668680518.8560598,23136,1668680518,855924767,,-0.08479740086631425,-0.6034273172815767,0.08194402617595005,0.9955612179838933,0.09352316315529931,-0.004347445327980314,0.00961139526679348
1668680518.863502,23137,1668680518,863339115,,-0.08458578770045602,-0.6032501026514804,0.08194627956115473,0.99556121802311,0.09352316314918965,-0.004347444166114995,0.009611391789652549
1668680518.8716247,23138,1668680518,871525183,,-0.0843727845413257,-0.6030705929258012,0.08194688277954695,0.9955612180616678,0.09352316314339788,-0.004347443034781219,0.009611388363864172
1668680518.8796792,23139,1668680518,879575654,,-0.08415839649744834,-0.6028887103975953,0.08194591308779893,0.9955612180995677,0.09352316313792217,-0.0043474419338544665,0.009611384989397098
1668680518.8877974,23140,1668680518,887650382,,-0.0839426281961076,-0.6027043774216722,0.08194350906200447,0.9955612181368125,0.09352316313276099,-0.004347440863137494,0.009611381666060695
1668680518.895605,23141,1668680518,895528166,,-0.08372548379166378,-0.6025176444888158,0.08193988711134556,0.9955612181734013,0.09352316312791256,-0.004347439822575353,0.0096113783939773
1668680518.9034457,23142,1668680518,903344244,,-0.08350696699816859,-0.6023287459342909,0.08193529783198127,0.9955612182093309,0.09352316312337453,-0.004347438812218696,0.009611375173503144
1668680518.9118817,23143,1668680518,911743747,,-0.08328708112282106,-0.6021379036093906,0.08192993997319896,0.9955612182445952,0.09352316311914495,-0.004347437832213523,0.009611372005203227
1668680518.919713,23144,1668680518,919596336,,-0.08306582912017148,-0.6019454653968354,0.08192437297397014,0.9955612182791893,0.09352316311522142,-0.004347436882667787,0.009611368889558625
1668680518.9276662,23145,1668680518,927575622,,-0.08284321359233146,-0.6017519209998217,0.08191937095236,0.9955612183131017,0.09352316311160146,-0.004347435963956303,0.00961136582763928
1668680518.9355133,23146,1668680518,935379283,,-0.08261923683716194,-0.6015575538741206,0.08191550714690528,0.9955612183463262,0.09352316310828265,-0.004347435076232684,0.00961136282002581
1668680518.943695,23147,1668680518,943603800,,-0.0823939008666225,-0.6013624556937631,0.08191304877733367,0.99556121837886,0.0935231631052628,-0.004347434219520628,0.009611359867011875
1668680518.9517941,23148,1668680518,951639246,,-0.08216720743111518,-0.6011665470747019,0.08191216339726824,0.9955612184107054,0.09352316310254029,-0.004347433393644251,0.009611356968451692
1668680518.9598587,23149,1668680518,959693025,,-0.08193915804471673,-0.6009697494511334,0.08191314669004572,0.9955612184418653,0.09352316310011308,-0.004347432598420833,0.009611354124183106
1668680518.9678226,23150,1668680518,967593365,,-0.08170975398418862,-0.6007719169004263,0.08191609857252112,0.9955612184723428,0.0935231630979795,-0.004347431833628182,0.00961135133395716
1668680518.9759188,23151,1668680518,975625671,,-0.08147899631995359,-0.6005728747928699,0.08192101835420043,0.9955612185021435,0.09352316309613767,-0.00434743109897733,0.009611348597377663
1668680518.9847674,23152,1668680518,984610933,,-0.08124688591278059,-0.6003725454636964,0.08192779655295936,0.9955612185312702,0.09352316309458587,-0.004347430394263821,0.009611345914233883
1668680518.9919891,23153,1668680518,991845451,,-0.08101342342400267,-0.6001710391906789,0.08193622877467618,0.9955612185597225,0.09352316309332198,-0.004347429719426109,0.009611343284630747
1668680518.999706,23154,1668680518,999555418,,-0.08077860931608266,-0.5999687434357089,0.08194596831092489,0.9955612185874934,0.09352316309234338,-0.004347429074658925,0.009611340709237866
1668680519.007944,23155,1668680519,7837899,,-0.08054244389819949,-0.5997660281955098,0.08195665543569941,0.9955612186145737,0.09352316309164745,-0.004347428460233074,0.009611338188892121
1668680519.0155416,23156,1668680519,15387745,,-0.08030492739165257,-0.5995630978126777,0.08196816113362436,0.9955612186409596,0.09352316309123175,-0.0043474278762208165,0.009611335723991149
1668680519.023946,23157,1668680519,23778492,,-0.08006605992603089,-0.5993599873381787,0.08198044703618974,0.9955612186666501,0.09352316309109414,-0.004347427322581282,0.00961133331468236
1668680519.0316758,23158,1668680519,31538589,,-0.07982584155141367,-0.5991566580249984,0.08199358734683393,0.995561218691648,0.09352316309123232,-0.00434742679912378,0.009611330960782089
1668680519.0399902,23159,1668680519,39849570,,-0.07958427221799018,-0.5989531159945802,0.08200773337090485,0.9955612187159539,0.09352316309164445,-0.004347426305738579,0.009611328662284323
1668680519.048007,23160,1668680519,47825805,,-0.07934135179061513,-0.5987493862927731,0.08202287867785558,0.995561218739569,0.09352316309232832,-0.0043474258422994735,0.009611326419146266
1668680519.0554638,23161,1668680519,55320996,,-0.07909708005334241,-0.5985455010145678,0.08203893944036253,0.9955612187624936,0.09352316309328182,-0.004347425408721875,0.009611324231416498
1668680519.0637317,23162,1668680519,63569254,,-0.07885145674712657,-0.5983413841592959,0.08205582028677308,0.9955612187847304,0.09352316309450233,-0.004347425004813076,0.009611322098903894
1668680519.0720346,23163,1668680519,71864362,,-0.0786044816102457,-0.5981365803680323,0.08207342050810573,0.9955612188062898,0.09352316309598879,-0.004347424630088545,0.009611320020772788
1668680519.0797822,23164,1668680519,79605442,,-0.07835615443983364,-0.5979299839572695,0.08209133242432913,0.9955612188271987,0.0935231630977403,-0.004347424283406911,0.009611317994736896
1668680519.087652,23165,1668680519,87567604,,-0.07810647500861832,-0.5977205447162667,0.08210901643372381,0.9955612188474895,0.09352316309975588,-0.004347423963437855,0.009611316018092704
1668680519.095458,23166,1668680519,95303088,,-0.07785544295732749,-0.5975076379387636,0.08212592765052344,0.9955612188671802,0.09352316310203466,-0.004347423669387428,0.00961131408932274
1668680519.1038766,23167,1668680519,103737098,,-0.07760305784406189,-0.5972910546119751,0.0821417318661934,0.9955612188862811,0.09352316310457438,-0.004347423400770347,0.00961131220759067
