Time,header.seq,header.stamp.secs,header.stamp.nsecs,header.frame_id,twist.linear.x,twist.linear.y,twist.linear.z,twist.angular.x,twist.angular.y,twist.angular.z
1668680516.5923147,22853,1668680516,592165892,,-1.700557497663539e-05,1.5167745862709173e-09,-1.2390867752095997e-10,-2.591717886592063e-06,5.059797437792773e-07,8.13668467836376e-09
1668680516.599678,22854,1668680516,599581909,,-1.5749169829831914e-05,1.488419080270506e-09,-1.2068031140987755e-10,-2.548069036992078e-06,4.863642414759095e-07,7.897032590638395e-09
1668680516.6085851,22855,1668680516,607694970,,-1.4560970892732802e-05,1.4594190534730334e-09,-1.1747768020501395e-10,-2.504440431781779e-06,4.6684215893329506e-07,7.65827167093213e-09
1668680516.61555,22856,1668680516,615372379,,-1.3437932796081239e-05,1.4298769676892428e-09,-1.1430430956243197e-10,-2.4608374947020146e-06,4.4741525323575405e-07,7.420425409657323e-09
1668680516.6240947,22857,1668680516,623875838,,-1.2377122259393322e-05,1.3998888264345713e-09,-1.1116334904627241e-10,-2.4172656031830688e-06,4.280852553621956e-07,7.183516992724769e-09
1668680516.6323717,22858,1668680516,632150519,,-1.1375715020825616e-05,1.3695444496004407e-09,-1.080578036782874e-10,-2.37373008800738e-06,4.088538701673976e-07,6.9475692981996054e-09
1668680516.6398656,22859,1668680516,639721083,,-1.0430992794149498e-05,1.3389278944021547e-09,-1.0499035366696813e-10,-2.330236232999933e-06,3.897227763704714e-07,6.712604907312743e-09
1668680516.647821,22860,1668680516,647661266,,-9.540340257572621e-06,1.3081172442527718e-09,-1.0196348303677797e-10,-2.2867892747421797e-06,3.7069362655479813e-07,6.478646085575422e-09
1668680516.6558802,22861,1668680516,655704725,,-8.701242076992563e-06,1.2771853213706826e-09,-9.89794099732981e-11,-2.243394402250681e-06,3.5176804715030106e-07,6.245714799508109e-09
1668680516.6634471,22862,1668680516,663320633,,-7.911279967463927e-06,1.2461997434103947e-09,-9.604010504746711e-11,-2.2000567567071075e-06,3.3294763844011253e-07,6.013832708476796e-09
1668680516.6720557,22863,1668680516,671847059,,-7.168129795225096e-06,1.2152232796808958e-09,-9.314740740136038e-11,-2.156781431167442e-06,3.1423397455948346e-07,5.783021163329277e-09
1668680516.6798441,22864,1668680516,679689995,,-6.469558723175304e-06,1.1843139079144745e-09,-9.030289226455143e-11,-2.1135734702992805e-06,2.956286035067334e-07,5.55330121638844e-09
1668680516.6878674,22865,1668680516,687595516,,-5.813422401650531e-06,1.1535251701896637e-09,-8.75079716605938e-11,-2.070437870118641e-06,2.7713304714092276e-07,5.324693611065954e-09
1668680516.6955006,22866,1668680516,695384620,,-5.197662206718965e-06,1.1229064206380846e-09,-8.476392218905553e-11,-2.0273795777275295e-06,2.5874880120186156e-07,5.097218780867848e-09
1668680516.7043388,22867,1668680516,704099214,,-4.620302527484714e-06,1.0925029733970479e-09,-8.20718251813607e-11,-1.9844034910759133e-06,2.4047733532284016e-07,4.870896851666255e-09
1668680516.7117193,22868,1668680516,711572307,,-4.0794481041048215e-06,1.0623563502519236e-09,-7.943255968403396e-11,-1.9415144587287563e-06,2.2232009305377242e-07,4.645747636532511e-09
1668680516.7200043,22869,1668680516,719847648,,-3.5732814174344957e-06,1.0325043734422318e-09,-7.684690905702316e-11,-1.8987172796271318e-06,2.0427849187191367e-07,4.421790648025909e-09
1668680516.7280045,22870,1668680516,727870365,,-3.100060131847311e-06,1.0029814717684784e-09,-7.431548122321712e-11,-1.85601670287839e-06,1.8635392322099218e-07,4.199045093106419e-09
1668680516.7357101,22871,1668680516,735543891,,-2.658114591578867e-06,9.738188816496929e-10,-7.183879966748698e-11,-1.8134174275252526e-06,1.6854775252543027e-07,3.9775298629025294e-09
1668680516.743366,22872,1668680516,743172332,,-2.245845371653648e-06,9.45044833543392e-10,-6.941721616626351e-11,-1.7709241023596142e-06,1.5086131923249046e-07,3.757263547095563e-09
1668680516.751644,22873,1668680516,751535975,,-1.8617208836411795e-06,9.166845331430075e-10,-6.705094694522697e-11,-1.7285413257201545e-06,1.3329593683753716e-07,3.5382644340797617e-09
1668680516.7596262,22874,1668680516,759515991,,-1.5042750370325215e-06,8.887605285575275e-10,-6.474013683942595e-11,-1.6862736453018104e-06,1.1585289292833387e-07,3.3205504929725823e-09
1668680516.76769,22875,1668680516,767590037,,-1.1721049557774243e-06,8.61292857589612e-10,-6.248479522182121e-11,-1.6441255579814926e-06,9.853344922060043e-08,3.1041393994292923e-09
1668680516.7759466,22876,1668680516,775786698,,-8.638687511162531e-07,8.342991568809464e-10,-6.028489455376571e-11,-1.60210150963555e-06,8.133884160408242e-08,2.889048510476776e-09
1668680516.7842534,22877,1668680516,783995992,,-5.782833495565831e-07,8.077947358719112e-10,-5.8140286611524484e-11,-1.5602058949777919e-06,6.427028018621648e-08,2.675294879163392e-09
1668680516.7926316,22878,1668680516,792452500,,-3.141223767397289e-07,7.81792782574497e-10,-5.605071103937292e-11,-1.5184430574130532e-06,4.73289493508909e-08,2.462895259228031e-09
1668680516.8008845,22879,1668680516,800630103,,-7.021409667493406e-08,7.563045810279823e-10,-5.401583751333179e-11,-1.4768172888791785e-06,3.05160077982146e-08,2.2518660816509085e-09
1668680516.8076828,22880,1668680516,807509634,,1.5456059425221974e-07,7.313395478114412e-10,-5.203525668838742e-11,-1.4353328297076569e-06,1.3832588607004309e-08,2.0422234825253226e-09
1668680516.8154094,22881,1668680516,815261482,,3.612701183074198e-07,7.069052936502051e-10,-5.0108540374475636e-11,-1.3939938684897444e-06,-2.7202007145877056e-09,1.8339832973202174e-09
1668680516.8238595,22882,1668680516,823728959,,5.509341132821823e-07,6.830079270565948e-10,-4.823519087956918e-11,-1.3528045419507547e-06,-1.9141278158709816e-08,1.627161050764981e-09
1668680516.8316886,22883,1668680516,831573380,,7.245252758348148e-07,6.596518962009831e-10,-4.6414594459387846e-11,-1.3117689348381398e-06,-3.542958715751096e-08,1.421771956514908e-09
1668680516.8398142,22884,1668680516,839611039,,8.829711517752799e-07,6.368404461717e-10,-4.464614964437244e-11,-1.2708910798015292e-06,-5.158409652233837e-08,1.2178309352211176e-09
1668680516.84782,22885,1668680516,847649459,,1.0271558738804077e-06,6.145753830820325e-10,-4.2929203985001484e-11,-1.230174957291053e-06,-6.760380037035992e-08,1.0153525992911288e-09
1668680516.8555758,22886,1668680516,855377447,,1.1579218479911396e-06,5.928572680668713e-10,-4.126303012565623e-11,-1.18962449547805e-06,-8.348771804894687e-08,8.143512528976999e-10
1668680516.8643365,22887,1668680516,864093016,,1.2760713883639552e-06,5.716858425049172e-10,-3.9646899653564436e-11,-1.1492435701393092e-06,-9.923489406512656e-08,6.14840903257179e-10
1668680516.8718,22888,1668680516,871627932,,1.3823683027739201e-06,5.510594340170386e-10,-3.8079983399441695e-11,-1.1090360046070472e-06,-1.1484439800546917e-07,4.16835255059203e-10
1668680516.8796954,22889,1668680516,879579989,,1.4775394283847625e-06,5.309756421808325e-10,-3.6561447967817514e-11,-1.0690055696724165e-06,-1.3031532446158647e-07,2.2034771014291975e-10
1668680516.8878167,22890,1668680516,887629180,,1.5622761191148468e-06,5.114311757517803e-10,-3.5090486405039296e-11,-1.0291559835299876e-06,-1.4564679294662011e-07,2.5391371893935638e-11
1668680516.895504,22891,1668680516,895355363,,1.6372356855768092e-06,4.924219769028846e-10,-3.366625063218508e-11,-9.89490911719857e-07,-1.608379478087736e-07,-1.680209568880896e-10
1668680516.9038467,22892,1668680516,903650697,,1.7030427883052207e-06,4.739431988557043e-10,-3.228782011692117e-11,-9.50013967066561e-07,-1.7588795814260374e-07,-3.5987677280465563e-10
1668680516.9116805,22893,1668680516,911576717,,1.7602907853161748e-06,4.5598940449436996e-10,-3.095425862950321e-11,-9.107287096517734e-07,-1.9079601770007198e-07,-5.501638747959317e-10
1668680516.9200277,22894,1668680516,919744445,,1.809543035031049e-06,4.3855444812887353e-10,-2.9664710968126285e-11,-8.71638646760174e-07,-2.0556134479892698e-07,-7.388703565521887e-10
1668680516.9283175,22895,1668680516,928056891,,1.851334155428541e-06,4.216318870081987e-10,-2.841822506766674e-11,-8.327472328629656e-07,-2.2018318222923788e-07,-9.259846063799675e-10
1668680516.9358013,22896,1668680516,935530213,,1.8861712402028867e-06,4.0521440189874315e-10,-2.72138586923483e-11,-7.940578695891635e-07,-2.3466079715605178e-07,-1.1114953065443584e-09
1668680516.9436033,22897,1668680516,943413259,,-0.0004349667994491156,2.1572058404743342e-09,0.00023830504297480518,-7.556121244238523e-07,-2.489747729193967e-07,-1.2953948149612218e-09
1668680516.9516969,22898,1668680516,951599180,,-0.0008364443587713284,8.415204073014874e-09,0.00045731126569044833,-7.17470277103194e-07,-2.631115721581124e-07,-1.4776770653444904e-09
1668680516.9599285,22899,1668680516,959733677,,-0.0014356943951940198,2.5186437500499227e-08,0.0007842032555513422,-6.797668406089377e-07,-2.7702270410283683e-07,-1.658342910042243e-09
1668680516.9678555,22900,1668680516,967744202,,-0.0031459753364652563,5.198660062531373e-05,0.003094400067568429,-6.439285632811237e-07,-2.902089065124762e-07,-1.8375043066981567e-09
1668680516.97582,22901,1668680516,975674329,,-0.0053291754883103585,0.00012771369712830132,0.006279824636173439,-6.112594671713793e-07,-3.022311345885582e-07,-2.0152683358892753e-09
1668680516.983663,22902,1668680516,983477855,,-0.007569884074140999,0.0002556757992865005,0.009804266425885737,-5.818862094517698e-07,-3.13050976212992e-07,-2.1916519779563437e-09
1668680516.9918106,22903,1668680516,991655746,,-0.009618537123863668,0.0003733121006517625,0.013030958191517828,-5.546519524983977e-07,-3.2306928847322365e-07,-2.3665672824191297e-09
1668680516.9996216,22904,1668680516,999456301,,-0.01138736032634248,0.000416412788857822,0.016098984158445132,-5.281306033124724e-07,-3.3277775185426225e-07,-2.539897556164128e-09
1668680517.0078132,22905,1668680517,7629962,,-0.012941584292584058,0.0004211925699424641,0.018957395800475788,-5.019211600315273e-07,-3.423138869705785e-07,-2.7116103459845498e-09
1668680517.0158176,22906,1668680517,15579801,,-0.013927720327616213,0.0004064827836965354,0.02132462520460926,-4.7262891727460057e-07,-3.528478353075613e-07,-2.881368216939295e-09
1668680517.024039,22907,1668680517,23807825,,-0.014808460130211993,0.0003921324445465484,0.023462748209459143,-4.431694012235266e-07,-3.6337301940314983e-07,-3.049433434931803e-09
1668680517.0317717,22908,1668680517,31632250,,-0.015084525875014888,0.0003681400571760117,0.025030473278291224,-4.089554667366e-07,-3.7547016535141716e-07,-3.2153014105362754e-09
1668680517.0399084,22909,1668680517,39733997,,-0.015041388209430647,0.0003399705501419911,0.026237023874445712,-3.721768354088132e-07,-3.8838302783247066e-07,-3.379148499210727e-09
1668680517.0477612,22910,1668680517,47621066,,-0.014359954444169475,0.00031009031195711884,0.026825506279709498,-3.3015494284985617e-07,-4.030332503057233e-07,-3.5406203004184622e-09
1668680517.055501,22911,1668680517,55313828,,-0.013380189747735555,0.00028023057366098993,0.02706540257639963,-2.8631104026638206e-07,-4.1824082359464936e-07,-3.7000553593236063e-09
1668680517.0637734,22912,1668680517,63608931,,-0.012451465239222491,0.0002521615316446783,0.027232941318534397,-2.437266471149607e-07,-4.3294460867098535e-07,-3.8578084199381024e-09
1668680517.0721653,22913,1668680517,71934243,,-0.011381604997076517,0.00022483908354302976,0.027102923370060015,-2.0099429127408885e-07,-4.4762989051034706e-07,-4.013708088113077e-09
1668680517.079703,22914,1668680517,79535366,,-0.010273365672138865,0.00019863165090686942,0.02665198747787723,-1.5901226997149345e-07,-4.619879393365613e-07,-4.1678653479870764e-09
1668680517.0879214,22915,1668680517,87641345,,-0.009179272892599014,0.00017381726715156177,0.026037180873083942,-1.1814338499551488e-07,-4.758947110291667e-07,-4.320331151858037e-09
1668680517.0954566,22916,1668680517,95345943,,-0.008125409215201062,0.000150460036796582,0.025281243246161985,-7.848395511234844e-08,-4.893179953020755e-07,-4.471123488808404e-09
1668680517.104606,22917,1668680517,104138087,,-0.007138782341574742,0.0001287056470686442,0.024535175368860043,-4.0071195016509156e-08,-5.022459798142249e-07,-4.620251950124277e-09
1668680517.1116326,22918,1668680517,111491170,,-0.006201152631963269,0.00010835603507901294,0.023718744286969497,-2.7134127486669497e-09,-5.147454817901653e-07,-4.767693144794305e-09
1668680517.1196735,22919,1668680517,119549193,,-0.005317499259225916,8.939646195060465e-05,0.02287721912741699,3.365812740250797e-08,-5.268410103218641e-07,-4.913438649001289e-09
1668680517.1275733,22920,1668680517,127463749,,-0.004489010083927754,7.176638183521671e-05,0.022007676305075025,6.912773333875348e-08,-5.38562391763246e-07,-5.057476553868567e-09
1668680517.1357968,22921,1668680517,135644717,,-0.0037149174808501413,5.541678522769426e-05,0.021137301587854974,1.0378062090779419e-07,-5.499397256977811e-07,-5.199793763968619e-09
1668680517.1433337,22922,1668680517,143229670,,-0.002993488098153737,4.028157890240315e-05,0.020268812286511447,1.376965474638139e-07,-5.610011998912438e-07,-5.340377112750261e-09
1668680517.1518605,22923,1668680517,151704202,,-0.0023231458704129466,2.630983730223644e-05,0.01942897523972045,1.7094649950411223e-07,-5.717719609747224e-07,-5.479214113240233e-09
1668680517.15977,22924,1668680517,159623596,,-0.0017005627063350313,1.342209402563669e-05,0.018599620608560814,2.0359572903156989e-07,-5.822751499616686e-07,-5.616292703906206e-09
1668680517.167631,22925,1668680517,167527680,,-0.0011234824384838244,1.5607538467198292e-06,0.017789830016602885,2.3569908031347607e-07,-5.925303163729589e-07,-5.751602138136247e-09
1668680517.1758878,22926,1668680517,175663825,,-0.000589599774704173,-9.327393080241795e-06,0.017015424800370108,2.6730418951659165e-07,-6.025545158464335e-07,-5.88513263143943e-09
1668680517.1834168,22927,1668680517,183291395,,-9.663019169117976e-05,-1.928263079849643e-05,0.016321181603781394,2.9845204740168207e-07,-6.123625068976626e-07,-6.016875396167411e-09
1668680517.1917112,22928,1668680517,191577991,,0.0003575857893111455,-2.8386867397096056e-05,0.01564960527953951,3.291776627943329e-07,-6.219669821460937e-07,-6.146822635198952e-09
1668680517.199591,22929,1668680517,199489979,,0.0007752659061062788,-3.668152511249945e-05,0.015028017407086678,3.59510721610864e-07,-6.313787953553945e-07,-6.274967488976643e-09
1668680517.207926,22930,1668680517,207772081,,0.0011584561154614288,-4.419867422515743e-05,0.014508085259866025,3.8947618627051527e-07,-6.40607171141253e-07,-6.401303994686691e-09
1668680517.2155006,22931,1668680517,215356708,,0.0015091066341956039,-5.100582196447721e-05,0.014044104132947167,4.190949009974038e-07,-6.496599135696039e-07,-6.525827028498049e-09
1668680517.2238543,22932,1668680517,223696544,,0.0018290770450416747,-5.716422352112978e-05,0.013589083704682797,4.48384112435157e-07,-6.585435862379045e-07,-6.648532248614697e-09
1668680517.2321067,22933,1668680517,231873565,,0.0021201692193585342,-6.270874582951445e-05,0.0131586913712704,4.773579097428915e-07,-6.672636641140461e-07,-6.7694160377045065e-09
1668680517.239726,22934,1668680517,239567536,,0.0023840832114296524,-6.768928107795546e-05,0.012718107565027467,5.060276657454523e-07,-6.758246861623664e-07,-6.8884754571459095e-09
1668680517.2484365,22935,1668680517,248122660,,0.002622445331340941,-7.213746666525661e-05,0.01227759695092051,5.344023973407754e-07,-6.842303796131548e-07,-7.005708188047299e-09
1668680517.2555902,22936,1668680517,255458198,,0.0028368043585758037,-7.608418576133082e-05,0.01184637545736483,5.624890940329019e-07,-6.924837732402033e-07,-7.121112467062263e-09
1668680517.2638044,22937,1668680517,263644336,,0.003028633005648685,-7.956142689612146e-05,0.011425860751511691,5.902930099286433e-07,-7.005872980693923e-07,-7.234687069042345e-09
1668680517.2717807,22938,1668680517,271592817,,0.0031993331013866564,-8.260118568970078e-05,0.011011627708581053,6.178179177275563e-07,-7.085428748941614e-07,-7.346431241117557e-09
1668680517.2802935,22939,1668680517,279973842,,0.0033502372572677616,-8.523175773034518e-05,0.010606058416860697,6.450663396810136e-07,-7.16351993867008e-07,-7.456344682313376e-09
1668680517.2887154,22940,1668680517,288526023,,0.003482610512895606,-8.748410044391095e-05,0.01019564101456599,6.72039745561256e-07,-7.240157826749057e-07,-7.564427500182658e-09
1668680517.296682,22941,1668680517,296508067,,0.0035976566633868236,-8.938147253839976e-05,0.009789090594955524,6.987387278417078e-07,-7.315350668721335e-07,-7.670680170039634e-09
1668680517.3038175,22942,1668680517,303631269,,0.003696519648118355,-9.094297811070705e-05,0.009409421864637642,7.251631550661284e-07,-7.389104226895404e-07,-7.775103525418936e-09
1668680517.3120613,22943,1668680517,311898762,,0.003780281603932643,-9.219635135688541e-05,0.009041192903056864,7.513123056859374e-07,-7.461422230964007e-07,-7.877698721646398e-09
1668680517.3196723,22944,1668680517,319570296,,0.0038499749822579,-9.315071622290224e-05,0.008744944648357667,7.771849842275712e-07,-7.532306777942468e-07,-7.978467214155016e-09
1668680517.3277247,22945,1668680517,327592832,,0.003906570841369076,-9.383652905134566e-05,0.008486998544352762,8.027796224208375e-07,-7.601758680187966e-07,-8.077410743739799e-09
1668680517.3353882,22946,1668680517,335264854,,0.003950995187164847,-9.426571681249217e-05,0.008309797511707224,8.280943661409588e-07,-7.669777764753992e-07,-8.174531309669553e-09
1668680517.3439403,22947,1668680517,343785962,,0.0039841158394285404,-9.447551589133671e-05,0.00813020607791346,8.531271503393027e-07,-7.736363131041236e-07,-8.26983118443203e-09
1668680517.351711,22948,1668680517,351576267,,0.0039620811091525526,-9.446079567728843e-05,0.008076055696319506,8.779783986885358e-07,-7.801875632410644e-07,-8.36329925799073e-09
1668680517.3597422,22949,1668680517,359568885,,0.003910307888956446,-9.42519510565636e-05,0.00807758772103468,9.025874107030724e-07,-7.866108121985793e-07,-8.454946265681884e-09
1668680517.3676798,22950,1668680517,367541824,,0.0038470139724284145,-9.38592663846173e-05,0.008155615300987882,9.2690989669265e-07,-7.928910950226556e-07,-8.544780762294313e-09
1668680517.376012,22951,1668680517,375832154,,0.0037769323604437523,-9.330731097648961e-05,0.00826034685280954,9.509333918619121e-07,-7.990246560707272e-07,-8.632807202597903e-09
1668680517.3836732,22952,1668680517,383497439,,0.0037047627714311736,-9.260340972255063e-05,0.008420106228657404,9.746462700560942e-07,-8.050080200280857e-07,-8.719030109884118e-09
1668680517.3921177,22953,1668680517,391865143,,0.0036309855956015115,-9.177790141632036e-05,0.008550631662397312,9.98046659568163e-07,-8.108411555990592e-07,-8.80345292844642e-09
1668680517.399877,22954,1668680517,399733986,,0.0035938589688546694,-9.08106088122354e-05,0.008789800194146059,1.021054612366464e-06,-8.164962835294904e-07,-8.886089155300814e-09
1668680517.4079247,22955,1668680517,407751209,,0.0035726718040562217,-8.973030600842942e-05,0.009064605318528268,1.0437157095304764e-06,-8.2199015440573e-07,-8.966936468519926e-09
1668680517.415431,22956,1668680517,415309951,,0.0035567396366047157,-8.856328334328499e-05,0.009307839287702306,1.0660523767900927e-06,-8.27331347049039e-07,-9.04599581266069e-09
1668680517.4237204,22957,1668680517,423549830,,0.0035350477833783135,-8.732135649577867e-05,0.009513492180866046,1.0880869772060504e-06,-8.325284464825446e-07,-9.123268423713582e-09
1668680517.4319236,22958,1668680517,431740496,,0.0035137028910816,-8.60566427211047e-05,0.009496287823346118,1.1098064573101716e-06,-8.37577438812551e-07,-9.198760176319654e-09
1668680517.4398215,22959,1668680517,439705602,,0.003490079582409761,-8.474932714726461e-05,0.009362331035642898,1.1312158557877456e-06,-8.424807494906484e-07,-9.272474886870552e-09
1668680517.4478068,22960,1668680517,447585724,,0.0034629966372180135,-8.342414834672712e-05,0.009023859471351167,1.1523171439293146e-06,-8.472397147867987e-07,-9.344416971104885e-09
1668680517.4554186,22961,1668680517,455205935,,0.0034320492900825027,-8.205699920603374e-05,0.008590304138575505,1.1731107227842572e-06,-8.518551122672593e-07,-9.414591229002511e-09
1668680517.4636614,22962,1668680517,463497934,,0.0033967799992530427,-8.062810406295442e-05,0.008174062267969285,1.1935970770039347e-06,-8.563277499608313e-07,-9.483002640087168e-09
1668680517.4719212,22963,1668680517,471745215,,0.0033580340053344514,-7.916373757307201e-05,0.007681472823011014,1.2137741001101403e-06,-8.606575086184218e-07,-9.549656685217678e-09
1668680517.479856,22964,1668680517,479651093,,0.0033159569198909903,-7.76638241086973e-05,0.007129327740659643,1.2336411513260749e-06,-8.648447911551588e-07,-9.614558855661204e-09
1668680517.4878638,22965,1668680517,487663875,,0.0032709832557869384,-7.594077197390992e-05,0.00656266194622995,1.2531972063730201e-06,-8.688898614735488e-07,-9.677714876005217e-09
1668680517.4960241,22966,1668680517,495866062,,0.0032237632882774277,-7.364448139858469e-05,0.006004646512083241,1.272441013948678e-06,-8.727928996882771e-07,-9.739130655585237e-09
1668680517.5034873,22967,1668680517,503367883,,0.0031749270790290113,-7.045542934361063e-05,0.005474791410463791,1.2913714356350145e-06,-8.765541235950821e-07,-9.79881229021956e-09
1668680517.5117564,22968,1668680517,511603067,,0.0031250532205639634,-6.60841883077509e-05,0.004976004911491633,1.3099875073230218e-06,-8.80173810726098e-07,-9.856766014504359e-09
1668680517.5199888,22969,1668680517,519818324,,0.0030747291462160935,-6.0267359217017627e-05,0.004504653555328401,1.3282883323807897e-06,-8.836522598886361e-07,-9.912998249518579e-09
1668680517.528238,22970,1668680517,527700969,,0.0030244708900613055,-5.276233350234728e-05,0.004083021482414203,1.3462732307361697e-06,-8.86989844870584e-07,-9.967515544710703e-09
1668680517.5356393,22971,1668680517,535437966,,0.002974756185631812,-4.3353134755729046e-05,0.003697945570088878,1.3639416694001782e-06,-8.901869895320533e-07,-1.0020324608256415e-08
1668680517.5443306,22972,1668680517,544204387,,0.002926023588547533,-3.184400502227448e-05,0.003336002504143252,1.381293263101851e-06,-8.932441681443957e-07,-1.007143230619123e-08
1668680517.5523834,22973,1668680517,552242897,,0.0028786836337417205,-1.8056627130330855e-05,0.0030056611355885146,1.3983277514087724e-06,-8.961618972098305e-07,-1.012084565026744e-08
1668680517.5602515,22974,1668680517,560035500,,0.0028331073495772886,-1.8322138215455954e-06,0.002704998051652239,1.4150450111679149e-06,-8.98940740083276e-07,-1.0168571808362448e-08
1668680517.5687416,22975,1668680517,568497263,,0.0027896335010896495,1.6970511279157366e-05,0.0024277825407166024,1.4314450387872287e-06,-9.01581300681944e-07,-1.0214618083662086e-08
1668680517.576763,22976,1668680517,576589034,,0.002748570217433554,3.847650758650253e-05,0.0021627923738133897,1.4475279418449973e-06,-9.04084220537408e-07,-1.0258991935477302e-08
1668680517.5840447,22977,1668680517,583840518,,0.002710196745592685,6.279572507568185e-05,0.0018967033398846838,1.4632939305796668e-06,-9.064501758397289e-07,-1.030170097664207e-08
1668680517.5917952,22978,1668680517,591666897,,0.002674765476853917,9.002547320531779e-05,0.001647898043120446,1.4787433097777408e-06,-9.086798745764219e-07,-1.0342752963972413e-08
1668680517.5998566,22979,1668680517,599655082,,0.0026425028460849783,0.00012024816159093512,0.001406101752744217,1.493876470127989e-06,-9.107740534966227e-07,-1.0382155791327508e-08
1668680517.6075745,22980,1668680517,607470332,,0.002613611214457649,0.00015353451955100637,0.0011791869843082359,1.5086938814062105e-06,-9.127334757107447e-07,-1.0419917513895816e-08
1668680517.6157086,22981,1668680517,615563510,,0.0025882701678530563,0.0001899432549488331,0.0009671132633616563,1.5231960849963562e-06,-9.145589280473303e-07,-1.0456046314367973e-08
1668680517.6234596,22982,1668680517,623301252,,0.0025666380505309128,0.00022952218032937292,0.0007655194046445975,1.5373836872596873e-06,-9.16251218702961e-07,-1.049055051724826e-08
1668680517.63168,22983,1668680517,631577923,,0.0025488534044793613,0.0002723092379136225,0.0005783444075264166,1.5512573534137253e-06,-9.17811175067619e-07,-1.0523438591890366e-08
1668680517.6398861,22984,1668680517,639714477,,0.002535036097495377,0.0003183326638310833,0.00037235039288495983,1.5648178018826714e-06,-9.19239641708857e-07,-1.055471915076267e-08
1668680517.6479902,22985,1668680517,647835309,,0.002525288910404163,0.00036761281219563433,0.0001647250487645852,1.5780657992493338e-06,-9.2053747855679e-07,-1.058440093166732e-08
1668680517.6558151,22986,1668680517,655639805,,0.0025196982903247602,0.0004201615707618039,-2.090264913311904e-05,1.5910021556126792e-06,-9.217055592360227e-07,-1.0612492815087471e-08
1668680517.6636422,22987,1668680517,663503432,,0.0025183355760823537,0.00047598331605991525,-0.00020778642098886793,1.603627720447834e-06,-9.227447695718088e-07,-1.063900380293692e-08
1668680517.6722026,22988,1668680517,672041765,,0.0025212580504943936,0.0005350755039119101,-0.0003794937891504506,1.615943378957611e-06,-9.236560062496249e-07,-1.0663943035473661e-08
1668680517.6800392,22989,1668680517,679764804,,0.0025285100138071463,0.0005974294377308557,-0.000545328033780545,1.6279500487986474e-06,-9.244401756255158e-07,-1.0687319784794674e-08
1668680517.6875489,22990,1668680517,687447893,,0.002540123889355226,0.0006630312647390415,-0.0007356376651801473,1.6396486772931435e-06,-9.250981926764651e-07,-1.0709143447029668e-08
1668680517.6953344,22991,1668680517,695222598,,0.0025561205905796987,0.0007318609562173399,-0.0009299035090378093,1.6510402389459355e-06,-9.256309800788505e-07,-1.0729423542774758e-08
1668680517.7036493,22992,1668680517,703486384,,0.002576510516409159,0.0008038932051552786,-0.0011069852954323646,1.6621257333640944e-06,-9.260394674194154e-07,-1.0748169717959832e-08
1668680517.7116487,22993,1668680517,711547580,,0.002601294692129287,0.0008790988452962657,-0.0012706306769171502,1.6729061835069592e-06,-9.263245905056892e-07,-1.0765391741680147e-08
1668680517.7197866,22994,1668680517,719596465,,0.0026304655061806076,0.0009574452140899194,-0.0014351494650191702,1.6833826341782523e-06,-9.264872907851536e-07,-1.0781099491017493e-08
1668680517.7278354,22995,1668680517,727697694,,0.0026640069504922184,0.0010388951855230867,-0.0015924829676684496,1.6935561508723937e-06,-9.265285148623518e-07,-1.0795302968821113e-08
1668680517.7360573,22996,1668680517,735888058,,0.002701895743770914,0.0011234088295570635,-0.0017463699798469974,1.7034278187860809e-06,-9.264492140952676e-07,-1.0808012281156298e-08
1668680517.7433407,22997,1668680517,743225909,,0.002744101131479511,0.0012109413612608924,-0.0018649010563349876,1.712998742107283e-06,-9.262503442684792e-07,-1.0819237665927323e-08
1668680517.7517614,22998,1668680517,751647195,,0.0027905871346870334,0.0013014482032184555,-0.0019703881350597073,1.7222700434696021e-06,-9.259328653380187e-07,-1.0828989447340953e-08
1668680517.7597885,22999,1668680517,759636851,,0.002841311525890124,0.0013948807324967898,-0.0020531965442592472,1.7312428635766352e-06,-9.254977412281661e-07,-1.0837278071468281e-08
1668680517.7675288,23000,1668680517,767405565,,0.0028962268789500694,0.001491188058005241,-0.0021008907498788203,1.7399183609943893e-06,-9.24945939686234e-07,-1.0844114088030127e-08
1668680517.7753816,23001,1668680517,775210842,,0.0029552817443193272,0.001590319230738804,-0.002127693269127319,1.7482977120527109e-06,-9.242784321842571e-07,-1.08495081421571e-08
1668680517.783729,23002,1668680517,783592682,,0.0030184205351104047,0.00169222182182105,-0.0021481814051923097,1.7563821108668784e-06,-9.234961938487497e-07,-1.0853470987833708e-08
1668680517.7919765,23003,1668680517,791794803,,0.003085583358948723,0.001796840410260867,-0.0021520188366634303,1.7641727694446336e-06,-9.226002034410817e-07,-1.085601347879106e-08
1668680517.7997937,23004,1668680517,799622836,,0.003156707150970786,0.0019041188702891,-0.0021347145759894617,1.7716709178942023e-06,-9.215914433480731e-07,-1.0857146558965886e-08
1668680517.808003,23005,1668680517,807814849,,0.0032317262504699745,0.002014001120996339,-0.0021057762968758323,1.7788778046354327e-06,-9.204708996038408e-07,-1.0856881263801577e-08
1668680517.8155212,23006,1668680517,815303940,,0.0033105725606185194,0.002126430735249741,-0.0020813011861789445,1.7857946967345395e-06,-9.19239561924696e-07,-1.0855228727187083e-08
1668680517.8240082,23007,1668680517,823787800,,0.003393175185553021,0.002241349100760803,-0.002054654962022626,1.7924228802026323e-06,-9.178984237595328e-07,-1.0852200164543357e-08
1668680517.831978,23008,1668680517,831780876,,0.0034794623423154776,0.002358700168677486,-0.0020630580995681124,1.7987636603745016e-06,-9.164484823519936e-07,-1.0847806888869549e-08
1668680517.839809,23009,1668680517,839666114,,0.003569359220181992,0.002478423606080967,-0.002086282838283511,1.8048183622627771e-06,-9.14890738801618e-07,-1.0842060287757915e-08
1668680517.847859,23010,1668680517,847683180,,0.0036627900900171348,0.002600460207265314,-0.002121312242884672,1.810588330926736e-06,-9.132261981279735e-07,-1.0834971834669527e-08
1668680517.856171,23011,1668680517,856030441,,0.0037596779623679205,0.0027247503049777915,-0.002158783516312998,1.8160749318479758e-06,-9.114558693567681e-07,-1.0826553083730095e-08
1668680517.863423,23012,1668680517,863299907,,0.0038599456737131517,0.002851236328319109,-0.002216453444189206,1.82127955131992e-06,-9.095807655606843e-07,-1.0816815666260526e-08
1668680517.871757,23013,1668680517,871590195,,0.003963514184651939,0.0029798573850640885,-0.0022651953205691704,1.8262035967369554e-06,-9.076019039462233e-07,-1.080577129945054e-08
1668680517.8800373,23014,1668680517,879827491,,0.00407030507923745,0.0031105559592791376,-0.002316021667777156,1.8308484969619898e-06,-9.055203058953929e-07,-1.0793431749929472e-08
1668680517.888411,23015,1668680517,888256193,,0.00418023923945045,0.0032432736477443604,-0.0023637634880866727,1.8352157026177735e-06,-9.033369970250406e-07,-1.0779808884073261e-08
1668680517.8956785,23016,1668680517,895571216,,0.004293236892089853,0.0033779508751146598,-0.0023833598532860176,1.83930668637647e-06,-9.010530072174004e-07,-1.0764914618564825e-08
1668680517.9035063,23017,1668680517,903307073,,0.0044092168206292665,0.0035145242384310277,-0.002295791143812602,1.8431229431723145e-06,-8.986693706557772e-07,-1.0748760938608659e-08
1668680517.9117997,23018,1668680517,911665697,,0.004528103645539342,0.0036529470929437978,-0.0022106136615737747,1.8466659904226298e-06,-8.961871258549855e-07,-1.073135989446139e-08
1668680517.9196932,23019,1668680517,919564618,,0.004649817482063884,0.003793159471383205,-0.0020744078982026515,1.8499373682180414e-06,-8.936073156670687e-07,-1.071272361530956e-08
1668680517.9278193,23020,1668680517,927675913,,0.004770328587495732,0.003935096363127885,-0.0017477022890748678,1.8529462867924095e-06,-8.909337749162763e-07,-1.0692863691708077e-08
1668680517.935529,23021,1668680517,935358198,,0.004891706497039451,0.0040787155212632965,-0.0013390502076521555,1.855690540981894e-06,-8.881661652146401e-07,-1.0671792668309754e-08
1668680517.9439294,23022,1668680517,943726794,,0.005016156994385972,0.004223972209641189,-0.0009600451799144733,1.858167349617699e-06,-8.853039411840726e-07,-1.0649523159156349e-08
1668680517.9521682,23023,1668680517,951978437,,0.0050842939668363455,0.004370801914415259,-0.0005180759624132801,1.8605000829601418e-06,-8.82392402391704e-07,-1.0626058736043498e-08
1668680517.9600086,23024,1668680517,959803911,,0.0049637162987954744,0.004519136008640705,0.00013538830688292742,1.86295740214601e-06,-8.795297284376586e-07,-1.0601393147895155e-08
1668680517.9680886,23025,1668680517,967810382,,0.0047623737347692995,0.004668949070634059,0.0008667632184977806,1.8652913567315639e-06,-8.766267874109915e-07,-1.0575557483558096e-08
1668680517.975815,23026,1668680517,975665305,,0.004428802046298891,0.004820191264600211,0.0016900361403719161,1.867553782895257e-06,-8.737039444824341e-07,-1.054856106543628e-08
1668680517.9838312,23027,1668680517,983671579,,0.004137089720872147,0.004972833037616409,0.0024449300765206267,1.8694138977382046e-06,-8.706408977139245e-07,-1.0520439630134354e-08
1668680517.9915988,23028,1668680517,991491402,,0.003913869899492474,0.005126822244752295,0.0031277343313966493,1.8708658786511763e-06,-8.674350376503166e-07,-1.0491205897512207e-08
1668680517.9997823,23029,1668680517,999655536,,0.0037407378665639084,0.0052821048910660804,0.003746327241099238,1.8719670975012864e-06,-8.641073090763355e-07,-1.046086842756283e-08
1668680518.0076497,23030,1668680518,7526122,,0.0037799737335700036,0.005438633229309897,0.0041510237130438915,1.872569626878481e-06,-8.606007680689613e-07,-1.0429449798145946e-08
1668680518.0154958,23031,1668680518,15343294,,0.003929939610676326,0.0055963536390412506,0.004432134620233631,1.872806753509871e-06,-8.569658729854537e-07,-1.0396953594067615e-08
1668680518.023966,23032,1668680518,23788328,,0.004086459474797144,0.005755219072438429,0.004682290669056321,1.8727897096186194e-06,-8.53245572296588e-07,-1.0363385153505655e-08
1668680518.032336,23033,1668680518,32044080,,0.004314567820930319,0.005915186355093337,0.004831991957504737,1.8724382238337552e-06,-8.494101045069993e-07,-1.0328762636412775e-08
1668680518.0398893,23034,1668680518,39755775,,0.004610150201404704,0.00607620300156013,0.004753089492997956,1.8717401878012114e-06,-8.454559546623144e-07,-1.0293099590979321e-08
1668680518.0484436,23035,1668680518,48041633,,0.004936084167209945,0.006238237127756296,0.004561395735216227,1.870728559732811e-06,-8.413964271676778e-07,-1.0256406642386584e-08
1668680518.0555425,23036,1668680518,55420596,,0.005272996525737899,0.006401250329768586,0.00426549135727044,1.869424928635124e-06,-8.372401828163497e-07,-1.0218695223329632e-08
1668680518.0639768,23037,1668680518,63774962,,0.005600961246728996,0.006565211661297225,0.003984553534374168,1.867863623409312e-06,-8.330002707889085e-07,-1.0179976048761696e-08
1668680518.0717804,23038,1668680518,71656994,,0.005930356973857718,0.006730082585583694,0.003697563861023549,1.8660302952610698e-06,-8.286717756190591e-07,-1.0140262938357347e-08
1668680518.0798817,23039,1668680518,79680164,,0.006256124591274623,0.0068958259912508,0.0034151542148795093,1.8639377155979118e-06,-8.242597242201217e-07,-1.0099568029976747e-08
1668680518.0876603,23040,1668680518,87552253,,0.006575816136215961,0.00706240857845457,0.0032294117945503584,1.8615956618114554e-06,-8.197680028085861e-07,-1.0057903685259384e-08
1668680518.095878,23041,1668680518,95718520,,0.006888352472713136,0.007229791497327563,0.003094892368056243,1.8590119131139927e-06,-8.151997502766066e-07,-1.0015282437582373e-08
1668680518.1041448,23042,1668680518,103961278,,0.007193371379862246,0.00739793986782909,0.0030151946021025502,1.8561928941703874e-06,-8.105576064040983e-07,-9.971716942620834e-09
1668680518.1119716,23043,1668680518,111764528,,0.007490467861356568,0.00756681850619326,0.002935845773740384,1.853145231654357e-06,-8.058442775546774e-07,-9.927219876866566e-09
1668680518.12018,23044,1668680518,120006273,,0.007780476532705391,0.007736398447450144,0.0029863941852621184,1.849872051090216e-06,-8.010612129239793e-07,-9.881804128447635e-09
1668680518.127994,23045,1668680518,127850841,,0.008063572247327854,0.007906646402754488,0.003095499107843404,1.8463779210255241e-06,-7.962103799130725e-07,-9.835482548195551e-09
1668680518.1354241,23046,1668680518,135307240,,0.008340021275896843,0.008077531473613364,0.0032302280969454295,1.8426669300290662e-06,-7.912935731397967e-07,-9.788268027707825e-09
1668680518.1439383,23047,1668680518,143749653,,0.008610068937307825,0.00824902328598533,0.003347939826071608,1.8387430083611545e-06,-7.863125294570281e-07,-9.740173490674353e-09
1668680518.151723,23048,1668680518,151579638,,0.008874130963592037,0.008421095544144856,0.0035156222537029353,1.834609303790185e-06,-7.812687059238223e-07,-9.691211918030906e-09
1668680518.1597948,23049,1668680518,159609065,,0.009132511139092182,0.008593719837064596,0.0036979862076090106,1.8302690858239636e-06,-7.761636017133066e-07,-9.641396301121596e-09
1668680518.1679666,23050,1668680518,167838483,,0.009385513377440606,0.008766867524936432,0.0038397822777216425,1.8257254166993155e-06,-7.70998640583023e-07,-9.59073966425028e-09
1668680518.1756008,23051,1668680518,175426563,,0.009633435866759391,0.00894051306878799,0.003952798154154101,1.8209811889684322e-06,-7.657751840454638e-07,-9.539255031720817e-09
1668680518.1837652,23052,1668680518,183630507,,0.009876562110802088,0.00911463189423371,0.004049087255933602,1.8160391715289602e-06,-7.604945475227925e-07,-9.486955460796809e-09
1668680518.1919007,23053,1668680518,191772035,,0.01011517634076121,0.009289200377432224,0.004142963526545707,1.8109019658457735e-06,-7.551579846740511e-07,-9.43385400874186e-09
1668680518.1997528,23054,1668680518,199606023,,0.01034954049901033,0.00946419132209787,0.004146425300684721,1.8055721020570806e-06,-7.49766721227363e-07,-9.379963727615404e-09
1668680518.2077088,23055,1668680518,207597933,,0.010579907008487469,0.009639584233862067,0.004101863413881798,1.8000520188585299e-06,-7.4432194771418e-07,-9.325297711110236e-09
1668680518.215467,23056,1668680518,215266344,,0.010806516949284972,0.00981536026930138,0.004080869945519076,1.7943440765506478e-06,-7.388248239161097e-07,-9.269869023428856e-09
1668680518.2240827,23057,1668680518,223902505,,0.01102959800652708,0.0099914968333126,0.004053485233914265,1.7884505697950739e-06,-7.332764832490503e-07,-9.21369073397793e-09
1668680518.2316594,23058,1668680518,231551996,,0.011249369568026456,0.01016797755978503,0.004137691722778756,1.7823737314218721e-06,-7.276780339770085e-07,-9.156775917368298e-09
1668680518.2400656,23059,1668680518,239877126,,0.011466037199350234,0.0103447799356467,0.004269244703832702,1.7761157478438636e-06,-7.220305645610115e-07,-9.099137625659393e-09
1668680518.247841,23060,1668680518,247622445,,0.011672941318168895,0.010521885374071704,0.004500341328336526,1.7697106813902182e-06,-7.163463746816473e-07,-9.040788128550359e-09
1668680518.2560594,23061,1668680518,255778877,,0.011874035915656138,0.010699274146872849,0.004766915700587276,1.763144321777446e-06,-7.106207657461643e-07,-8.981741048824654e-09
1668680518.2639747,23062,1668680518,263757321,,0.012073403295441399,0.010876926172936096,0.005003025772393498,1.756400526769101e-06,-7.04848367711773e-07,-8.922009893039262e-09
1668680518.2718544,23063,1668680518,271739168,,0.012269470275779858,0.011054826741051418,0.005270113230242642,1.7494896697561857e-06,-6.990331324878028e-07,-8.861607503352076e-09
1668680518.2795503,23064,1668680518,279459086,,0.012469926097812804,0.011232961009881299,0.005563516312124535,1.7423763699405824e-06,-6.93162936782571e-07,-8.800547492138211e-09
1668680518.2879283,23065,1668680518,287686275,,0.012671700809141814,0.011411310025633612,0.005853338683143795,1.7350775497825097e-06,-6.872440305376142e-07,-8.738842415326187e-09
1668680518.2956467,23066,1668680518,295512394,,0.012850623157326574,0.011589851807778025,0.0061437290089799805,1.7277198139944126e-06,-6.813211328555394e-07,-8.676503808827118e-09
1668680518.3039966,23067,1668680518,303713477,,0.013008040570128792,0.011768569668264037,0.0064102799992323874,1.720302542470396e-06,-6.753942873234425e-07,-8.613545444610682e-09
1668680518.3120515,23068,1668680518,311805779,,0.013167206075914647,0.01194745427663986,0.006643127318149089,1.7127085252722932e-06,-6.69422663296794e-07,-8.549981658431682e-09
1668680518.3199484,23069,1668680518,319684769,,0.01331661084899515,0.012126488651013042,0.006850397617800756,1.7050011446640464e-06,-6.634287651639207e-07,-8.485825079077025e-09
1668680518.3276577,23070,1668680518,327519854,,0.013452561558910529,0.012305653959276516,0.006989734650123134,1.6972037427120403e-06,-6.574210449359946e-07,-8.421088947691002e-09
1668680518.33563,23071,1668680518,335419745,,0.013583783134261113,0.012484941702889349,0.0070841667200755905,1.6892726212199683e-06,-6.513844612766211e-07,-8.355786529704035e-09
1668680518.3440351,23072,1668680518,343806417,,0.013719189409080202,0.012664344029308435,0.007157164417656514,1.6811617015619437e-06,-6.453031463549879e-07,-8.289930587476735e-09
1668680518.3516903,23073,1668680518,351565829,,0.013860753943705008,0.012843848577497123,0.007203222737670088,1.672861919311267e-06,-6.391741991632104e-07,-8.223533633569535e-09
1668680518.3597589,23074,1668680518,359564173,,0.0139839558500376,0.01302343989915802,0.007258775647993255,1.6645114298480729e-06,-6.330462512695706e-07,-8.156609537096626e-09
1668680518.3679936,23075,1668680518,367851833,,0.014100776813159093,0.013203108729863581,0.007310089483728138,1.656046856947683e-06,-6.26897371879757e-07,-8.089170968478276e-09
1668680518.3756223,23076,1668680518,375460308,,0.014201355963917629,0.013382844504423976,0.007392041997873043,1.647526427294273e-06,-6.207481885200407e-07,-8.021231781216165e-09
1668680518.3839428,23077,1668680518,383682417,,0.014309194983059603,0.013562638257707307,0.007452938924622138,1.6388200564998792e-06,-6.145534383501252e-07,-7.952802919680702e-09
1668680518.3917322,23078,1668680518,391571889,,0.014357012795772315,0.013724311789031277,0.007596605777867375,1.6302767067584954e-06,-6.084354340605853e-07,-7.883903991451335e-09
1668680518.400009,23079,1668680518,399819646,,0.014381500764907592,0.013878026575908175,0.007768131444703124,1.6217089056053504e-06,-6.023288526778824e-07,-7.814545555789865e-09
1668680518.4080653,23080,1668680518,407915146,,0.014343842819504963,0.01400569059249905,0.007906306347577366,1.6133012084169185e-06,-5.962984933128635e-07,-7.74474590882479e-09
1668680518.415451,23081,1668680518,415253722,,0.014285389614458386,0.0141230976759529,0.008015713247511226,1.604846800215418e-06,-5.902722952530427e-07,-7.674513890706947e-09
1668680518.4238355,23082,1668680518,423642132,,0.014248458515262711,0.014245771013270904,0.008100662906236619,1.5961399223604985e-06,-5.84178527300778e-07,-7.603856051752178e-09
1668680518.4318225,23083,1668680518,431704630,,0.014215720932341252,0.014377803406004332,0.008142610938476794,1.587289160357656e-06,-5.780553790204817e-07,-7.532787517014472e-09
1668680518.4395788,23084,1668680518,439448952,,0.014247679471563262,0.014536366011076322,0.008078239482019979,1.5779985379358512e-06,-5.717995284985206e-07,-7.46130953029056e-09
1668680518.4476795,23085,1668680518,447525170,,0.014318686795306736,0.01470882940932354,0.007957005587411733,1.5683916147921312e-06,-5.65454389283692e-07,-7.389436781218839e-09
1668680518.4560828,23086,1668680518,455877881,,0.014536233875594851,0.014829791712018314,0.007730292669078259,1.5577535940143112e-06,-5.58770230817498e-07,-7.3171497905893945e-09
1668680518.4634607,23087,1668680518,463249381,,0.014827658691937569,0.014959763073401189,0.007479394793474682,1.5465784171965876e-06,-5.519201398913659e-07,-7.244475609680112e-09
1668680518.4716609,23088,1668680518,471511842,,0.015114128268181056,0.015094430700638088,0.0072335654087713475,1.5352932775410647e-06,-5.450536875279636e-07,-7.171443088677121e-09
1668680518.479998,23089,1668680518,479817971,,0.015434416311881926,0.015235544050167143,0.006978721002132806,1.5236746187704522e-06,-5.380930108514763e-07,-7.0980528329989134e-09
1668680518.4877973,23090,1668680518,487606063,,0.015737832839306215,0.015357419757627916,0.0067535746595392175,1.511969389278694e-06,-5.31124532456679e-07,-7.024327845078782e-09
1668680518.4957976,23091,1668680518,495683399,,0.01602982588648754,0.015472728942987303,0.0065452730349363315,1.5001775395377003e-06,-5.241483920531047e-07,-6.950280000833642e-09
1668680518.503553,23092,1668680518,503401015,,0.016306573679478666,0.015563834410308225,0.006362678273014527,1.488291298826718e-06,-5.171620391691465e-07,-6.875920628007792e-09
1668680518.5117953,23093,1668680518,511656155,,0.016578458358226893,0.01566323082156581,0.006181956366636921,1.4763206046102537e-06,-5.101690963914642e-07,-6.801262018851784e-09
1668680518.5198388,23094,1668680518,519699039,,0.016883344186602922,0.015702171269456184,0.006008297884034508,1.463856086484711e-06,-5.03027156219661e-07,-6.7262889702490725e-09
1668680518.528027,23095,1668680518,527862584,,0.017200663081901255,0.01571763364543988,0.005839081119214074,1.451106375255091e-06,-4.958091159976055e-07,-6.651023419512736e-09
1668680518.5356057,23096,1668680518,535327042,,0.017459867720287164,0.015769551574988147,0.005646306585256628,1.4387139047411588e-06,-4.887386953525939e-07,-6.575521113716398e-09
1668680518.5438938,23097,1668680518,543742665,,0.017714794711113008,0.015833816268222497,0.005457620025439085,1.426259047766727e-06,-4.816699809834365e-07,-6.499766155854125e-09
1668680518.551805,23098,1668680518,551669501,,0.017999439322869935,0.01593857926830137,0.005212999485969487,1.4135659728437e-06,-4.7454198035673523e-07,-6.423756169354755e-09
1668680518.5598843,23099,1668680518,559700522,,0.018295346703936392,0.01606729487790549,0.004945684642097317,1.4007278957602748e-06,-4.673872636375338e-07,-6.347508435533555e-09
1668680518.567879,23100,1668680518,567696504,,0.018592993757869616,0.0161733295758242,0.004647312541221623,1.387697037849849e-06,-4.601893787958269e-07,-6.271029247967297e-09
1668680518.5757995,23101,1668680518,575623137,,0.01888756731764136,0.01627243808473922,0.004340891727926546,1.3745523041800692e-06,-4.529758832970388e-07,-6.194335492454295e-09
1668680518.5833592,23102,1668680518,583219922,,0.019176739584932684,0.016355061209651293,0.004027532286937926,1.361289141563085e-06,-4.4574532985004354e-07,-6.117437244268498e-09
1668680518.5926723,23103,1668680518,592440987,,0.01945808297338476,0.016448482366638453,0.0037309808472471093,1.348006111126065e-06,-4.3853206032820743e-07,-6.040354473546561e-09
1668680518.6001732,23104,1668680518,600046746,,0.01973343085981115,0.01651581015397949,0.003427035527241101,1.3345901679821359e-06,-4.312969629536407e-07,-5.963087117838439e-09
1668680518.608638,23105,1668680518,608410082,,0.020002418040248923,0.016576333808128636,0.003127927185595686,1.3211016495414958e-06,-4.2406109449064e-07,-5.885651507830936e-09
1668680518.6160316,23106,1668680518,615901229,,0.020265032444079747,0.016635097270689198,0.0028019671618295054,1.307559612292303e-06,-4.168311796072825e-07,-5.808060307005425e-09
1668680518.6248837,23107,1668680518,624640974,,0.020521230302178988,0.016707335817638617,0.002496226038146828,1.2940147030076558e-06,-4.0962489029395827e-07,-5.7303299952349285e-09
1668680518.6322522,23108,1668680518,632081157,,0.020771586239679524,0.01678406501450557,0.002178709968738106,1.2804408687581276e-06,-4.0243330223316493e-07,-5.652468767353147e-09
1668680518.6404498,23109,1668680518,640305875,,0.021016333735034688,0.016868897500208917,0.0018655609563759286,1.2668520850116368e-06,-3.952613649405804e-07,-5.574489189696941e-09
1668680518.6485636,23110,1668680518,648437689,,0.021255744593824413,0.01695730531714551,0.0015987405952326054,1.2532368280788997e-06,-3.881051892853796e-07,-5.496400751203723e-09
1668680518.6556592,23111,1668680518,655520345,,0.02149010381637824,0.01705326399621967,0.001363274679020635,1.239609468114695e-06,-3.8096985463694204e-07,-5.418216066782611e-09
1668680518.6638784,23112,1668680518,663645599,,0.021719680282237926,0.017160599947723194,0.0011437164940033603,1.2259843655102625e-06,-3.7386043348359554e-07,-5.339947893590047e-09
1668680518.6721675,23113,1668680518,671890686,,0.021944777145059886,0.017273806409859777,0.0009839617153128764,1.2123454880253696e-06,-3.667714710073192e-07,-5.261604912182305e-09
1668680518.6798742,23114,1668680518,679703230,,0.022165655048331297,0.017424003229022617,0.0008883916244496308,1.1987965715139074e-06,-3.5973897535173695e-07,-5.1832127236084435e-09
1668680518.6879685,23115,1668680518,687808689,,0.02238257181651096,0.01759570053417156,0.000826919817115161,1.1852899402132056e-06,-3.5274653983126836e-07,-5.104776195502536e-09
1668680518.6954346,23116,1668680518,695295416,,0.02259577373497895,0.017789089964264655,0.0007381757214646357,1.1718284491269056e-06,-3.4579524504387265e-07,-5.026307002553576e-09
1668680518.7036638,23117,1668680518,703546479,,0.02280549361963741,0.017986358213177244,0.0006549838873526434,1.1583539248347162e-06,-3.3886505122282876e-07,-4.947807136224114e-09
1668680518.7116897,23118,1668680518,711542895,,0.023011953838842993,0.018209431557664028,0.0005376900902625822,1.144941924111206e-06,-3.319821834579448e-07,-4.869299227716617e-09
1668680518.7200403,23119,1668680518,719846191,,0.023215365448923848,0.01844552473434347,0.0004077172464237762,1.1315504959012236e-06,-3.251322160865164e-07,-4.790787492409132e-09
1668680518.7277975,23120,1668680518,727679921,,0.023415928925680632,0.018687714515465095,0.00026110932478907176,1.1181568584063485e-06,-3.183073493500917e-07,-4.712278560414784e-09
1668680518.7354002,23121,1668680518,735265101,,0.023613833248548415,0.0189325339435784,0.00011174623369612667,1.104749758320514e-06,-3.1150376597144716e-07,-4.633780584933911e-09
1668680518.7440038,23122,1668680518,743778877,,0.02380925720120853,0.01917654911444075,-2.6038685883421775e-05,1.0913178325768196e-06,-3.0471760644628677e-07,-4.555301354874919e-09
1668680518.751818,23123,1668680518,751668432,,0.024002368682149142,0.01942615859863923,-0.00012977081904666006,1.0778842689169229e-06,-2.979569527696447e-07,-4.47685483476179e-09
1668680518.7600517,23124,1668680518,759798132,,0.024193334496422282,0.019618028640208337,-0.00018175739685449846,1.0642245857935136e-06,-2.9114426340973165e-07,-4.398407603412036e-09
1668680518.7678385,23125,1668680518,767701293,,0.024382303150410182,0.019783088259031863,-0.00020639573934352006,1.0504476388526873e-06,-2.8431719896308567e-07,-4.319987503137446e-09
1668680518.7757068,23126,1668680518,775558094,,0.02456940917718935,0.019974298360124397,-0.0001527527880861529,1.0367443014435524e-06,-2.7754176929655015e-07,-4.241640993302154e-09
1668680518.7837543,23127,1668680518,783569329,,0.024754789622931442,0.02017753309968461,-1.7188185052566036e-05,1.0230652784570446e-06,-2.7080099951120803e-07,-4.163368431259196e-09
1668680518.7919605,23128,1668680518,791815353,,0.02493857744769071,0.02038273806067661,0.00010769929320579471,1.0093750652378228e-06,-2.6408267272091945e-07,-4.085171999290704e-09
1668680518.7998478,23129,1668680518,799685531,,0.025120890247752877,0.020594319383252478,0.0002678987817114208,9.956908861248127e-07,-2.573927824348673e-07,-4.007064510064273e-09
1668680518.8078668,23130,1668680518,807663250,,0.025301844923357,0.02079061922749402,0.0004395150474467982,9.819334824516524e-07,-2.5070399055240975e-07,-3.929037525884915e-09
1668680518.8158066,23131,1668680518,815678452,,0.02548154726820148,0.020980524654486042,0.0006097105991902459,9.68136350602448e-07,-2.440278933066352e-07,-3.85110652742493e-09
1668680518.8237052,23132,1668680518,823520736,,0.02566010052147902,0.021161863705048238,0.0007000995898935143,9.54291985836664e-07,-2.373619259724187e-07,-3.7732780268362465e-09
1668680518.8321075,23133,1668680518,831938724,,0.02583759415389588,0.0213465599373826,0.0007819650439044782,9.404462240600092e-07,-2.3072193870243927e-07,-3.695570977707563e-09
1668680518.8403766,23134,1668680518,840090251,,0.02601411896972913,0.021554683582062046,0.0007219716254305491,9.266766924960349e-07,-2.241347597675301e-07,-3.6180129725504884e-09
1668680518.8481634,23135,1668680518,847898204,,0.026189756450539753,0.021774592938164115,0.0005944450173818813,9.129407277564565e-07,-2.175856933914113e-07,-3.5406030989004744e-09
1668680518.8560708,23136,1668680518,855924767,,0.026364584795679883,0.022006946757618214,0.0003889422790303553,8.992423253258272e-07,-2.1107614254340344e-07,-3.463351338356402e-09
1668680518.8635302,23137,1668680518,863339115,,0.026538668550631188,0.0222967718169999,0.0001743669170686335,8.857574454016501e-07,-2.0466686490429407e-07,-3.3863124596078542e-09
1668680518.8716319,23138,1668680518,871525183,,0.026712083066445482,0.022580720330070962,-2.3600121249852787e-05,8.722419166370195e-07,-1.9827363601085043e-07,-3.3094331788885434e-09
1668680518.8796875,23139,1668680518,879575654,,0.026884888608215814,0.022889974947519032,-0.00021886600774454515,8.588185624359165e-07,-1.919388458624608e-07,-3.232754463428078e-09
1668680518.8878074,23140,1668680518,887650382,,0.027057147071358686,0.02319333104671888,-0.00038218624206535275,8.453664549477088e-07,-1.8562078691968485e-07,-3.156252276897975e-09
1668680518.895613,23141,1668680518,895528166,,0.02722891414633817,0.02348996322071817,-0.0005233486715147583,8.318833615061959e-07,-1.793186847902535e-07,-3.079933353494768e-09
1668680518.9034534,23142,1668680518,903344244,,0.027400245480889842,0.023734730985486147,-0.0006240128805307424,8.181916659319097e-07,-1.7297125225830459e-07,-3.0037536902227657e-09
1668680518.9118922,23143,1668680518,911743747,,0.02757118435086702,0.023975905449715593,-0.0007154941187082387,8.044833433537319e-07,-1.6664467097048108e-07,-2.927773780359022e-09
1668680518.919723,23144,1668680518,919596336,,0.027741777968931194,0.024133689710159507,-0.0006762965627565017,7.904403163833953e-07,-1.6022920987376291e-07,-2.851905461787041e-09
1668680518.9276762,23145,1668680518,927575622,,0.027912065830338423,0.024252445361995577,-0.000574249345096885,7.762391826013446e-07,-1.5378570258634938e-07,-2.7762042456580538e-09
1668680518.9355218,23146,1668680518,935379283,,0.028082084505944332,0.0243393654460313,-0.0003917456633740397,7.619085339513067e-07,-1.4732396138575007e-07,-2.700683385259417e-09
1668680518.9437122,23147,1668680518,943603800,,0.028251869415126866,0.02443521080801364,-0.00022289079006034077,7.476146388032576e-07,-1.4090127280533792e-07,-2.6254002236103524e-09
1668680518.9518025,23148,1668680518,951639246,,0.028421449240793283,0.024541973591007845,1.4925682684170216e-06,7.33367625344386e-07,-1.3452110770033505e-07,-2.550365453546366e-09
1668680518.959868,23149,1668680518,959693025,,0.028590856363047798,0.0246574622772816,0.0002442731095844885,7.191603341746389e-07,-1.2818097543110252e-07,-2.475584244543416e-09
1668680518.967835,23150,1668680518,967593365,,0.02876011634006962,0.024800707796077567,0.0004936328923273033,7.050740449166698e-07,-1.219088680224625e-07,-2.4010909996374785e-09
1668680518.975935,23151,1668680518,975625671,,0.028929256528313033,0.024959853621780874,0.0007362448253903722,6.910615658444201e-07,-1.1568850537572659e-07,-2.326878287273182e-09
1668680518.9847748,23152,1668680518,984610933,,0.02909830201728973,0.02512251493788192,0.0009582383924819279,6.770725731623849e-07,-1.0950251736147141e-07,-2.252936309732334e-09
1668680518.9919984,23153,1668680518,991845451,,0.02926727854471725,0.025254089008441432,0.001149760753026939,6.629614316635722e-07,-1.0330067523492241e-07,-2.179220429110451e-09
1668680518.999726,23154,1668680518,999555418,,0.02943621038815947,0.025319883126542087,0.0012850883606406352,6.485795358702594e-07,-9.703169757241913e-08,-2.1056812890551946e-09
1668680519.007956,23155,1668680519,7837899,,0.029605107591955126,0.025358959937645774,0.0013866679285742419,6.340931923667003e-07,-9.075277839019468e-08,-2.0323803542887653e-09
1668680519.0155578,23156,1668680519,15387745,,0.029773983624294304,0.025373667194520163,0.001489736993694016,6.195124138445255e-07,-8.446728875914113e-08,-1.9593251188165794e-09
1668680519.0239558,23157,1668680519,23778492,,0.029942846646188858,0.025403984725258073,0.0015817168798697408,6.05012385559902e-07,-7.823549766643352e-08,-1.8865853809724165e-09
1668680519.0316854,23158,1668680519,31538589,,0.03011171073472402,0.025428375650412734,0.0017033368015888963,5.905004671444985e-07,-7.202544742037058e-08,-1.8141325802689678e-09
1668680519.0400052,23159,1668680519,39849570,,0.03028058595152997,0.025457164420471235,0.0018331432490298095,5.760237306065802e-07,-6.585328069528065e-08,-1.7419900591453263e-09
1668680519.048027,23160,1668680519,47825805,,0.03044948482701554,0.025475293396933038,0.001953161160495294,5.615163614857387e-07,-5.96962682787713e-08,-1.6701376046035499e-09
1668680519.0554745,23161,1668680519,55320996,,0.03061841333568517,0.025496059420859495,0.0020620078868624513,5.470392918390356e-07,-5.357531160810752e-08,-1.5986041518312177e-09
1668680519.0637414,23162,1668680519,63569254,,0.030787376188523445,0.025533189584974535,0.00215817986606518,5.326567410538744e-07,-4.75124527400542e-08,-1.5274213630012135e-09
1668680519.0720491,23163,1668680519,71864362,,0.030956365395316234,0.0256678012380095,0.0022418303225058976,5.187433628185364e-07,-4.163662789904727e-08,-1.4567512404695115e-09
1668680519.079792,23164,1668680519,79605442,,0.03112537487539269,0.02598136068838126,0.0022360719380171952,5.056802042643156e-07,-3.60790564740655e-08,-1.386768318234477e-09
1668680519.087661,23165,1668680519,87567604,,0.03129442597206751,0.02637851692733769,0.0021848384109594754,4.930304566406378e-07,-3.0689502125464015e-08,-1.317307075920926e-09
1668680519.095467,23166,1668680519,95303088,,0.031463526601878844,0.02684825403605749,0.002042866472399355,4.80743792879686e-07,-2.5450666894604422e-08,-1.2483585068445713e-09
1668680519.1038845,23167,1668680519,103737098,,0.03163269241704089,0.02729765345061527,0.0019080910269195933,4.6838982823376287e-07,-2.021441838505507e-08,-1.1797444965377935e-09
1668680519.1118727,23168,1668680519,111704023,,0.03180191269990415,0.02781739809427608,0.0016963273565101388,4.5639065400401553e-07,-1.512593013244367e-08,-1.1116571829727917e-09
1668680519.119994,23169,1668680519,119786676,,0.0319711957229987,0.028358959270336135,0.0014535893147644083,4.4452041940418316e-07,-1.01074757332233e-08,-1.0440053266336236e-09
1668680519.1279993,23170,1668680519,127744513,,0.03214054428038227,0.02889748436696443,0.001212796450176274,4.32664371247983e-07,-5.11950294006594e-09,-9.767427977536158e-10
1668680519.1358888,23171,1668680519,135652513,,0.0323099588647095,0.02942061280187523,0.0009810350927017813,4.2076652765151877e-07,-1.426520607368531e-10,-9.098478637170615e-10
1668680519.1441662,23172,1668680519,143931370,,0.032479435816487594,0.029922548980897943,0.00081389708742087,4.088017576493936e-07,4.831837674868118e-09,-8.433117745787477e-10
1668680519.1526048,23173,1668680519,152461623,,0.032648975997822606,0.03039723889798956,0.0006583724542615127,3.967437037749968e-07,9.813158545739914e-09,-7.77124316286848e-10
1668680519.1606944,23174,1668680519,160425266,,0.0328185771792144,0.030849900564194715,0.0004869736790313598,3.8461847032391977e-07,1.4792461506250333e-08,-7.113001090908178e-10
1668680519.1677604,23175,1668680519,167653495,,0.032988235567641994,0.031279907751059426,0.0003139434233454215,3.724247410900124e-07,1.9770327971523755e-08,-6.45840748936255e-10
1668680519.1755035,23176,1668680519,175390323,,0.033157949272771166,0.031687558930631264,0.00010946518611006099,3.601653754856885e-07,2.474590610126049e-08,-5.807497538423689e-10
1668680519.1836035,23177,1668680519,183428863,,0.033327711828419086,0.032073044520764836,-7.906313938980855e-05,3.478426757356568e-07,2.9718537919616594e-08,-5.160303157003554e-10
1668680519.1918328,23178,1668680519,191658419,,0.0334975201690005,0.03243818512262163,-0.0002727453500148592,3.35466440855249e-07,3.468498897059476e-08,-4.516893317707549e-10
1668680519.199987,23179,1668680519,199827414,,0.03366736928159174,0.03278388112434044,-0.00046127292614287765,3.230420845343066e-07,3.9643533704262005e-08,-3.877316454015123e-10
1668680519.2078204,23180,1668680519,207659193,,0.03383725156041959,0.03311111341505107,-0.0005971101859348016,3.1057536669526226e-07,4.459232904024252e-08,-3.241622248406628e-10
1668680519.2153904,23181,1668680519,215213554,,0.03400716359087998,0.03342089824542567,-0.0007014998814285691,2.980720947026337e-07,4.9529517014016214e-08,-2.609860730307112e-10
1668680519.2239044,23182,1668680519,223711212,,0.034177101881279814,0.03371419643840728,-0.0007962496765786576,2.8553776901339006e-07,5.445334669447726e-08,-1.9820808883075358e-10
