Time,header.seq,header.stamp.secs,header.stamp.nsecs,header.frame_id,wrench.force.x,wrench.force.y,wrench.force.z,wrench.torque.x,wrench.torque.y,wrench.torque.z
1668680516.592466,22853,1668680516,592165892,,-8.75266771286071e-130,-1.4383352786242941e-133,3.806029268718324e-302,7e-322,-5.72593e-318,0.0
1668680516.5997727,22854,1668680516,599581909,,-4.630842250016117e-130,-7.609912767687039e-134,2.0136856236963424e-302,3.7e-322,-3.02946e-318,0.0
1668680516.6086156,22855,1668680516,607694970,,-2.450075868072155e-130,-4.0262359682365144e-134,1.0653963763255084e-302,2e-322,-1.602823e-318,0.0
1668680516.6155972,22856,1668680516,615372379,,-2.450075868072155e-130,-4.0262359682365144e-134,1.0653963763255084e-302,2e-322,-1.602823e-318,0.0
1668680516.6241481,22857,1668680516,623875838,,-1.2962807703692848e-130,-2.1301921016432982e-134,5.6367757972268733e-303,1.04e-322,-8.4802e-319,0.0
1668680516.6324375,22858,1668680516,632150519,,-6.858333888865927e-131,-1.1270373683266771e-134,2.982292984493411e-303,5.4e-323,-4.48666e-319,0.0
1668680516.6399584,22859,1668680516,639721083,,-3.6285922622895186e-131,-5.962904606701147e-135,1.5778650358480168e-303,3e-323,-2.3738e-319,0.0
1668680516.6479073,22860,1668680516,647661266,,-1.919807641229402e-131,-3.154840500223025e-135,8.348133749087604e-304,1.5e-323,-1.2559e-319,0.0
1668680516.655948,22861,1668680516,655704725,,-1.0157276191173027e-131,-1.669156097292284e-135,4.416812307093182e-304,1e-323,-6.6447e-320,0.0
1668680516.6635396,22862,1668680516,663320633,,-1.0157276191173027e-131,-1.669156097292284e-135,4.416812307093182e-304,1e-323,-6.6447e-320,0.0
1668680516.672098,22863,1668680516,671847059,,-5.3739894251958757e-132,-8.831134496121283e-136,2.33683737496682e-304,5e-324,-3.516e-320,0.0
1668680516.6800418,22864,1668680516,679689995,,-2.8432585467366204e-132,-4.6723572837254395e-136,1.2363687966255733e-304,5e-324,-1.86e-320,0.0
1668680516.6878831,22865,1668680516,687595516,,-1.5043050002459174e-132,-2.4720405511172447e-136,6.541352931292757e-305,5e-324,-9.84e-321,0.0
1668680516.695609,22866,1668680516,695384620,,-1.5043050002459174e-132,-2.4720405511172447e-136,6.541352931292757e-305,5e-324,-9.84e-321,0.0
1668680516.704367,22867,1668680516,704099214,,-7.95894392496305e-133,-1.3079017967340764e-136,3.460884671994098e-305,5e-324,-5.207e-321,0.0
1668680516.7118003,22868,1668680516,711572307,,-4.210900607945257e-133,-6.919818160454981e-137,1.8310772769260372e-305,5e-324,-2.757e-321,0.0
1668680516.7201087,22869,1668680516,719847648,,-2.2278940644849507e-133,-3.6611222259447933e-137,9.687823524448809e-306,5e-324,-1.457e-321,0.0
1668680516.728059,22870,1668680516,727870365,,-1.1787293086903943e-133,-1.9370185231031638e-137,5.1256124371999826e-306,5e-324,-7.7e-322,0.0
1668680516.7357714,22871,1668680516,735543891,,-6.236395191828567e-134,-1.0248335147774275e-137,2.711847794303612e-306,5e-324,-4.1e-322,0.0
1668680516.7434063,22872,1668680516,743172332,,-6.236395191828567e-134,-1.0248335147774275e-137,2.711847794303612e-306,5e-324,-4.1e-322,0.0
1668680516.751721,22873,1668680516,751535975,,-3.2995382995841007e-134,-5.422166698377611e-138,1.4347784873658474e-306,5e-324,-2.17e-322,0.0
1668680516.7597213,22874,1668680516,759515991,,-1.7457124918394062e-134,-2.868748072839929e-138,7.591094574452191e-307,5e-324,-1.14e-322,0.0
1668680516.7677784,22875,1668680516,767590037,,-9.236177390479997e-135,-1.517790942850439e-138,4.0162796798042625e-307,5e-324,-6e-323,0.0
1668680516.776068,22876,1668680516,775786698,,-9.236177390479997e-135,-1.517790942850439e-138,4.0162796798042625e-307,5e-324,-6e-323,0.0
1668680516.7845352,22877,1668680516,783995992,,-4.886656490527168e-135,-8.030295054519298e-139,2.124924450381081e-307,5e-324,-3e-323,0.0
1668680516.7928193,22878,1668680516,792452500,,-2.5854215057654174e-135,-4.248650907188304e-139,1.1242503709421444e-307,5e-324,-1.5e-323,0.0
1668680516.8009248,22879,1668680516,800630103,,-1.367889143718635e-135,-2.2478669100699132e-139,5.9481592220225815e-308,5e-324,-1e-323,0.0
1668680516.8077397,22880,1668680516,807509634,,-7.237197901118846e-136,-1.1892964980573561e-139,3.147039044415225e-308,5e-324,-5e-324,0.0
1668680516.815508,22881,1668680516,815261482,,-7.237197901118846e-136,-1.1892964980573561e-139,3.147039044415225e-308,5e-324,-5e-324,0.0
1668680516.823951,22882,1668680516,823728959,,-3.829040803523813e-136,-6.292303845726789e-140,1.6650285201521954e-308,5e-324,-5e-324,0.0
1668680516.8317995,22883,1668680516,831573380,,-2.025860516096107e-136,-3.3291183276517713e-140,8.809296401453944e-309,5e-324,-5e-324,0.0
1668680516.8398926,22884,1668680516,839611039,,-1.0718378417122714e-136,-1.7613626282579475e-140,4.6608032324621e-309,5e-324,-5e-324,0.0
1668680516.8478703,22885,1668680516,847649459,,-5.670856161115483e-137,-9.318978789234127e-141,2.465927558998226e-309,5e-324,-5e-324,0.0
1668680516.8556378,22886,1668680516,855377447,,-5.670856161115483e-137,-9.318978789234127e-141,2.465927558998226e-309,5e-324,-5e-324,0.0
1668680516.8644195,22887,1668680516,864093016,,-3.000324148724563e-137,-4.930464873101506e-141,1.304667548261786e-309,5e-324,-5e-324,0.0
1668680516.8718536,22888,1668680516,871627932,,-1.5874049246999507e-137,-2.6085995488016023e-141,6.90270646952386e-310,5e-324,-5e-324,0.0
1668680516.8798025,22889,1668680516,879579989,,-8.398607183936593e-138,-1.380152131928155e-141,3.6520688100112e-310,5e-324,-5e-324,0.0
1668680516.8878992,22890,1668680516,887629180,,-4.443516681378829e-138,-7.302078650365906e-142,1.9322285616437e-310,5e-324,-5e-324,0.0
1668680516.8955464,22891,1668680516,895355363,,-4.443516681378829e-138,-7.302078650365906e-142,1.9322285616437e-310,5e-324,-5e-324,0.0
1668680516.9038801,22892,1668680516,903650697,,-2.350966066785032e-138,-3.8633677681342164e-142,1.02229925246675e-310,5e-324,-5e-324,0.0
1668680516.9117608,22893,1668680516,911576717,,-1.2438439739264429e-138,-2.0440221512966634e-142,5.4087584788887e-311,5e-324,-5e-324,0.0
1668680516.920243,22894,1668680516,919744445,,-6.5809024355203254e-139,-1.08144675985874e-142,2.86165408146e-311,5e-324,-5e-324,0.0
1668680516.9284437,22895,1668680516,928056891,,-3.481809437008895e-139,-5.721694814643061e-143,1.5140376694395e-311,5e-324,-5e-324,0.0
1668680516.9358377,22896,1668680516,935530213,,-0.546101681798581,-3.0272217521082164e-143,0.29788104895738426,5e-324,-5e-324,0.0
1668680516.9436936,22897,1668680516,943413259,,-0.546101681798581,-3.0272217521082164e-143,0.29788104895738426,5e-324,-5e-324,0.0
1668680516.9517817,22898,1668680516,951599180,,-0.8350326072162277,-1.6016358497458287e-143,0.4554947125241522,5e-324,-5e-324,0.0
1668680516.9599988,22899,1668680516,959733677,,-2.286579630869421,0.0647516254162416,2.9688046642594834,5e-324,-5e-324,0.0
1668680516.967987,22900,1668680516,967744202,,-3.0545034318236497,0.09928441142544234,4.2985369034621375,5e-324,-5e-324,0.0
1668680516.9759037,22901,1668680516,975674329,,-3.3552996694445665,0.17183125249010944,5.052278472422281,5e-324,-5e-324,0.0
1668680516.983699,22902,1668680516,983477855,,-3.3552996694445665,0.17183125249010944,5.052278472422281,5e-324,-5e-324,0.0
1668680516.9918976,22903,1668680516,991655746,,-3.2316454878089154,0.09091210245936694,5.204680955377626,5e-324,-5e-324,0.0
1668680516.9996564,22904,1668680516,999456301,,-3.1662296978882445,0.04809957591421365,5.285316462351175,5e-324,-5e-324,0.0
1668680517.0078871,22905,1668680517,7629962,,-2.641521562111828,0.025448418203299707,5.000429694947288,5e-324,-5e-324,0.0
1668680517.0158768,22906,1668680517,15579801,,-2.641521562111828,0.025448418203299707,5.000429694947288,5e-324,-5e-324,0.0
1668680517.0240743,22907,1668680517,23807825,,-2.0090930849311652,0.013464193326882548,4.556576609037171,5e-324,-5e-324,0.0
1668680517.031863,22908,1668680517,31632250,,-1.6744838553390857,0.007123605895480086,4.321748285308211,5e-324,-5e-324,0.0
1668680517.0400293,22909,1668680517,39733997,,-0.9092968434431639,0.0037689417941437217,3.7332029304372094,5e-324,-5e-324,0.0
1668680517.0478683,22910,1668680517,47621066,,-0.5043967023547675,0.0019940634639342265,3.4218416947304675,5e-324,-5e-324,0.0
1668680517.0555408,22911,1668680517,55313828,,-0.5043967023547675,0.0019940634639342265,3.4218416947304675,5e-324,-5e-324,0.0
1668680517.0638535,22912,1668680517,63608931,,-0.26686510177933365,0.0010550147270450888,3.1336754776651423,5e-324,-5e-324,0.0
1668680517.0722384,22913,1668680517,71934243,,-0.14119240315255596,0.0005581848794751986,2.78659479768463,5e-324,-5e-324,0.0
1668680517.0797741,22914,1668680517,79535366,,-0.07470176720400878,0.00029532323264092807,2.6029704198209807,5e-324,-5e-324,0.0
1668680517.0880184,22915,1668680517,87641345,,-0.039523047266023556,0.00015624896865620473,2.4300595237993248,5e-324,-5e-324,0.0
1668680517.0955462,22916,1668680517,95345943,,-0.039523047266023556,0.00015624896865620473,2.4300595237993248,5e-324,-5e-324,0.0
1668680517.1046515,22917,1668680517,104138087,,-0.02091076722356985,8.266786188071887e-05,2.3289213863899425,5e-324,-5e-324,0.0
1668680517.111702,22918,1668680517,111491170,,-0.011063422891843134,4.37377311780306e-05,2.2753962105239394,5e-324,-5e-324,0.0
1668680517.1197445,22919,1668680517,119549193,,-0.005853411535555455,2.3140662950275824e-05,2.213663116834349,5e-324,-5e-324,0.0
1668680517.127665,22920,1668680517,127463749,,-0.003096910146120759,1.2243211235594318e-05,2.1809956212111405,5e-324,-5e-324,0.0
1668680517.1358974,22921,1668680517,135644717,,-0.0016385064325116832,6.477611366687153e-06,2.1494963001714606,5e-324,-5e-324,0.0
1668680517.1434355,22922,1668680517,143229670,,-0.0016385064325116832,6.477611366687153e-06,2.1494963001714606,5e-324,-5e-324,0.0
1668680517.1519659,22923,1668680517,151704202,,-0.0008668973921458674,3.4271604246970086e-06,2.1275469228804207,5e-324,-5e-324,0.0
1668680517.159838,22924,1668680517,159623596,,-0.000458656172229551,1.8132345260806142e-06,2.1159391397527285,5e-324,-5e-324,0.0
1668680517.167702,22925,1668680517,167527680,,-0.00024266480235167977,9.593421489341171e-07,2.124042125718426,5e-324,-5e-324,0.0
1668680517.1759553,22926,1668680517,175663825,,-0.00012838856177194993,5.07566641536922e-07,2.189696520208772,5e-324,-5e-324,0.0
1668680517.183487,22927,1668680517,183291395,,-0.00012838856177194993,5.07566641536922e-07,2.189696520208772,5e-324,-5e-324,0.0
1668680517.1917887,22928,1668680517,191577991,,-6.792753886895002e-05,2.6854224625416996e-07,2.2244287062288253,5e-324,-5e-324,0.0
1668680517.1996882,22929,1668680517,199489979,,-3.5938953385805477e-05,1.4207974307545068e-07,2.327144743586378,5e-324,-5e-324,0.0
1668680517.2080078,22930,1668680517,207772081,,-1.9014502688798266e-05,7.51712390656024e-08,2.3814947880063615,5e-324,-5e-324,0.0
1668680517.2156231,22931,1668680517,215356708,,-1.9014502688798266e-05,7.51712390656024e-08,2.3814947880063615,5e-324,-5e-324,0.0
1668680517.2239704,22932,1668680517,223696544,,-1.0060151407890347e-05,3.977143440959888e-08,2.4008407652070662,5e-324,-5e-324,0.0
1668680517.232162,22933,1668680517,231873565,,-5.322602857728197e-06,2.1042183349094567e-08,2.3780372546295983,5e-324,-5e-324,0.0
1668680517.2398367,22934,1668680517,239567536,,-2.816071054246419e-06,1.1132952247506788e-08,2.3659706664218505,5e-324,-5e-324,0.0
1668680517.2485023,22935,1668680517,248122660,,-1.4899207013069062e-06,5.89019797466025e-09,2.3643443221424825,5e-324,-5e-324,0.0
1668680517.25566,22936,1668680517,255458198,,-1.4899207013069062e-06,5.89019797466025e-09,2.3643443221424825,5e-324,-5e-324,0.0
1668680517.2639105,22937,1668680517,263644336,,-7.882839791401851e-07,3.1163730346962986e-09,2.3588340767102274,5e-324,-5e-324,0.0
1668680517.2718344,22938,1668680517,271592817,,-4.170635599760583e-07,1.6488038149417887e-09,2.3559004353446777,5e-324,-5e-324,0.0
1668680517.2803648,22939,1668680517,279973842,,-2.206590742204721e-07,8.723455086728822e-10,2.3359337897367345,5e-324,-5e-324,0.0
1668680517.2887914,22940,1668680517,288526023,,-1.1674581936295493e-07,4.6153864978085124e-10,2.3253695989688214,5e-324,-5e-324,0.0
1668680517.2967353,22941,1668680517,296508067,,-6.176762223297312e-08,2.4418985725690263e-10,2.3429518394549174,5e-324,-5e-324,0.0
1668680517.303912,22942,1668680517,303631269,,-6.176762223297312e-08,2.4418985725690263e-10,2.3429518394549174,5e-324,-5e-324,0.0
1668680517.3120997,22943,1668680517,311898762,,-3.267987819293086e-08,1.2919543447869319e-10,2.4188463995685114,5e-324,-5e-324,0.0
1668680517.3197486,22944,1668680517,319570296,,-1.7290198328772415e-08,6.83544373121848e-11,2.459024189502351,5e-324,-5e-324,0.0
1668680517.3278093,22945,1668680517,327592832,,-9.147860236301369e-09,3.616481587850504e-11,2.5554004651016333,5e-324,-5e-324,0.0
1668680517.335478,22946,1668680517,335264854,,-9.147860236301369e-09,3.616481587850504e-11,2.5554004651016333,5e-324,-5e-324,0.0
1668680517.3440533,22947,1668680517,343785962,,-0.05586108746434297,1.913400152140564e-11,2.7145028997162406,5e-324,-5e-324,0.0
1668680517.351766,22948,1668680517,351576267,,-0.08544620163161555,1.012337558833681e-11,2.7986675841012767,5e-324,-5e-324,0.0
1668680517.3598,22949,1668680517,359568885,,-0.09532544537808163,5.356053368548335e-12,2.914351327955591,5e-324,-5e-324,0.0
1668680517.3677564,22950,1668680517,367541824,,-0.1005780797654644,2.833768977196574e-12,2.9755459835855524,5e-324,-5e-324,0.0
1668680517.3760784,22951,1668680517,375832154,,-0.10080183241032953,1.4992842795922653e-12,3.0750395721518817,5e-324,-5e-324,0.0
1668680517.3837054,22952,1668680517,383497439,,-0.10080183241032953,1.4992842795922653e-12,3.0750395721518817,5e-324,-5e-324,0.0
1668680517.3921869,22953,1668680517,391865143,,-0.053332012561028715,7.932380406169462e-13,3.24481310056823,5e-324,-5e-324,0.0
1668680517.3999758,22954,1668680517,399733986,,-0.0282167843162964,4.196846439642067e-13,3.334652107149492,5e-324,-5e-324,0.0
1668680517.4080117,22955,1668680517,407751209,,-0.014928874402429508,2.2204583159220732e-13,3.3446826350179513,5e-324,-5e-324,0.0
1668680517.4155414,22956,1668680517,415309951,,-0.014928874402429508,2.2204583159220732e-13,3.3446826350179513,5e-324,-5e-324,0.0
1668680517.4237452,22957,1668680517,423549830,,-0.0078985361487417,1.174795219137917e-13,3.1098955405551623,5e-324,-5e-324,0.0
1668680517.4319596,22958,1668680517,431740496,,-0.004178940194099738,6.21558079704903e-14,2.985679101058764,5e-324,-5e-324,0.0
1668680517.439917,22959,1668680517,439705602,,-0.002210984518776234,3.288525865213724e-14,2.739903416370602,5e-324,-5e-324,0.0
1668680517.4478595,22960,1668680517,447585724,,-0.0011697828433080233,1.739886057199035e-14,2.6098744482459413,5e-324,-5e-324,0.0
1668680517.4554503,22961,1668680517,455205935,,-0.0011697828433080233,1.739886057199035e-14,2.6098744482459413,5e-324,-5e-324,0.0
1668680517.4637039,22962,1668680517,463497934,,-0.0006189061428866086,9.20535101778457e-15,2.493487083723066,5e-324,-5e-324,0.0
1668680517.4719636,22963,1668680517,471745215,,-0.0003274495056018847,4.870346940824627e-15,2.3893327273477976,5e-324,-5e-324,0.0
1668680517.4799309,22964,1668680517,479651093,,-0.00017324626674219867,2.5767924849549633e-15,2.3342256710783316,5e-324,-5e-324,0.0
1668680517.4879384,22965,1668680517,487663875,,-9.166075509852991e-05,1.3633237203007433e-15,2.3052499295933417,5e-324,-5e-324,0.0
1668680517.4961019,22966,1668680517,495866062,,-4.849567141169585e-05,7.213043258961323e-16,2.300139509340047,5e-324,-5e-324,0.0
1668680517.503588,22967,1668680517,503367883,,-4.849567141169585e-05,7.213043258961323e-16,2.300139509340047,5e-324,-5e-324,0.0
1668680517.511808,22968,1668680517,511603067,,-2.565798354097231e-05,3.8162611183916196e-16,2.297436822889961,5e-324,-5e-324,0.0
1668680517.5200646,22969,1668680517,519818324,,-1.3575069696427257e-05,2.0190990682960145e-16,2.3241364713723134,5e-324,-5e-324,0.0
1668680517.5282936,22970,1668680517,527700969,,-7.182268122067484e-06,1.0682605097294818e-16,2.338253987204048,5e-324,-5e-324,0.0
1668680517.5356863,22971,1668680517,535437966,,-7.182268122067484e-06,1.0682605097294818e-16,2.338253987204048,5e-324,-5e-324,0.0
1668680517.544507,22972,1668680517,544204387,,-3.7999786764146876e-06,5.651929291466479e-17,2.3502323783960057,5e-324,-5e-324,0.0
1668680517.5525393,22973,1668680517,552242897,,-2.0104843895816127e-06,2.990310362013299e-17,2.362113425821452,5e-324,-5e-324,0.0
1668680517.5603423,22974,1668680517,560035500,,-1.0637026743963354e-06,1.5821068523742945e-17,2.368396231549102,5e-324,-5e-324,0.0
1668680517.568805,22975,1668680517,568497263,,-5.627814796181416e-07,8.370576258995572e-18,2.362283805040116,5e-324,-5e-324,0.0
1668680517.576857,22976,1668680517,576589034,,-2.977551917700395e-07,4.428686141047317e-18,2.340070334122029,5e-324,-5e-324,0.0
1668680517.5840905,22977,1668680517,583840518,,-2.977551917700395e-07,4.428686141047317e-18,2.340070334122029,5e-324,-5e-324,0.0
1668680517.591906,22978,1668680517,591666897,,-1.5753566426203172e-07,2.343119557011009e-18,2.328320612510361,5e-324,-5e-324,0.0
1668680517.5999002,22979,1668680517,599655082,,-8.334862397175754e-08,1.2396925597326514e-18,2.326507592234499,5e-324,-5e-324,0.0
1668680517.6076553,22980,1668680517,607470332,,-4.40979072931091e-08,6.558938224291697e-19,2.3255543367676297,5e-324,-5e-324,0.0
1668680517.6157608,22981,1668680517,615563510,,-2.3331224139831945e-08,3.470188660271723e-19,2.3200925397278955,5e-324,-5e-324,0.0
1668680517.6235366,22982,1668680517,623301252,,-2.3331224139831945e-08,3.470188660271723e-19,2.3200925397278955,5e-324,-5e-324,0.0
1668680517.631758,22983,1668680517,631577923,,-1.2344032932105563e-08,1.835999810652112e-19,2.279507589257947,5e-324,-5e-324,0.0
1668680517.6399539,22984,1668680517,639714477,,-6.530953888903158e-09,9.713867557997965e-20,2.258040637154444,5e-324,-5e-324,0.0
1668680517.6480603,22985,1668680517,647835309,,-3.4553827694385254e-09,5.139391757388622e-20,2.2654370849326293,5e-324,-5e-324,0.0
1668680517.6558867,22986,1668680517,655639805,,-1.8281663423806324e-09,2.7191381268284363e-20,2.2454811059287154,5e-324,-5e-324,0.0
1668680517.663721,22987,1668680517,663503432,,-1.8281663423806324e-09,2.7191381268284363e-20,2.2454811059287154,5e-324,-5e-324,0.0
1668680517.6722987,22988,1668680517,672041765,,-9.67242241575587e-10,1.4386356405196245e-20,2.2349274575224287,5e-324,-5e-324,0.0
1668680517.680124,22989,1668680517,679764804,,-5.11746405236783e-10,7.611501915819725e-21,2.186608709592326,5e-324,-5e-324,0.0
1668680517.687664,22990,1668680517,687447893,,-2.707536664715694e-10,4.027076751247568e-21,2.1610526068019142,5e-324,-5e-324,0.0
1668680517.6953642,22991,1668680517,695222598,,-2.707536664715694e-10,4.027076751247568e-21,2.1610526068019142,5e-324,-5e-324,0.0
1668680517.7036874,22992,1668680517,703486384,,-1.4324975643723137e-10,2.130636941276015e-21,2.1576286315766255,5e-324,-5e-324,0.0
1668680517.7117512,22993,1668680517,711547580,,-7.579026717069729e-11,1.1272727231045856e-21,2.1372405952027007,5e-324,-5e-324,0.0
1668680517.719866,22994,1668680517,719596465,,-4.0098948442698614e-11,5.964149816601758e-22,2.1264342619351777,5e-324,-5e-324,0.0
1668680517.7281334,22995,1668680517,727697694,,-2.12154637559039e-11,3.1554993131480736e-22,2.1112760718419916,5e-324,-5e-324,0.0
1668680517.7361066,22996,1668680517,735888058,,-1.1224631065357211e-11,1.669504660590727e-22,2.1359669316853354,5e-324,-5e-324,0.0
1668680517.7434335,22997,1668680517,743225909,,-1.1224631065357211e-11,1.669504660590727e-22,2.1359669316853354,5e-324,-5e-324,0.0
1668680517.7518556,22998,1668680517,751647195,,-5.938703202673128e-12,8.832978667181111e-23,2.149039011965226,5e-324,-5e-324,0.0
1668680517.7598224,22999,1668680517,759636851,,-3.142036074422879e-12,4.673332993707844e-23,2.179691975126102,5e-324,-5e-324,0.0
1668680517.7676032,23000,1668680517,767405565,,-1.6623815597538158e-12,2.4725567776162402e-23,2.1959168675013725,5e-324,-5e-324,0.0
1668680517.775428,23001,1668680517,775210842,,-1.6623815597538158e-12,2.4725567776162402e-23,2.1959168675013725,5e-324,-5e-324,0.0
1668680517.7837641,23002,1668680517,783592682,,-8.795291921392481e-13,1.3081749207187347e-23,2.209411004973993,5e-324,-5e-324,0.0
1668680517.7920065,23003,1668680517,791794803,,-4.653393772845253e-13,6.921263198846866e-24,2.2301543201160587,5e-324,-5e-324,0.0
1668680517.7998474,23004,1668680517,799622836,,-2.462007378343694e-13,3.661886763690035e-24,2.241143429882499,5e-324,-5e-324,0.0
1668680517.808051,23005,1668680517,807814849,,-1.3025934676730745e-13,1.937423023057754e-24,2.233230640384546,5e-324,-5e-324,0.0
1668680517.8155282,23006,1668680517,815303940,,-1.3025934676730745e-13,1.937423023057754e-24,2.233230640384546,5e-324,-5e-324,0.0
1668680517.8240762,23007,1668680517,823787800,,-6.891732969403394e-14,1.0250475267268465e-24,2.186982956725278,5e-324,-5e-324,0.0
1668680517.8320267,23008,1668680517,831780876,,-3.6462629746184385e-14,5.423298988109027e-25,2.162538619413998,5e-324,-5e-324,0.0
1668680517.8398547,23009,1668680517,839666114,,-1.9291568229789165e-14,2.869347142209351e-25,2.1403444198857757,5e-324,-5e-324,0.0
1668680517.8478994,23010,1668680517,847683180,,-1.0206740637064326e-14,1.5181078971594134e-25,2.1286020062234328,5e-324,-5e-324,0.0
1668680517.8562632,23011,1668680517,856030441,,-5.400159965815222e-15,8.03197198943043e-26,2.0943287854664656,5e-324,-5e-324,0.0
1668680517.8635108,23012,1668680517,863299907,,-5.400159965815222e-15,8.03197198943043e-26,2.0943287854664656,5e-324,-5e-324,0.0
1668680517.8718383,23013,1668680517,871590195,,-2.857104799008686e-15,4.2495381362356934e-26,2.081323997049653,5e-324,-5e-324,0.0
1668680517.880084,23014,1668680517,879827491,,-1.511630745050744e-15,2.2483363232697374e-26,2.0744496638875156,5e-324,-5e-324,0.0
1668680517.8885238,23015,1668680517,888256193,,-7.997702815015714e-16,1.189544854164291e-26,2.0990905129134694,5e-324,-5e-324,0.0
1668680517.895803,23016,1668680517,895571216,,-4.231407076545211e-16,6.293617842774059e-27,2.2252442789561355,5e-324,-5e-324,0.0
1668680517.9035723,23017,1668680517,903307073,,-4.231407076545211e-16,6.293617842774059e-27,2.2252442789561355,5e-324,-5e-324,0.0
1668680517.911954,23018,1668680517,911665697,,-2.2387435819471256e-16,3.329813534329612e-27,2.2919971933661296,5e-324,-5e-324,0.0
1668680517.9197917,23019,1668680517,919564618,,-0.004935982633750999,1.7617304466833525e-27,2.5384777912855414,5e-324,-5e-324,0.0
1668680517.9279356,23020,1668680517,927675913,,-0.007593028628684731,9.320924834897666e-28,2.668878115498477,5e-324,-5e-324,0.0
1668680517.935576,23021,1668680517,935358198,,-0.007593028628684731,9.320924834897666e-28,2.668878115498477,5e-324,-5e-324,0.0
1668680517.943959,23022,1668680517,943726794,,-0.08170114651306806,4.931494482675959e-28,2.7826554142829414,5e-324,-5e-324,0.0
1668680517.9522192,23023,1668680517,951978437,,-0.32720013270157705,2.609144292378626e-28,3.089413960732397,5e-324,-5e-324,0.0
1668680517.9606068,23024,1668680517,959803911,,-0.4571735091003104,1.3804403436659546e-28,3.2516811598341158,5e-324,-5e-324,0.0
1668680517.9681258,23025,1668680517,967810382,,-0.6604401237805468,7.303603514711425e-29,3.4409292458993628,5e-324,-5e-324,0.0
1668680517.9758956,23026,1668680517,975665305,,-0.6604401237805468,7.303603514711425e-29,3.4409292458993628,5e-324,-5e-324,0.0
1668680517.9838939,23027,1668680517,983671579,,-0.6242090342848495,3.864174540020049e-29,3.4314004932621245,5e-324,-5e-324,0.0
1668680517.9916556,23028,1668680517,991491402,,-0.6052502885270696,2.0444489963977918e-29,3.426284353991711,5e-324,-5e-324,0.0
1668680517.9998717,23029,1668680517,999655536,,-0.37937451204550293,1.0816725941293148e-29,3.2292426107793757,5e-324,-5e-324,0.0
1668680518.0077145,23030,1668680518,7526122,,-0.2599658153295075,5.722889653652135e-30,3.1249650274205694,5e-324,-5e-324,0.0
1668680518.0155795,23031,1668680518,15343294,,-0.2599658153295075,5.722889653652135e-30,3.1249650274205694,5e-324,-5e-324,0.0
1668680518.024005,23032,1668680518,23788328,,-0.1781070806093276,3.0278539149123705e-30,3.035647705153231,5e-324,-5e-324,0.0
1668680518.032386,23033,1668680518,32044080,,-0.0942325038457479,1.601970313056719e-30,2.776582493648065,5e-324,-5e-324,0.0
1668680518.0399537,23034,1668680518,39755775,,-0.04985632660228924,8.475669421420268e-31,2.6395143754463626,5e-324,-5e-324,0.0
1668680518.048485,23035,1668680518,48041633,,-0.026377876007019577,4.484288601086899e-31,2.5015576614363453,5e-324,-5e-324,0.0
1668680518.0556164,23036,1668680518,55420596,,-0.026377876007019577,4.484288601086899e-31,2.5015576614363453,5e-324,-5e-324,0.0
1668680518.064005,23037,1668680518,63774962,,-0.013955948824551999,2.3725375847030455e-31,2.476068924030387,5e-324,-5e-324,0.0
1668680518.0718877,23038,1668680518,71656994,,-0.007383782816390649,1.2552569853475137e-31,2.462565349671689,5e-324,-5e-324,0.0
1668680518.0799305,23039,1668680518,79680164,,-0.00390659562922093,6.641286146204273e-32,2.5639359927333842,5e-324,-5e-324,0.0
1668680518.0877478,23040,1668680518,87552253,,-0.002066893053296524,3.513757118312631e-32,2.617587506792157,5e-324,-5e-324,0.0
1668680518.0959723,23041,1668680518,95718520,,-0.0010935472465619324,1.8590509149420005e-32,2.680465861817159,5e-324,-5e-324,0.0
1668680518.1046064,23042,1668680518,103961278,,-0.0010935472465619324,1.8590509149420005e-32,2.680465861817159,5e-324,-5e-324,0.0
1668680518.112154,23043,1668680518,111764528,,-0.000578571580448204,9.835825835356416e-33,2.84225518372939,5e-324,-5e-324,0.0
1668680518.1202393,23044,1668680518,120006273,,-0.0003061093837095355,5.20391717547354e-33,2.927815533322682,5e-324,-5e-324,0.0
1668680518.1280804,23045,1668680518,127850841,,-0.00016195568182322825,2.7532770936063642e-33,2.9782592637903607,5e-324,-5e-324,0.0
1668680518.1355186,23046,1668680518,135307240,,-0.00016195568182322825,2.7532770936063642e-33,2.9782592637903607,5e-324,-5e-324,0.0
1668680518.1439931,23047,1668680518,143749653,,-8.56871571755403e-05,1.4566978102390155e-33,3.060612035240017,5e-324,-5e-324,0.0
1668680518.153655,23048,1668680518,151579638,,-4.533517331512781e-05,7.707064847496678e-34,3.104198070941813,5e-324,-5e-324,0.0
1668680518.1599195,23049,1668680518,159609065,,-2.3985834135005742e-05,4.07763697769085e-34,3.080614979050859,5e-324,-5e-324,0.0
1668680518.1680562,23050,1668680518,167838483,,-1.2690372553622269e-05,2.157387235068147e-34,3.0681106554461532,5e-324,-5e-324,0.0
1668680518.1756754,23051,1668680518,175426563,,-1.2690372553622269e-05,2.157387235068147e-34,3.0681106554461532,5e-324,-5e-324,0.0
1668680518.183841,23052,1668680518,183630507,,-6.714194496771493e-06,1.1414257099146446e-34,3.0845902943100834,5e-324,-5e-324,0.0
1668680518.1920066,23053,1668680518,191772035,,-3.552331308635152e-06,6.03903012902084e-35,2.9910486800457,5e-324,-5e-324,0.0
1668680518.199874,23054,1668680518,199606023,,-1.8794596630135422e-06,3.1951168247251647e-35,2.941579401467477,5e-324,-5e-324,0.0
1668680518.2077606,23055,1668680518,207597933,,-9.943803992348214e-07,1.690465406784956e-35,2.9767572242592815,5e-324,-5e-324,0.0
1668680518.2155864,23056,1668680518,215266344,,-9.943803992348214e-07,1.690465406784956e-35,2.9767572242592815,5e-324,-5e-324,0.0
1668680518.2241461,23057,1668680518,223902505,,-5.261046022115549e-07,8.943877323742101e-36,3.123554608603535,5e-324,-5e-324,0.0
1668680518.2317607,23058,1668680518,231551996,,-2.783502698576582e-07,4.732007011860969e-36,3.2012661831227085,5e-324,-5e-324,0.0
1668680518.2401364,23059,1668680518,239877126,,-0.008572607702745191,2.5035998985429567e-36,3.3492329836522376,5e-324,-5e-324,0.0
1668680518.2479112,23060,1668680518,247622445,,-0.013127517004302312,1.324599147100432e-36,3.4275093835884856,5e-324,-5e-324,0.0
1668680518.2561269,23061,1668680518,255778877,,-0.013127517004302312,1.324599147100432e-36,3.4275093835884856,5e-324,-5e-324,0.0
1668680518.264029,23062,1668680518,263757321,,-0.015246809126114293,7.008160135812081e-37,3.5018944990941243,5e-324,-5e-324,0.0
1668680518.2719653,23063,1668680518,271739168,,-0.008066748355521056,3.7078620046447705e-37,3.574170396772112,5e-324,-5e-324,0.0
1668680518.27969,23064,1668680518,279459086,,-0.004267937539786438,1.9617475027766666e-37,3.6123934529496244,5e-324,-5e-324,0.0
1668680518.2879772,23065,1668680518,287686275,,-0.03053371016231316,1.0379170691437818e-37,3.656162252915802,5e-324,-5e-324,0.0
1668680518.2957523,23066,1668680518,295512394,,-0.057400954070099514,5.491388881062636e-38,3.6701900332984616,5e-324,-5e-324,0.0
1668680518.3041017,23067,1668680518,303713477,,-0.057400954070099514,5.491388881062636e-38,3.6701900332984616,5e-324,-5e-324,0.0
1668680518.312124,23068,1668680518,311805779,,-0.07169567586657971,2.905371993538431e-38,3.6775940435464216,5e-324,-5e-324,0.0
1668680518.3200035,23069,1668680518,319684769,,-0.09167199517044837,1.537167846543774e-38,3.630030041388289,5e-324,-5e-324,0.0
1668680518.3277595,23070,1668680518,327519854,,-0.10220344135155462,8.132813951890143e-39,3.6048896196585773,5e-324,-5e-324,0.0
1668680518.3356812,23071,1668680518,335419745,,-0.10220344135155462,8.132813951890143e-39,3.6048896196585773,5e-324,-5e-324,0.0
1668680518.3440707,23072,1668680518,343806417,,-0.09945724850539903,4.302891380715296e-39,3.5960703817670576,5e-324,-5e-324,0.0
1668680518.3517985,23073,1668680518,351565829,,-0.1268829510469808,2.2765643409229783e-39,3.630250794596004,5e-324,-5e-324,0.0
1668680518.3598127,23074,1668680518,359564173,,-0.1413052930044772,1.2044796718760108e-39,3.6483373661257903,5e-324,-5e-324,0.0
1668680518.368095,23075,1668680518,367851833,,-0.16886869166925522,6.372634648992008e-40,3.7097345388806344,5e-324,-5e-324,0.0
1668680518.3757007,23076,1668680518,375460308,,-0.16886869166925522,6.372634648992008e-40,3.7097345388806344,5e-324,-5e-324,0.0
1668680518.3839831,23077,1668680518,383682417,,-0.2524829062746224,-0.022695385375620325,3.837590681300457,5e-324,-5e-324,0.0
1668680518.3918083,23078,1668680518,391571889,,-0.2964950958302876,-0.03452355064288763,3.905335423728312,5e-324,-5e-324,0.0
1668680518.4000432,23079,1668680518,399819646,,-0.3917497566297219,-0.06978400129971946,3.8997172012887225,5e-324,-5e-324,0.0
1668680518.408182,23080,1668680518,407915146,,-0.4419981767255149,-0.08801245334494462,3.896887044507581,5e-324,-5e-324,0.0
1668680518.4155056,23081,1668680518,415253722,,-0.4419981767255149,-0.08801245334494462,3.896887044507581,5e-324,-5e-324,0.0
1668680518.4239156,23082,1668680518,423642132,,-0.4620948089114994,-0.08249856850574164,3.8714977652871445,5e-324,-5e-324,0.0
1668680518.43192,23083,1668680518,431704630,,-0.40666921643438025,-0.05471932583934005,3.762820441254891,5e-324,-5e-324,0.0
1668680518.4396274,23084,1668680518,439448952,,-0.3773108067857688,-0.04014463456557292,3.705304455627188,5e-324,-5e-324,0.0
1668680518.4477293,23085,1668680518,447525170,,-0.20998092706342264,-0.10598257300904446,3.581063174084462,5e-324,-5e-324,0.0
1668680518.4561214,23086,1668680518,455877881,,-0.11896085376609253,-0.10139691617641905,3.5475073892510594,5e-324,-5e-324,0.0
1668680518.463519,23087,1668680518,463249381,,-0.11896085376609253,-0.10139691617641905,3.5475073892510594,5e-324,-5e-324,0.0
1668680518.4717062,23088,1668680518,471511842,,-0.0707245726565212,-0.09885855276349394,3.5297989761274264,5e-324,-5e-324,0.0
1668680518.480055,23089,1668680518,479817971,,-0.08220537739467769,-0.12784982328036376,3.558951776141255,5e-324,-5e-324,0.0
1668680518.4879072,23090,1668680518,487606063,,-0.0882538928980591,-0.14303258471438052,3.574421397668761,5e-324,-5e-324,0.0
1668680518.4958928,23091,1668680518,495683399,,-0.09995277311417,-0.18105032057602724,3.6021100868722895,5e-324,-5e-324,0.0
1668680518.5036278,23092,1668680518,503401015,,-0.09995277311417,-0.18105032057602724,3.6021100868722895,5e-324,-5e-324,0.0
1668680518.5118916,23093,1668680518,511656155,,-0.05288279412952729,-0.2663534157010043,3.6083010348516185,5e-324,-5e-324,0.0
1668680518.5199037,23094,1668680518,519699039,,-0.02797911281312416,-0.31173280906231154,3.6115040243934504,5e-324,-5e-324,0.0
1668680518.5280626,23095,1668680518,527862584,,-0.08973358780023859,-0.28487828625606254,3.5797520095453175,5e-324,-5e-324,0.0
1668680518.5356667,23096,1668680518,535327042,,-0.08973358780023859,-0.28487828625606254,3.5797520095453175,5e-324,-5e-324,0.0
1668680518.544028,23097,1668680518,543742665,,-0.04747604996135062,-0.24875387820853923,3.504668134243687,5e-324,-5e-324,0.0
1668680518.551889,23098,1668680518,551669501,,-0.025118524458760887,-0.2294695899754958,3.465002419744173,5e-324,-5e-324,0.0
1668680518.5599675,23099,1668680518,559700522,,-0.013289653867560713,-0.2662061422420656,3.4119511757010024,5e-324,-5e-324,0.0
1668680518.5679505,23100,1668680518,567696504,,-0.007031260940885854,-0.2856524186554946,3.3838720556967496,5e-324,-5e-324,0.0
1668680518.5758455,23101,1668680518,575623137,,-0.003720084127962422,-0.3179070401375731,3.3556243048860477,5e-324,-5e-324,0.0
1668680518.583426,23102,1668680518,583219922,,-0.003720084127962422,-0.3179070401375731,3.3556243048860477,5e-324,-5e-324,0.0
1668680518.5927207,23103,1668680518,592440987,,-0.0019682139569939475,-0.3631395518843844,3.3262725357445166,5e-324,-5e-324,0.0
1668680518.6002626,23104,1668680518,600046746,,-0.0010413383265683244,-0.3870949889991808,3.3107444566449424,5e-324,-5e-324,0.0
1668680518.608682,23105,1668680518,608410082,,-0.0005509489994859602,-0.4056899098481769,3.255339878167947,5e-324,-5e-324,0.0
1668680518.616138,23106,1668680518,615901229,,-0.0005509489994859602,-0.4056899098481769,3.255339878167947,5e-324,-5e-324,0.0
1668680518.6249232,23107,1668680518,624640974,,-0.0002914948891153335,-0.4158296392553984,3.216576291907783,5e-324,-5e-324,0.0
1668680518.6323323,23108,1668680518,632081157,,-0.00015422347705438717,-0.42123843325102084,3.1960510414356005,5e-324,-5e-324,0.0
1668680518.640483,23109,1668680518,640305875,,-8.159621922336453e-05,-0.43171014684617115,3.227646921188388,5e-324,-5e-324,0.0
1668680518.651084,23110,1668680518,648437689,,-4.3170748829631355e-05,-0.43705846384595726,3.2444412440836135,5e-324,-5e-324,0.0
1668680518.655703,23111,1668680518,655520345,,-4.3170748829631355e-05,-0.43705846384595726,3.2444412440836135,5e-324,-5e-324,0.0
1668680518.663952,23112,1668680518,663645599,,-2.2840685172058255e-05,-0.4429622508307714,3.300351278722731,5e-324,-5e-324,0.0
1668680518.67224,23113,1668680518,671890686,,-1.2084499650165943e-05,-0.4095263571738381,3.3672710085404898,5e-324,-5e-324,0.0
1668680518.6799564,23114,1668680518,679703230,,-6.393640588922011e-06,-0.391841757159145,3.402668743764428,5e-324,-5e-324,0.0
1668680518.6880064,23115,1668680518,687808689,,-3.38273334963849e-06,-0.37179016354330297,3.364550523388158,5e-324,-5e-324,0.0
1668680518.6954985,23116,1668680518,695295416,,-3.38273334963849e-06,-0.37179016354330297,3.364550523388158,5e-324,-5e-324,0.0
1668680518.703698,23117,1668680518,703546479,,-1.789729146580907e-06,-0.34393351230810765,3.3153263588773867,5e-324,-5e-324,0.0
1668680518.7117684,23118,1668680518,711542895,,-9.469059742659107e-07,-0.3293648400344572,3.2892227435241486,5e-324,-5e-324,0.0
1668680518.720079,23119,1668680518,719846191,,-5.009869375002327e-07,-0.3219907020951197,3.2565957191908,5e-324,-5e-324,0.0
1668680518.7279007,23120,1668680518,727679921,,-2.6506107086338797e-07,-0.31815696299487306,3.2393165657971275,5e-324,-5e-324,0.0
1668680518.7354777,23121,1668680518,735265101,,-2.6506107086338797e-07,-0.31815696299487306,3.2393165657971275,5e-324,-5e-324,0.0
1668680518.7441852,23122,1668680518,743778877,,-1.4023793042950018e-07,-0.3100411120974548,3.268225916713925,5e-324,-5e-324,0.0
1668680518.7518623,23123,1668680518,751668432,,-7.41967768676431e-08,-0.3803117654064825,3.322325155108708,5e-324,-5e-324,0.0
1668680518.760092,23124,1668680518,759798132,,-3.925586808566282e-08,-0.41756644990709607,3.350921089982002,5e-324,-5e-324,0.0
1668680518.76793,23125,1668680518,767701293,,-2.0769408648409822e-08,-0.3912696635510764,3.4458768484231586,5e-324,-5e-324,0.0
1668680518.7758934,23126,1668680518,775558094,,-1.0988633206717615e-08,-0.3799753418889667,3.5532402233639084,5e-324,-5e-324,0.0
1668680518.7838855,23127,1668680518,783569329,,-1.0988633206717615e-08,-0.3799753418889667,3.5532402233639084,5e-324,-5e-324,0.0
1668680518.7920458,23128,1668680518,791815353,,-5.813841972868212e-09,-0.3741626062604307,3.6100002871896106,5e-324,-5e-324,0.0
1668680518.799905,23129,1668680518,799685531,,-3.07597476862008e-09,-0.3946698924905712,3.6407505141702305,5e-324,-5e-324,0.0
1668680518.8079069,23130,1668680518,807663250,,-1.6274299888683662e-09,-0.40549755403588505,3.657005615648972,5e-324,-5e-324,0.0
1668680518.8159094,23131,1668680518,815678452,,-8.610370916196601e-10,-0.41961276717678425,3.5755260877400485,5e-324,-5e-324,0.0
1668680518.8237457,23132,1668680518,823520736,,-8.610370916196601e-10,-0.41961276717678425,3.5755260877400485,5e-324,-5e-324,0.0
1668680518.832141,23133,1668680518,831938724,,-4.5555561727135497e-10,-0.3941587240795259,3.408179591396407,5e-324,-5e-324,0.0
1668680518.840416,23134,1668680518,840090251,,-2.410243675299838e-10,-0.38081305825905337,3.3196008218720756,5e-324,-5e-324,0.0
1668680518.8482656,23135,1668680518,847898204,,-1.2752064411188093e-10,-0.3653355827964253,3.210979382152199,5e-324,-5e-324,0.0
1668680518.856124,23136,1668680518,855924767,,-6.746834289560386e-11,-0.29216918498876665,3.1803387395287483,5e-324,-5e-324,0.0
1668680518.8635685,23137,1668680518,863339115,,-6.746834289560386e-11,-0.29216918498876665,3.1803387395287483,5e-324,-5e-324,0.0
1668680518.8717325,23138,1668680518,871525183,,-3.5696002986662116e-11,-0.2534736205381656,3.1641245585265767,5e-324,-5e-324,0.0
1668680518.879778,23139,1668680518,879575654,,-1.8885963024101728e-11,-0.2508990559866379,3.1842408865483978,5e-324,-5e-324,0.0
1668680518.8879218,23140,1668680518,887650382,,-9.992143923817232e-12,-0.24958169967778912,3.1948705491281477,5e-324,-5e-324,0.0
1668680518.895705,23141,1668680518,895528166,,-5.28662160710899e-12,-0.30499468255778106,3.230239992193095,5e-324,-5e-324,0.0
1668680518.903542,23142,1668680518,903344244,,-5.28662160710899e-12,-0.30499468255778106,3.230239992193095,5e-324,-5e-324,0.0
1668680518.9119482,23143,1668680518,911743747,,-2.797034173030077e-12,-0.4048398993174899,3.382783607052315,5e-324,-5e-324,0.0
1668680518.919808,23144,1668680518,919596336,,-1.4798487099167106e-12,-0.45749206697345707,3.4635482312286148,5e-324,-5e-324,0.0
1668680518.9277751,23145,1668680518,927575622,,-7.829551120105688e-13,-0.505098582073781,3.5727936274167424,5e-324,-5e-324,0.0
1668680518.935629,23146,1668680518,935379283,,-7.829551120105688e-13,-0.505098582073781,3.5727936274167424,5e-324,-5e-324,0.0
1668680518.9437892,23147,1668680518,943603800,,-4.1424417463457095e-13,-0.5018605148950055,3.658366272108146,5e-324,-5e-324,0.0
1668680518.9519286,23148,1668680518,951639246,,-2.1916740000333579e-13,-0.5004088108857636,3.7035443438370925,5e-324,-5e-324,0.0
1668680518.9599226,23149,1668680518,959693025,,-1.1595660763750294e-13,-0.4744099620838397,3.7363760770226255,5e-324,-5e-324,0.0
1668680518.9678755,23150,1668680518,967593365,,-6.13500678230118e-14,-0.4605152125180584,3.7537986032868726,5e-324,-5e-324,0.0
1668680518.976032,23151,1668680518,975625671,,-6.13500678230118e-14,-0.4605152125180584,3.7537986032868726,5e-324,-5e-324,0.0
1668680518.9849098,23152,1668680518,984610933,,-3.245895942087599e-14,-0.5033885479397979,3.7399600224621485,5e-324,-5e-324,0.0
1668680518.9920878,23153,1668680518,991845451,,-1.7173315109048428e-14,-0.592742992852285,3.6913879372261498,5e-324,-5e-324,0.0
1668680518.9997644,23154,1668680518,999555418,,-9.086019918586526e-15,-0.6399854850205217,3.6656999495964806,5e-324,-5e-324,0.0
1668680519.0080464,23155,1668680519,7837899,,-4.807211504402746e-15,-0.6872044767320146,3.6809937549802143,5e-324,-5e-324,0.0
1668680519.0155895,23156,1668680519,15387745,,-4.807211504402746e-15,-0.6872044767320146,3.6809937549802143,5e-324,-5e-324,0.0
1668680519.024019,23157,1668680519,23778492,,-2.5433889266288478e-15,-0.7128683543747285,3.7310368668810114,5e-324,-5e-324,0.0
1668680519.031728,23158,1668680519,31538589,,-1.3456506388732187e-15,-0.7265276174564896,3.7574895870125595,5e-324,-5e-324,0.0
1668680519.0401332,23159,1668680519,39849570,,-7.119538907091203e-16,-0.7588702556849254,3.762581028429514,5e-324,-5e-324,0.0
1668680519.0480857,23160,1668680519,47825805,,-3.7667900408406817e-16,-0.7759709712250387,3.7652841282318894,5e-324,-5e-324,0.0
1668680519.0555692,23161,1668680519,55320996,,-3.7667900408406817e-16,-0.7759709712250387,3.7652841282318894,5e-324,-5e-324,0.0
1668680519.063797,23162,1668680519,63569254,,-1.992925019012721e-16,-0.6732533152640214,3.7645321692693035,5e-324,-5e-324,0.0
1668680519.0720978,23163,1668680519,71864362,,-1.0544124011011852e-16,-0.45913775554841857,3.6666792599845888,5e-324,-5e-324,0.0
1668680519.079864,23164,1668680519,79605442,,-5.578662021849352e-17,-0.3460953673530391,3.6148371419502565,5e-324,-5e-324,0.0
1668680519.087765,23165,1668680519,87567604,,-2.951546275586508e-17,-0.23795176322226,3.501768752919194,5e-324,-5e-324,0.0
1668680519.095545,23166,1668680519,95303088,,-2.951546275586508e-17,-0.23795176322226,3.501768752919194,5e-324,-5e-324,0.0
1668680519.1039913,23167,1668680519,103737098,,-1.5615976344881067e-17,-0.12589499735907642,3.3969590345928524,5e-324,-5e-324,0.0
1668680519.1119602,23168,1668680519,111704023,,-8.262066538510475e-18,-0.06660824927461248,3.3415180293878226,5e-324,-5e-324,0.0
1668680519.1200535,23169,1668680519,119786676,,-4.371276055957317e-18,-0.03524094653876294,3.3235615379147987,5e-324,-5e-324,0.0
1668680519.1280572,23170,1668680519,127744513,,-2.3127451550191274e-18,-0.01864520275600913,3.314053034896182,5e-324,-5e-324,0.0
1668680519.1359863,23171,1668680519,135652513,,-1.2236221376993436e-18,-0.009864763008856848,3.3743784311229685,5e-324,-5e-324,0.0
1668680519.144207,23172,1668680519,143931370,,-1.2236221376993436e-18,-0.009864763008856848,3.3743784311229685,5e-324,-5e-324,0.0
1668680519.1527028,23173,1668680519,152461623,,-6.473913187618497e-19,-0.005219227191806611,3.3407720714086455,5e-324,-5e-324,0.0
1668680519.1607668,23174,1668680519,160425266,,-3.4252038002207825e-19,-0.002761377283492409,3.322984700959762,5e-324,-5e-324,0.0
1668680519.1695583,23175,1668680519,167653495,,-1.8121993194911297e-19,-0.0014609834409504766,3.26732160013435,5e-324,-5e-324,0.0
1668680519.1756053,23176,1668680519,175390323,,-1.8121993194911297e-19,-0.0014609834409504766,3.26732160013435,5e-324,-5e-324,0.0
1668680519.1836555,23177,1668680519,183428863,,-9.587944441006483e-20,-0.0007729739168535325,3.24204172588683,5e-324,-5e-324,0.0
1668680519.1918848,23178,1668680519,191658419,,-5.0727686306405265e-20,-0.00040896334577699366,3.228667275808796,5e-324,-5e-324,0.0
1668680519.2000499,23179,1668680519,199827414,,-2.6838893089486108e-20,-0.0002163734306455318,3.274785715937215,5e-324,-5e-324,0.0
1668680519.2079604,23180,1668680519,207659193,,-1.4199862732117376e-20,-0.0001144783804533088,3.2992087741091174,5e-324,-5e-324,0.0
1668680519.2154481,23181,1668680519,215213554,,-1.4199862732117376e-20,-0.0001144783804533088,3.2992087741091174,5e-324,-5e-324,0.0
1668680519.2239733,23182,1668680519,223711212,,-7.512832252011357e-21,-6.0567970624276575e-05,3.3540323697043672,5e-324,-5e-324,0.0
1668680519.2319303,23183,1668680519,231729487,,-3.974872821777323e-21,-3.204516914911683e-05,3.364778717483707,5e-324,-5e-324,0.0
1668680519.23983,23184,1668680519,239572058,,-2.1030170006889345e-21,-1.695438785898358e-05,3.3704815165850954,5e-324,-5e-324,0.0
1668680519.2479827,23185,1668680519,247754738,,-1.1126596254742878e-21,-8.970190368952133e-06,3.382814166548294,5e-324,-5e-324,0.0
1668680519.2555633,23186,1668680519,255366144,,-1.1126596254742878e-21,-8.970190368952133e-06,3.382814166548294,5e-324,-5e-324,0.0
1668680519.2638743,23187,1668680519,263671448,,-5.886835159939354e-22,-4.745928660149543e-06,3.3496191911907225,5e-324,-5e-324,0.0
1668680519.2720525,23188,1668680519,271717506,,-3.1145938440541564e-22,-2.5109655337069498e-06,3.332057186905115,5e-324,-5e-324,0.0
1668680519.2805598,23189,1668680519,280173364,,-1.6478624846563536e-22,-1.3284961412094972e-06,3.355965849867691,5e-324,-5e-324,0.0
1668680519.2877626,23190,1668680519,287558264,,-8.718474717086082e-23,-7.028778266832646e-07,3.368624608744339,5e-324,-5e-324,0.0
1668680519.2958918,23191,1668680519,295678838,,-4.612751494753568e-23,-3.718770600215708e-07,3.4453134156596716,5e-324,-5e-324,0.0
1668680519.3034875,23192,1668680519,303274803,,-4.612751494753568e-23,-3.718770600215708e-07,3.4453134156596716,5e-324,-5e-324,0.0
1668680519.3118763,23193,1668680519,311643817,,-2.4405044509279378e-23,-1.9675189986126174e-07,3.4297775256322183,5e-324,-5e-324,0.0
1668680519.3206356,23194,1668680519,320081609,,-1.2912167459646062e-23,-1.040970639511093e-07,3.421560316927109,5e-324,-5e-324,0.0
1668680519.327976,23195,1668680519,327735250,,-6.83154125953551e-24,-5.507544644235919e-08,3.37073886998576,5e-324,-5e-324,0.0
1668680519.3355234,23196,1668680519,335319149,,-6.83154125953551e-24,-5.507544644235919e-08,3.37073886998576,5e-324,-5e-324,0.0
1668680519.3439279,23197,1668680519,343705459,,-3.6144168766856515e-24,-2.913919649309044e-08,3.2806710954054656,5e-324,-5e-324,0.0
1668680519.3518116,23198,1668680519,351580448,,-1.912307759282758e-24,-1.541690221524717e-08,3.233021892011142,5e-324,-5e-324,0.0
1668680519.3599486,23199,1668680519,359743222,,-1.0117595980147056e-24,-8.156740834320966e-09,3.22238103390029,5e-324,-5e-324,0.0
1668680519.3678374,23200,1668680519,367615823,,-5.352995506114654e-25,-4.315550563230475e-09,3.2167353357328508,5e-324,-5e-324,0.0
1668680519.3757892,23201,1668680519,375586517,,-2.8321511300421777e-25,-2.2832620334625706e-09,3.237867197588935,5e-324,-5e-324,0.0
1668680519.383365,23202,1668680519,383162633,,-2.8321511300421777e-25,-2.2832620334625706e-09,3.237867197588935,5e-324,-5e-324,0.0
1668680519.3921587,23203,1668680519,391939215,,-1.4984283125657051e-25,-1.2080232723653093e-09,3.2591256662555566,5e-324,-5e-324,0.0
1668680519.399819,23204,1668680519,399585130,,-7.927851674585842e-26,-6.391383052794553e-10,3.270363364013477,5e-324,-5e-324,0.0
1668680519.4078884,23205,1668680519,407669547,,-4.1944503882615727e-26,-3.3815389373720896e-10,3.224453315077308,5e-324,-5e-324,0.0
1668680519.4169762,23206,1668680519,416579933,,-2.2191906183091843e-26,-1.789097209556832e-10,3.1945134174694862,5e-324,-5e-324,0.0
1668680519.4258912,23207,1668680519,423497101,,-2.2191906183091843e-26,-1.789097209556832e-10,3.1945134174694862,5e-324,-5e-324,0.0
1668680519.4323192,23208,1668680519,431821962,,-1.1741245084633436e-26,-9.465716304102499e-11,3.178669855096752,5e-324,-5e-324,0.0
1668680519.4400806,23209,1668680519,439742238,,-6.2120322157121785e-27,-5.008100435858718e-11,3.2023447175466995,5e-324,-5e-324,0.0
1668680519.4478204,23210,1668680519,447639425,,-3.286648389577563e-27,-2.6496748021888203e-11,3.2148817335144844,5e-324,-5e-324,0.0
1668680519.455635,23211,1668680519,455384539,,-3.286648389577563e-27,-2.6496748021888203e-11,3.2148817335144844,5e-324,-5e-324,0.0
1668680519.4640274,23212,1668680519,463812318,,-1.738892726504379e-27,-1.4018841369643062e-11,3.2170345630819344,5e-324,-5e-324,0.0
1668680519.4718075,23213,1668680519,471541148,,-9.200095525516434e-28,-7.417057866303807e-12,3.1956110957071022,5e-324,-5e-324,0.0
1668680519.479776,23214,1668680519,479537784,,-4.8675663764940335e-28,-3.924200719698984e-12,3.1842872209186783,5e-324,-5e-324,0.0
1668680519.4878175,23215,1668680519,487591552,,-2.5753213500731853e-28,-2.076207515981008e-12,3.197260354662525,5e-324,-5e-324,0.0
1668680519.4959064,23216,1668680519,495663483,,-1.362545375481826e-28,-1.098475322064231e-12,3.255649859393807,5e-324,-5e-324,0.0
1668680519.503928,23217,1668680519,503620112,,-1.362545375481826e-28,-1.098475322064231e-12,3.255649859393807,5e-324,-5e-324,0.0
1668680519.511986,23218,1668680519,511750840,,-7.20892520925263e-29,-5.81178915833938e-13,3.2865252663578435,5e-324,-5e-324,0.0
1668680519.5199618,23219,1668680519,519678115,,-3.8140823496774067e-29,-3.0748886700083853e-13,3.2786716555234863,5e-324,-5e-324,0.0
1668680519.527698,23220,1668680519,527501676,,-2.0179463301199764e-29,-1.6268553581953282e-13,3.2745055651647905,5e-324,-5e-324,0.0
1668680519.535849,23221,1668680519,535634435,,-1.067650621541797e-29,-8.607330672826056e-14,3.1913158246082034,5e-324,-5e-324,0.0
1668680519.5435295,23222,1668680519,543322110,,-1.067650621541797e-29,-8.607330672826056e-14,3.1913158246082034,5e-324,-5e-324,0.0
1668680519.5520897,23223,1668680519,551863732,,-5.648702508410193e-30,-4.5539476474144614e-14,3.0961753718187195,5e-324,-5e-324,0.0
1668680519.5601528,23224,1668680519,559886821,,-2.9886031427061236e-30,-2.409392640260053e-14,3.0458607225299437,5e-324,-5e-324,0.0
1668680519.5688407,23225,1668680519,568518342,,-1.5812036005250217e-30,-1.2747561773652008e-14,3.0474297546938884,5e-324,-5e-324,0.0
1668680519.5757282,23226,1668680519,575538275,,-8.365797353908301e-31,-6.744452043961369e-15,3.1803920287217444,5e-324,-5e-324,0.0
1668680519.5836754,23227,1668680519,583499519,,-8.365797353908301e-31,-6.744452043961369e-15,3.1803920287217444,5e-324,-5e-324,0.0
1668680519.5919008,23228,1668680519,591636769,,-4.4261577284178235e-31,-3.568339905385929e-15,3.2507525702828417,5e-324,-5e-324,0.0
1668680519.5999,23229,1668680519,599628118,,-2.3417818299986e-31,-1.887929456295885e-15,3.283120497412558,5e-324,-5e-324,0.0
1668680519.6079175,23230,1668680519,607648818,,-1.2389847980568657e-31,-9.98861578901124e-16,3.3002299331427003,5e-324,-5e-324,0.0
1668680519.615662,23231,1668680519,615416365,,-1.2389847980568657e-31,-9.98861578901124e-16,3.3002299331427003,5e-324,-5e-324,0.0
1668680519.6239917,23232,1668680519,623696813,,-6.555193614329691e-32,-5.284754949278563e-16,3.2803107413556702,5e-324,-5e-324,0.0
1668680519.631809,23233,1668680519,631610668,,-3.4682074702402075e-32,-2.7960465657963687e-16,3.221593958525274,5e-324,-5e-324,0.0
1668680519.639832,23234,1668680519,639589396,,-1.8349516069724758e-32,-1.479326188846071e-16,3.1905116217437293,5e-324,-5e-324,0.0
1668680519.6478899,23235,1668680519,647658515,,-9.708321744943563e-33,-7.826786577077411e-17,3.1270508416407647,5e-324,-5e-324,0.0
1668680519.6566288,23236,1668680519,656385199,,-5.136457590772736e-33,-4.140979087979447e-17,3.106599639097487,5e-324,-5e-324,0.0
1668680519.6639793,23237,1668680519,663735782,,-5.136457590772736e-33,-4.140979087979447e-17,3.106599639097487,5e-324,-5e-324,0.0
1668680519.6725714,23238,1668680519,672339354,,-2.7175857243862115e-33,-2.1909001399506915e-17,3.0957998244235783,5e-324,-5e-324,0.0
1668680519.6810513,23239,1668680519,680530382,,-1.4378142988379426e-33,-0.0905737917042707,3.117347434749832,5e-324,-5e-324,0.0
1668680519.6881313,23240,1668680519,687908408,,-7.607156379251893e-34,-0.13863114554225084,3.128726809834758,5e-324,-5e-324,0.0
1668680519.6959183,23241,1668680519,695631618,,-4.024777624284513e-34,-0.11952872679257727,3.1996277782220868,5e-324,-5e-324,0.0
1668680519.7038066,23242,1668680519,703451163,,-4.024777624284513e-34,-0.11952872679257727,3.1996277782220868,5e-324,-5e-324,0.0
1668680519.7121935,23243,1668680519,711871691,,-2.129420524221473e-34,-0.1825642995679277,3.2716360363599915,5e-324,-5e-324,0.0
1668680519.7200828,23244,1668680519,719879134,,-1.126629143835429e-34,-0.21622992313481998,3.309636028796678,5e-324,-5e-324,0.0
1668680519.7280548,23245,1668680519,727842281,,-5.960744781510039e-35,-0.2226587881824681,3.3773534029063947,5e-324,-5e-324,0.0
1668680519.7355065,23246,1668680519,735259959,,-5.960744781510039e-35,-0.2226587881824681,3.3773534029063947,5e-324,-5e-324,0.0
1668680519.7449734,23247,1668680519,744632228,,-3.153697784644673e-35,-0.3130718105755622,3.400833952103775,5e-324,-5e-324,0.0
1668680519.752529,23248,1668680519,752287988,,-1.6685515118386157e-35,-0.3607747391283318,3.413290167744126,5e-324,-5e-324,0.0
1668680519.7598233,23249,1668680519,759567233,,-8.82793576865391e-36,-0.3651700119659792,3.4239014180291614,5e-324,-5e-324,0.0
1668680519.7677312,23250,1668680519,767523815,,-4.670664908007756e-36,-0.3674293130069548,3.4295323453647093,5e-324,-5e-324,0.0
1668680519.775499,23251,1668680519,775309745,,-4.670664908007756e-36,-0.3674293130069548,3.4295323453647093,5e-324,-5e-324,0.0
1668680519.783787,23252,1668680519,783594428,,-2.471145152681767e-36,-0.38426365183049926,3.442231448260861,5e-324,-5e-324,0.0
1668680519.7917464,23253,1668680519,791560072,,-1.3074280612923075e-36,-0.4790900050036656,3.407636587556523,5e-324,-5e-324,0.0
1668680519.7998912,23254,1668680519,799648471,,-6.917311731362683e-37,-0.5292978475562486,3.3893216865739255,5e-324,-5e-324,0.0
1668680519.8079808,23255,1668680519,807744528,,-3.6597961299340618e-37,-0.5523985172593013,3.379511985358043,5e-324,-5e-324,0.0
1668680519.8155315,23256,1668680519,815305740,,-3.6597961299340618e-37,-0.5523985172593013,3.379511985358043,5e-324,-5e-324,0.0
1668680519.8240142,23257,1668680519,823764566,,-1.9363169151322534e-37,-0.4984800316601961,3.411145044595033,5e-324,-5e-324,0.0
1668680519.8320963,23258,1668680519,831873035,,-1.024462309569915e-37,-0.4698993853660919,3.427880834109003,5e-324,-5e-324,0.0
1668680519.8400471,23259,1668680519,839801277,,-5.420202734001528e-38,-0.3677635911452637,3.467642516770071,5e-324,-5e-324,0.0
1668680519.848055,23260,1668680519,847770860,,-2.8677089828723153e-38,-0.31371039096263853,3.488688218864067,5e-324,-5e-324,0.0
1668680519.8556108,23261,1668680519,855367029,,-2.8677089828723153e-38,-0.31371039096263853,3.488688218864067,5e-324,-5e-324,0.0
1668680519.8641038,23262,1668680519,863794846,,-1.517241183407781e-38,-0.16597720608132716,3.391573253100813,5e-324,-5e-324,0.0
1668680519.8721406,23263,1668680519,871837742,,-8.027386399309338e-39,-0.0878148564159108,3.360787312719604,5e-324,-5e-324,0.0
1668680519.879832,23264,1668680519,879623050,,-4.247112002264812e-39,-0.046460891765875964,3.3444938348365723,5e-324,-5e-324,0.0
1668680519.887725,23265,1668680519,887510825,,-2.2470527096258594e-39,-0.030115531160530045,3.3555468651699716,5e-324,-5e-324,0.0
1668680519.8956509,23266,1668680519,895376324,,-2.2470527096258594e-39,-0.030115531160530045,3.3555468651699716,5e-324,-5e-324,0.0
1668680519.9037046,23267,1668680519,903518834,,-1.1888657226709256e-39,-0.015933459221231922,3.3556628871827625,5e-324,-5e-324,0.0
1668680519.9116776,23268,1668680519,911428401,,-6.2900247087537055e-40,-0.008430039682892722,3.355762593937203,5e-324,-5e-324,0.0
1668680519.9198232,23269,1668680519,919582066,,-3.3279124868573105e-40,-0.05323703154358837,3.3339603302917062,5e-324,-5e-324,0.0
1668680519.927718,23270,1668680519,927469584,,-1.7607246446532944e-40,-0.07696397452021875,3.322410000253904,5e-324,-5e-324,0.0
1668680519.9357915,23271,1668680519,935522781,,-1.7607246446532944e-40,-0.07696397452021875,3.322410000253904,5e-324,-5e-324,0.0
1668680519.9439824,23272,1668680519,943765715,,-9.315603359561521e-41,-0.22856032730470688,3.310027885413583,5e-324,-5e-324,0.0
1668680519.9519217,23273,1668680519,951747810,,-4.928679008168362e-41,-0.35091213007510147,3.3329793119032822,5e-324,-5e-324,0.0
1668680519.9597623,23274,1668680519,959552359,,-2.6076546872969126e-41,-0.4154864710338829,3.3451749423291197,5e-324,-5e-324,0.0
1668680519.967937,23275,1668680519,967686181,,-1.3796522266741372e-41,-0.4564561147004841,3.3190161332677013,5e-324,-5e-324,0.0
1668680519.9757917,23276,1668680519,975521116,,-7.299433762604533e-42,-0.2415008007361381,3.156632482279757,5e-324,-5e-324,0.0
1668680519.9836786,23277,1668680519,983437413,,-7.299433762604533e-42,-0.2415008007361381,3.156632482279757,5e-324,-5e-324,0.0
1668680519.9918866,23278,1668680519,991635339,,-3.8619684167143146e-42,-0.12777271434837903,3.070681757271233,5e-324,-5e-324,0.0
1668680520.000671,23279,1668680519,999978398,,-2.0432817855144255e-42,-0.0676017076638598,3.0038542909743673,5e-324,-5e-324,0.0
1668680520.0081184,23280,1668680520,7771490,,-1.0810550487533572e-42,-0.03576656332595111,2.9685008605835086,5e-324,-5e-324,0.0
1668680520.0156827,23281,1668680520,15517655,,-5.7196223581119595e-43,-0.018923294933763372,2.976636291029706,5e-324,-5e-324,0.0
1668680520.0234597,23282,1668680520,23236147,,-5.7196223581119595e-43,-0.018923294933763372,2.976636291029706,5e-324,-5e-324,0.0
1668680520.0318866,23283,1668680520,31668146,,-3.0261252613490114e-43,-0.010011895408759465,2.9395595042450804,5e-324,-5e-324,0.0
1668680520.0396821,23284,1668680520,39470947,,-1.6010557208181628e-43,-0.00529707167947226,2.919945500476543,5e-324,-5e-324,0.0
1668680520.0479896,23285,1668680520,47763356,,-8.470830516849927e-44,-0.002802563074412275,2.8863639060141955,5e-324,-5e-324,0.0
1668680520.0559583,23286,1668680520,55751419,,-4.481728444062407e-44,-0.0014827739289421326,2.8403475812218923,5e-324,-5e-324,0.0
1668680520.0637548,23287,1668680520,63576102,,-4.481728444062407e-44,-0.0014827739289421326,2.8403475812218923,5e-324,-5e-324,0.0
1668680520.0718772,23288,1668680520,71664318,,-2.371183062435706e-44,-0.0007845027804812422,2.8160086935513036,5e-324,-5e-324,0.0
1668680520.079846,23289,1668680520,79608976,,-1.25454033767506e-44,-0.00041506301167695993,2.8072488495273733,5e-324,-5e-324,0.0
1668680520.0879972,23290,1668680520,87818740,,-6.637494522405853e-45,-0.0002196006285110514,2.8026158506048837,5e-324,-5e-324,0.0
1668680520.0957444,23291,1668680520,95524466,,-6.637494522405853e-45,-0.0002196006285110514,2.8026158506048837,5e-324,-5e-324,0.0
1668680520.1038437,23292,1668680520,103610652,,-3.5117510543035875e-45,-0.00011618581922684421,2.7434576789376286,5e-324,-5e-324,0.0
1668680520.1119115,23293,1668680520,111715091,,-1.8579895509928507e-45,-6.147133858833004e-05,2.6889915562889084,5e-324,-5e-324,0.0
1668680520.1197515,23294,1668680520,119520969,,-9.830210394236511e-46,-3.2523121091597524e-05,2.6601863605420846,5e-324,-5e-324,0.0
1668680520.128011,23295,1668680520,127826709,,-5.200946170193364e-46,-1.7207261625168574e-05,2.6263923660753274,5e-324,-5e-324,0.0
1668680520.135679,23296,1668680520,135427209,,-5.200946170193364e-46,-1.7207261625168574e-05,2.6263923660753274,5e-324,-5e-324,0.0
1668680520.1438618,23297,1668680520,143597107,,-2.751705200644377e-46,-9.103980266933699e-06,2.56826915935038,5e-324,-5e-324,0.0
1668680520.1519918,23298,1668680520,151779949,,-1.4558661565558559e-46,-4.816713926141993e-06,2.537603825001,5e-324,-5e-324,0.0
1668680520.1598308,23299,1668680520,159581813,,-7.702664752417438e-47,-0.034431230121267024,2.50043879443675,5e-324,-5e-324,0.0
1668680520.1676056,23300,1668680520,167425170,,-4.0753089850301563e-47,-0.052511650843727296,2.480815184990307,5e-324,-5e-324,0.0
1668680520.1755357,23301,1668680520,175198482,,-4.0753089850301563e-47,-0.052511650843727296,2.480815184990307,5e-324,-5e-324,0.0
1668680520.1847327,23302,1668680520,184498702,,-2.156155545813564e-47,-0.3200318565039888,2.5981364776950846,5e-324,-5e-324,0.0
1668680520.1919181,23303,1668680520,191681762,,-1.140774050463363e-47,-0.51774066464448,2.708540202746627,5e-324,-5e-324,0.0
1668680520.199834,23304,1668680520,199619046,,-6.03558234347863e-48,-0.6222415163569459,2.7669946804147827,5e-324,-5e-324,0.0
1668680520.2081573,23305,1668680520,207874681,,-3.193292677907115e-48,-0.7596635762076092,2.842705197927728,5e-324,-5e-324,0.0
1668680520.2166235,23306,1668680520,216129064,,-1.6895002911845037e-48,-0.8656593707902269,2.844932046891432,5e-324,-5e-324,0.0
1668680520.2240531,23307,1668680520,223780445,,-1.6895002911845037e-48,-0.8656593707902269,2.844932046891432,5e-324,-5e-324,0.0
1668680520.2317436,23308,1668680520,231561744,,-8.938771111275979e-49,-0.9218264164349289,2.8460924639592715,5e-324,-5e-324,0.0
1668680520.2396991,23309,1668680520,239500930,,-4.729305428160844e-49,-0.9623251305817015,2.8465050736125193,5e-324,-5e-324,0.0
