Time,header.seq,header.stamp.secs,header.stamp.nsecs,header.frame_id,pose.position.x,pose.position.y,pose.position.z,pose.orientation.x,pose.orientation.y,pose.orientation.z,pose.orientation.w
1668680516.5923133,22853,1668680516,592165892,,-0.09879818042605837,-0.6160097982720756,0.07088206676343922,0.9955612156868469,0.09352316526210465,-0.004347595386304483,0.009611544820768937
1668680516.599692,22854,1668680516,599581909,,-0.09879818042605837,-0.6160097982720756,0.07088206676343922,0.9955612156868469,0.09352316526210465,-0.004347595386304483,0.009611544820768937
1668680516.608607,22855,1668680516,607694970,,-0.09879818042605837,-0.6160097982720756,0.07088206676343922,0.9955612156868469,0.09352316526210465,-0.004347595386304483,0.009611544820768937
1668680516.6155484,22856,1668680516,615372379,,-0.09879818042605837,-0.6160097982720756,0.07088206676343922,0.9955612156868469,0.09352316526210465,-0.004347595386304483,0.009611544820768937
1668680516.6241753,22857,1668680516,623875838,,-0.09879818042605837,-0.6160097982720756,0.07088206676343922,0.9955612156868469,0.09352316526210465,-0.004347595386304483,0.009611544820768937
1668680516.6323748,22858,1668680516,632150519,,-0.09879818042605837,-0.6160097982720756,0.07088206676343922,0.9955612156868469,0.09352316526210465,-0.004347595386304483,0.009611544820768937
1668680516.639888,22859,1668680516,639721083,,-0.09879818042605837,-0.6160097982720756,0.07088206676343922,0.9955612156868469,0.09352316526210465,-0.004347595386304483,0.009611544820768937
1668680516.6478267,22860,1668680516,647661266,,-0.09879818042605837,-0.6160097982720756,0.07088206676343922,0.9955612156868469,0.09352316526210465,-0.004347595386304483,0.009611544820768937
1668680516.6559043,22861,1668680516,655704725,,-0.09879818042605837,-0.6160097982720756,0.07088206676343922,0.9955612156868469,0.09352316526210465,-0.004347595386304483,0.009611544820768937
1668680516.6634686,22862,1668680516,663320633,,-0.09879818042605837,-0.6160097982720756,0.07088206676343922,0.9955612156868469,0.09352316526210465,-0.004347595386304483,0.009611544820768937
1668680516.6720867,22863,1668680516,671847059,,-0.09879818042605837,-0.6160097982720756,0.07088206676343922,0.9955612156868469,0.09352316526210465,-0.004347595386304483,0.009611544820768937
1668680516.6798527,22864,1668680516,679689995,,-0.09879818042605837,-0.6160097982720756,0.07088206676343922,0.9955612156868469,0.09352316526210465,-0.004347595386304483,0.009611544820768937
1668680516.687878,22865,1668680516,687595516,,-0.09879818042605837,-0.6160097982720756,0.07088206676343922,0.9955612156868469,0.09352316526210465,-0.004347595386304483,0.009611544820768937
1668680516.6955929,22866,1668680516,695384620,,-0.09879818042605837,-0.6160097982720756,0.07088206676343922,0.9955612156868469,0.09352316526210465,-0.004347595386304483,0.009611544820768937
1668680516.7043593,22867,1668680516,704099214,,-0.09879818042605837,-0.6160097982720756,0.07088206676343922,0.9955612156868469,0.09352316526210465,-0.004347595386304483,0.009611544820768937
1668680516.7117233,22868,1668680516,711572307,,-0.09879818042605837,-0.6160097982720756,0.07088206676343922,0.9955612156868469,0.09352316526210465,-0.004347595386304483,0.009611544820768937
1668680516.7200203,22869,1668680516,719847648,,-0.09879818042605837,-0.6160097982720756,0.07088206676343922,0.9955612156868469,0.09352316526210465,-0.004347595386304483,0.009611544820768937
1668680516.7280204,22870,1668680516,727870365,,-0.09879818042605837,-0.6160097982720756,0.07088206676343922,0.9955612156868469,0.09352316526210465,-0.004347595386304483,0.009611544820768937
1668680516.73575,22871,1668680516,735543891,,-0.09879818042605837,-0.6160097982720756,0.07088206676343922,0.9955612156868469,0.09352316526210465,-0.004347595386304483,0.009611544820768937
1668680516.7433853,22872,1668680516,743172332,,-0.09879818042605837,-0.6160097982720756,0.07088206676343922,0.9955612156868469,0.09352316526210465,-0.004347595386304483,0.009611544820768937
1668680516.7516625,22873,1668680516,751535975,,-0.09879818042605837,-0.6160097982720756,0.07088206676343922,0.9955612156868469,0.09352316526210465,-0.004347595386304483,0.009611544820768937
1668680516.7596307,22874,1668680516,759515991,,-0.09879818042605837,-0.6160097982720756,0.07088206676343922,0.9955612156868469,0.09352316526210465,-0.004347595386304483,0.009611544820768937
1668680516.7676964,22875,1668680516,767590037,,-0.09879818042605837,-0.6160097982720756,0.07088206676343922,0.9955612156868469,0.09352316526210465,-0.004347595386304483,0.009611544820768937
1668680516.7759657,22876,1668680516,775786698,,-0.09879818042605837,-0.6160097982720756,0.07088206676343922,0.9955612156868469,0.09352316526210465,-0.004347595386304483,0.009611544820768937
1668680516.7843182,22877,1668680516,783995992,,-0.09879818042605837,-0.6160097982720756,0.07088206676343922,0.9955612156868469,0.09352316526210465,-0.004347595386304483,0.009611544820768937
1668680516.7926536,22878,1668680516,792452500,,-0.09879818042605837,-0.6160097982720756,0.07088206676343922,0.9955612156868469,0.09352316526210465,-0.004347595386304483,0.009611544820768937
1668680516.800902,22879,1668680516,800630103,,-0.09879818042605837,-0.6160097982720756,0.07088206676343922,0.9955612156868469,0.09352316526210465,-0.004347595386304483,0.009611544820768937
1668680516.80771,22880,1668680516,807509634,,-0.09879818042605837,-0.6160097982720756,0.07088206676343922,0.9955612156868469,0.09352316526210465,-0.004347595386304483,0.009611544820768937
1668680516.8154213,22881,1668680516,815261482,,-0.09879818042605837,-0.6160097982720756,0.07088206676343922,0.9955612156868469,0.09352316526210465,-0.004347595386304483,0.009611544820768937
1668680516.823881,22882,1668680516,823728959,,-0.09879818042605837,-0.6160097982720756,0.07088206676343922,0.9955612156868469,0.09352316526210465,-0.004347595386304483,0.009611544820768937
1668680516.8317745,22883,1668680516,831573380,,-0.09879818042605837,-0.6160097982720756,0.07088206676343922,0.9955612156868469,0.09352316526210465,-0.004347595386304483,0.009611544820768937
1668680516.83984,22884,1668680516,839611039,,-0.09879818042605837,-0.6160097982720756,0.07088206676343922,0.9955612156868469,0.09352316526210465,-0.004347595386304483,0.009611544820768937
1668680516.8478417,22885,1668680516,847649459,,-0.09879818042605837,-0.6160097982720756,0.07088206676343922,0.9955612156868469,0.09352316526210465,-0.004347595386304483,0.009611544820768937
1668680516.8556056,22886,1668680516,855377447,,-0.09879818042605837,-0.6160097982720756,0.07088206676343922,0.9955612156868469,0.09352316526210465,-0.004347595386304483,0.009611544820768937
1668680516.864345,22887,1668680516,864093016,,-0.09879818042605837,-0.6160097982720756,0.07088206676343922,0.9955612156868469,0.09352316526210465,-0.004347595386304483,0.009611544820768937
1668680516.8718204,22888,1668680516,871627932,,-0.09879818042605837,-0.6160097982720756,0.07088206676343922,0.9955612156868469,0.09352316526210465,-0.004347595386304483,0.009611544820768937
1668680516.879723,22889,1668680516,879579989,,-0.09879818042605837,-0.6160097982720756,0.07088206676343922,0.9955612156868469,0.09352316526210465,-0.004347595386304483,0.009611544820768937
1668680516.8878665,22890,1668680516,887629180,,-0.09879818042605837,-0.6160097982720756,0.07088206676343922,0.9955612156868469,0.09352316526210465,-0.004347595386304483,0.009611544820768937
1668680516.895521,22891,1668680516,895355363,,-0.09879818042605837,-0.6160097982720756,0.07088206676343922,0.9955612156868469,0.09352316526210465,-0.004347595386304483,0.009611544820768937
1668680516.9038541,22892,1668680516,903650697,,-0.09879818042605837,-0.6160097982720756,0.07088206676343922,0.9955612156868469,0.09352316526210465,-0.004347595386304483,0.009611544820768937
1668680516.9116921,22893,1668680516,911576717,,-0.09879818042605837,-0.6160097982720756,0.07088206676343922,0.9955612156868469,0.09352316526210465,-0.004347595386304483,0.009611544820768937
1668680516.9200351,22894,1668680516,919744445,,-0.09879818042605837,-0.6160097982720756,0.07088206676343922,0.9955612156868469,0.09352316526210465,-0.004347595386304483,0.009611544820768937
1668680516.9283333,22895,1668680516,928056891,,-0.09879818042605837,-0.6160097982720756,0.07088206676343922,0.9955612156868469,0.09352316526210465,-0.004347595386304483,0.009611544820768937
1668680516.9358099,22896,1668680516,935530213,,-0.09879818042605837,-0.6160097982720756,0.07088206676343922,0.9955612156868469,0.09352316526210465,-0.004347595386304483,0.009611544820768937
1668680516.9436092,22897,1668680516,943413259,,-0.09879818042605837,-0.6160097982720756,0.07088206676343922,0.9955612156868469,0.09352316526210465,-0.004347595386304483,0.009611544820768937
1668680516.9517136,22898,1668680516,951599180,,-0.09879818042605837,-0.6160097982720756,0.07088206676343922,0.9955612156868469,0.09352316526210465,-0.004347595386304483,0.009611544820768937
1668680516.9599652,22899,1668680516,959733677,,-0.09879818042605837,-0.6160097982720756,0.07088206676343922,0.9955612156868469,0.09352316526210465,-0.004347595386304483,0.009611544820768937
1668680516.9678779,22900,1668680516,967744202,,-0.09879818042605837,-0.6160097982720756,0.07088206676343922,0.9955612156868469,0.09352316526210465,-0.004347595386304483,0.009611544820768937
1668680516.9758372,22901,1668680516,975674329,,-0.09879818042605837,-0.6160097982720756,0.07088206676343922,0.9955612156868469,0.09352316526210465,-0.004347595386304483,0.009611544820768937
1668680516.983682,22902,1668680516,983477855,,-0.09879818042605837,-0.6160097982720756,0.07088206676343922,0.9955612156868469,0.09352316526210465,-0.004347595386304483,0.009611544820768937
1668680516.991839,22903,1668680516,991655746,,-0.09879818042605837,-0.6160097982720756,0.07088206676343922,0.9955612156868469,0.09352316526210465,-0.004347595386304483,0.009611544820768937
1668680516.999639,22904,1668680516,999456301,,-0.09879818042605837,-0.6160097982720756,0.07088206676343922,0.9955612156868469,0.09352316526210465,-0.004347595386304483,0.009611544820768937
1668680517.007843,22905,1668680517,7629962,,-0.09879818042605837,-0.6160097982720756,0.07088206676343922,0.9955612156868469,0.09352316526210465,-0.004347595386304483,0.009611544820768937
1668680517.0158393,22906,1668680517,15579801,,-0.09879818042605837,-0.6160097982720756,0.07088206676343922,0.9955612156868469,0.09352316526210465,-0.004347595386304483,0.009611544820768937
1668680517.0240476,22907,1668680517,23807825,,-0.09879818042605837,-0.6160097982720756,0.07088206676343922,0.9955612156868469,0.09352316526210465,-0.004347595386304483,0.009611544820768937
1668680517.031777,22908,1668680517,31632250,,-0.09879818042605837,-0.6160097982720756,0.07088206676343922,0.9955612156868469,0.09352316526210465,-0.004347595386304483,0.009611544820768937
1668680517.0399964,22909,1668680517,39733997,,-0.09879818042605837,-0.6160097982720756,0.07088206676343922,0.9955612156868469,0.09352316526210465,-0.004347595386304483,0.009611544820768937
1668680517.0477786,22910,1668680517,47621066,,-0.09879818042605837,-0.6160097982720756,0.07088206676343922,0.9955612156868469,0.09352316526210465,-0.004347595386304483,0.009611544820768937
1668680517.055522,22911,1668680517,55313828,,-0.09879818042605837,-0.6160097982720756,0.07088206676343922,0.9955612156868469,0.09352316526210465,-0.004347595386304483,0.009611544820768937
1668680517.0638,22912,1668680517,63608931,,-0.09879818042605837,-0.6160097982720756,0.07088206676343922,0.9955612156868469,0.09352316526210465,-0.004347595386304483,0.009611544820768937
1668680517.0722005,22913,1668680517,71934243,,-0.09879818042605837,-0.6160097982720756,0.07088206676343922,0.9955612156868469,0.09352316526210465,-0.004347595386304483,0.009611544820768937
1668680517.0797067,22914,1668680517,79535366,,-0.09879818042605837,-0.6160097982720756,0.07088206676343922,0.9955612156868469,0.09352316526210465,-0.004347595386304483,0.009611544820768937
1668680517.0879424,22915,1668680517,87641345,,-0.09879818042605837,-0.6160097982720756,0.07088206676343922,0.9955612156868469,0.09352316526210465,-0.004347595386304483,0.009611544820768937
1668680517.0955322,22916,1668680517,95345943,,-0.09879818042605837,-0.6160097982720756,0.07088206676343922,0.9955612156868469,0.09352316526210465,-0.004347595386304483,0.009611544820768937
1668680517.1046338,22917,1668680517,104138087,,-0.09879818042605837,-0.6160097982720756,0.07088206676343922,0.9955612156868469,0.09352316526210465,-0.004347595386304483,0.009611544820768937
1668680517.1116786,22918,1668680517,111491170,,-0.09879818042605837,-0.6160097982720756,0.07088206676343922,0.9955612156868469,0.09352316526210465,-0.004347595386304483,0.009611544820768937
1668680517.119696,22919,1668680517,119549193,,-0.09879818042605837,-0.6160097982720756,0.07088206676343922,0.9955612156868469,0.09352316526210465,-0.004347595386304483,0.009611544820768937
1668680517.1275873,22920,1668680517,127463749,,-0.09879818042605837,-0.6160097982720756,0.07088206676343922,0.9955612156868469,0.09352316526210465,-0.004347595386304483,0.009611544820768937
1668680517.1358118,22921,1668680517,135644717,,-0.09879818042605837,-0.6160097982720756,0.07088206676343922,0.9955612156868469,0.09352316526210465,-0.004347595386304483,0.009611544820768937
1668680517.1433547,22922,1668680517,143229670,,-0.09879818042605837,-0.6160097982720756,0.07088206676343922,0.9955612156868469,0.09352316526210465,-0.004347595386304483,0.009611544820768937
1668680517.1518707,22923,1668680517,151704202,,-0.09879818042605837,-0.6160097982720756,0.07088206676343922,0.9955612156868469,0.09352316526210465,-0.004347595386304483,0.009611544820768937
1668680517.1598146,22924,1668680517,159623596,,-0.09879818042605837,-0.6160097982720756,0.07088206676343922,0.9955612156868469,0.09352316526210465,-0.004347595386304483,0.009611544820768937
1668680517.1676366,22925,1668680517,167527680,,-0.09879818042605837,-0.6160097982720756,0.07088206676343922,0.9955612156868469,0.09352316526210465,-0.004347595386304483,0.009611544820768937
1668680517.175945,22926,1668680517,175663825,,-0.09879818042605837,-0.6160097982720756,0.07088206676343922,0.9955612156868469,0.09352316526210465,-0.004347595386304483,0.009611544820768937
1668680517.1834333,22927,1668680517,183291395,,-0.09879818042605837,-0.6160097982720756,0.07088206676343922,0.9955612156868469,0.09352316526210465,-0.004347595386304483,0.009611544820768937
1668680517.1917176,22928,1668680517,191577991,,-0.09879818042605837,-0.6160097982720756,0.07088206676343922,0.9955612156868469,0.09352316526210465,-0.004347595386304483,0.009611544820768937
1668680517.199609,22929,1668680517,199489979,,-0.09879818042605837,-0.6160097982720756,0.07088206676343922,0.9955612156868469,0.09352316526210465,-0.004347595386304483,0.009611544820768937
1668680517.2079303,22930,1668680517,207772081,,-0.09879818042605837,-0.6160097982720756,0.07088206676343922,0.9955612156868469,0.09352316526210465,-0.004347595386304483,0.009611544820768937
1668680517.2154973,22931,1668680517,215356708,,-0.09879818042605837,-0.6160097982720756,0.07088206676343922,0.9955612156868469,0.09352316526210465,-0.004347595386304483,0.009611544820768937
1668680517.2238731,22932,1668680517,223696544,,-0.09879818042605837,-0.6160097982720756,0.07088206676343922,0.9955612156868469,0.09352316526210465,-0.004347595386304483,0.009611544820768937
1668680517.2321346,22933,1668680517,231873565,,-0.09879818042605837,-0.6160097982720756,0.07088206676343922,0.9955612156868469,0.09352316526210465,-0.004347595386304483,0.009611544820768937
1668680517.2397559,22934,1668680517,239567536,,-0.09879818042605837,-0.6160097982720756,0.07088206676343922,0.9955612156868469,0.09352316526210465,-0.004347595386304483,0.009611544820768937
1668680517.2484925,22935,1668680517,248122660,,-0.09879818042605837,-0.6160097982720756,0.07088206676343922,0.9955612156868469,0.09352316526210465,-0.004347595386304483,0.009611544820768937
1668680517.2556055,22936,1668680517,255458198,,-0.09879818042605837,-0.6160097982720756,0.07088206676343922,0.9955612156868469,0.09352316526210465,-0.004347595386304483,0.009611544820768937
1668680517.2638462,22937,1668680517,263644336,,-0.09879818042605837,-0.6160097982720756,0.07088206676343922,0.9955612156868469,0.09352316526210465,-0.004347595386304483,0.009611544820768937
1668680517.2718036,22938,1668680517,271592817,,-0.09879818042605837,-0.6160097982720756,0.07088206676343922,0.9955612156868469,0.09352316526210465,-0.004347595386304483,0.009611544820768937
1668680517.2803085,22939,1668680517,279973842,,-0.09879818042605837,-0.6160097982720756,0.07088206676343922,0.9955612156868469,0.09352316526210465,-0.004347595386304483,0.009611544820768937
1668680517.288715,22940,1668680517,288526023,,-0.09879818042605837,-0.6160097982720756,0.07088206676343922,0.9955612156868469,0.09352316526210465,-0.004347595386304483,0.009611544820768937
1668680517.2967138,22941,1668680517,296508067,,-0.09879818042605837,-0.6160097982720756,0.07088206676343922,0.9955612156868469,0.09352316526210465,-0.004347595386304483,0.009611544820768937
1668680517.3038301,22942,1668680517,303631269,,-0.09879818042605837,-0.6160097982720756,0.07088206676343922,0.9955612156868469,0.09352316526210465,-0.004347595386304483,0.009611544820768937
1668680517.3120625,22943,1668680517,311898762,,-0.09879818042605837,-0.6160097982720756,0.07088206676343922,0.9955612156868469,0.09352316526210465,-0.004347595386304483,0.009611544820768937
1668680517.3197289,22944,1668680517,319570296,,-0.09879818042605837,-0.6160097982720756,0.07088206676343922,0.9955612156868469,0.09352316526210465,-0.004347595386304483,0.009611544820768937
1668680517.327717,22945,1668680517,327592832,,-0.09879818042605837,-0.6160097982720756,0.07088206676343922,0.9955612156868469,0.09352316526210465,-0.004347595386304483,0.009611544820768937
1668680517.3354053,22946,1668680517,335264854,,-0.09879818042605837,-0.6160097982720756,0.07088206676343922,0.9955612156868469,0.09352316526210465,-0.004347595386304483,0.009611544820768937
1668680517.3439443,22947,1668680517,343785962,,-0.09879818042605837,-0.6160097982720756,0.07088206676343922,0.9955612156868469,0.09352316526210465,-0.004347595386304483,0.009611544820768937
1668680517.3517408,22948,1668680517,351576267,,-0.09879818042605837,-0.6160097982720756,0.07088206676343922,0.9955612156868469,0.09352316526210465,-0.004347595386304483,0.009611544820768937
1668680517.3597698,22949,1668680517,359568885,,-0.09879818042605837,-0.6160097982720756,0.07088206676343922,0.9955612156868469,0.09352316526210465,-0.004347595386304483,0.009611544820768937
1668680517.3676844,22950,1668680517,367541824,,-0.09879818042605837,-0.6160097982720756,0.07088206676343922,0.9955612156868469,0.09352316526210465,-0.004347595386304483,0.009611544820768937
1668680517.3760526,22951,1668680517,375832154,,-0.09879818042605837,-0.6160097982720756,0.07088206676343922,0.9955612156868469,0.09352316526210465,-0.004347595386304483,0.009611544820768937
1668680517.3836837,22952,1668680517,383497439,,-0.09879818042605837,-0.6160097982720756,0.07088206676343922,0.9955612156868469,0.09352316526210465,-0.004347595386304483,0.009611544820768937
1668680517.3921638,22953,1668680517,391865143,,-0.09879818042605837,-0.6160097982720756,0.07088206676343922,0.9955612156868469,0.09352316526210465,-0.004347595386304483,0.009611544820768937
1668680517.3999164,22954,1668680517,399733986,,-0.09879818042605837,-0.6160097982720756,0.07088206676343922,0.9955612156868469,0.09352316526210465,-0.004347595386304483,0.009611544820768937
1668680517.4079447,22955,1668680517,407751209,,-0.09879818042605837,-0.6160097982720756,0.07088206676343922,0.9955612156868469,0.09352316526210465,-0.004347595386304483,0.009611544820768937
1668680517.4155042,22956,1668680517,415309951,,-0.09879818042605837,-0.6160097982720756,0.07088206676343922,0.9955612156868469,0.09352316526210465,-0.004347595386304483,0.009611544820768937
1668680517.423726,22957,1668680517,423549830,,-0.09879818042605837,-0.6160097982720756,0.07088206676343922,0.9955612156868469,0.09352316526210465,-0.004347595386304483,0.009611544820768937
1668680517.4319394,22958,1668680517,431740496,,-0.09879818042605837,-0.6160097982720756,0.07088206676343922,0.9955612156868469,0.09352316526210465,-0.004347595386304483,0.009611544820768937
1668680517.4398968,22959,1668680517,439705602,,-0.09879818042605837,-0.6160097982720756,0.07088206676343922,0.9955612156868469,0.09352316526210465,-0.004347595386304483,0.009611544820768937
1668680517.447836,22960,1668680517,447585724,,-0.09879818042605837,-0.6160097982720756,0.07088206676343922,0.9955612156868469,0.09352316526210465,-0.004347595386304483,0.009611544820768937
1668680517.4554415,22961,1668680517,455205935,,-0.09879818042605837,-0.6160097982720756,0.07088206676343922,0.9955612156868469,0.09352316526210465,-0.004347595386304483,0.009611544820768937
1668680517.4636865,22962,1668680517,463497934,,-0.09879818042605837,-0.6160097982720756,0.07088206676343922,0.9955612156868469,0.09352316526210465,-0.004347595386304483,0.009611544820768937
1668680517.471926,22963,1668680517,471745215,,-0.09879818042605837,-0.6160097982720756,0.07088206676343922,0.9955612156868469,0.09352316526210465,-0.004347595386304483,0.009611544820768937
1668680517.4798908,22964,1668680517,479651093,,-0.09879739085812189,-0.6160090541218269,0.07088206676343922,0.9955612156868469,0.09352316526210465,-0.004347595386304483,0.009611544820768937
1668680517.4878833,22965,1668680517,487663875,,-0.0987950221592998,-0.6160068216757817,0.07088206676343922,0.9955612156868469,0.09352316526210465,-0.004347595386304483,0.009611544820768937
1668680517.4960449,22966,1668680517,495866062,,-0.09879107434455411,-0.6160031009480429,0.07088206676343922,0.9955612156868469,0.09352316526210465,-0.004347595386304483,0.009611544820768937
1668680517.5034873,22967,1668680517,503367883,,-0.09878554743882131,-0.6159978919621191,0.07088206676343922,0.9955612156868469,0.09352316526210465,-0.004347595386304483,0.009611544820768937
1668680517.5117772,22968,1668680517,511603067,,-0.0987784414770124,-0.6159911947509296,0.07088206676343922,0.9955612156868469,0.09352316526210465,-0.004347595386304483,0.009611544820768937
1668680517.5200443,22969,1668680517,519818324,,-0.09876975650401246,-0.6159830093568123,0.07088206676343922,0.9955612156868469,0.09352316526210465,-0.004347595386304483,0.009611544820768937
1668680517.5282667,22970,1668680517,527700969,,-0.0987594925746805,-0.6159733358315331,0.07088206676343922,0.9955612156868469,0.09352316526210465,-0.004347595386304483,0.009611544820768937
1668680517.5356374,22971,1668680517,535437966,,-0.09874764975384909,-0.6159621742362976,0.07088206676343922,0.9955612156868469,0.09352316526210465,-0.004347595386304483,0.009611544820768937
1668680517.544471,22972,1668680517,544204387,,-0.09873422811632393,-0.615949524641765,0.07088206676343922,0.9955612156868469,0.09352316526210465,-0.004347595386304483,0.009611544820768937
1668680517.5523958,22973,1668680517,552242897,,-0.09871922774688335,-0.6159353871280643,0.07088206676343922,0.9955612156868469,0.09352316526210465,-0.004347595386304483,0.009611544820768937
1668680517.5602841,22974,1668680517,560035500,,-0.09870264874027787,-0.6159197617848122,0.07088206676343922,0.9955612156868469,0.09352316526210465,-0.004347595386304483,0.009611544820768937
1668680517.5687811,22975,1668680517,568497263,,-0.09868449120122949,-0.6159026487111336,0.07088206676343922,0.9955612156868469,0.09352316526210465,-0.004347595386304483,0.009611544820768937
1668680517.576784,22976,1668680517,576589034,,-0.09866475524443108,-0.615884048015684,0.07088206676343922,0.9955612156868469,0.09352316526210465,-0.004347595386304483,0.009611544820768937
1668680517.58405,22977,1668680517,583840518,,-0.09864344099454567,-0.6158639598166737,0.07088206676343922,0.9955612156868469,0.09352316526210465,-0.004347595386304483,0.009611544820768937
1668680517.591801,22978,1668680517,591666897,,-0.09862054858620567,-0.6158423842418951,0.07088206676343922,0.9955612156868469,0.09352316526210465,-0.004347595386304483,0.009611544820768937
1668680517.599882,22979,1668680517,599655082,,-0.09859607816401197,-0.6158193214287508,0.07088206676343922,0.9955612156868469,0.09352316526210465,-0.004347595386304483,0.009611544820768937
1668680517.6075902,22980,1668680517,607470332,,-0.09857002988253305,-0.6157947715242852,0.07088206676343922,0.9955612156868469,0.09352316526210465,-0.004347595386304483,0.009611544820768937
1668680517.615734,22981,1668680517,615563510,,-0.098542403906304,-0.6157687346852169,0.07088206676343922,0.9955612156868469,0.09352316526210465,-0.004347595386304483,0.009611544820768937
1668680517.623465,22982,1668680517,623301252,,-0.0985132004098255,-0.6157412110779739,0.07088206676343922,0.9955612156868469,0.09352316526210465,-0.004347595386304483,0.009611544820768937
1668680517.6317024,22983,1668680517,631577923,,-0.09848241957756274,-0.6157122008787316,0.07088206676343922,0.9955612156868469,0.09352316526210465,-0.004347595386304483,0.009611544820768937
1668680517.639909,22984,1668680517,639714477,,-0.09845006160394415,-0.6156817042734511,0.07088206676343922,0.9955612156868469,0.09352316526210465,-0.004347595386304483,0.009611544820768937
1668680517.6480315,22985,1668680517,647835309,,-0.09841612669336028,-0.6156497214579215,0.07088206676343922,0.9955612156868469,0.09352316526210465,-0.004347595386304483,0.009611544820768937
1668680517.655851,22986,1668680517,655639805,,-0.09838061506016249,-0.615616252637803,0.07088206676343922,0.9955612156868469,0.09352316526210465,-0.004347595386304483,0.009611544820768937
1668680517.6636474,22987,1668680517,663503432,,-0.09834352692866155,-0.6155812980286723,0.07088206676343922,0.9955612156868469,0.09352316526210465,-0.004347595386304483,0.009611544820768937
1668680517.67228,22988,1668680517,672041765,,-0.09830486253312626,-0.6155448578560716,0.07088206676343922,0.9955612156868469,0.09352316526210465,-0.004347595386304483,0.009611544820768937
1668680517.6801221,22989,1668680517,679764804,,-0.09826462211778192,-0.6155069323555565,0.07088206676343922,0.9955612156868469,0.09352316526210465,-0.004347595386304483,0.009611544820768937
1668680517.68756,22990,1668680517,687447893,,-0.0982228059368089,-0.6154675217727498,0.07088206676343922,0.9955612156868469,0.09352316526210465,-0.004347595386304483,0.009611544820768937
1668680517.6953366,22991,1668680517,695222598,,-0.09817941425434093,-0.6154266263633941,0.07088206676343922,0.9955612156868469,0.09352316526210465,-0.004347595386304483,0.009611544820768937
1668680517.7036688,22992,1668680517,703486384,,-0.09813444734446342,-0.6153842463934087,0.07088206676343922,0.9955612156868469,0.09352316526210465,-0.004347595386304483,0.009611544820768937
1668680517.7116551,22993,1668680517,711547580,,-0.09808790549121185,-0.6153403821389474,0.07088206676343922,0.9955612156868469,0.09352316526210465,-0.004347595386304483,0.009611544820768937
1668680517.719841,22994,1668680517,719596465,,-0.09803978898856983,-0.6152950338864587,0.07088206676343922,0.9955612156868469,0.09352316526210465,-0.004347595386304483,0.009611544820768937
1668680517.7278533,22995,1668680517,727697694,,-0.09799009814046739,-0.615248201932748,0.07088206676343922,0.9955612156868469,0.09352316526210465,-0.004347595386304483,0.009611544820768937
1668680517.7360835,22996,1668680517,735888058,,-0.09793883326077887,-0.6151998865850422,0.07088206676343922,0.9955612156868469,0.09352316526210465,-0.004347595386304483,0.009611544820768937
1668680517.743357,22997,1668680517,743225909,,-0.09788599467332115,-0.6151500881610557,0.07088206676343922,0.9955612156868469,0.09352316526210465,-0.004347595386304483,0.009611544820768937
1668680517.7517674,22998,1668680517,751647195,,-0.09783158271185147,-0.6150988069890589,0.07088206676343922,0.9955612156868469,0.09352316526210465,-0.004347595386304483,0.009611544820768937
1668680517.7598085,22999,1668680517,759636851,,-0.09777559772006533,-0.6150460434079489,0.07088206676343922,0.9955612156868469,0.09352316526210465,-0.004347595386304483,0.009611544820768937
1668680517.7675288,23000,1668680517,767405565,,-0.0977180400515944,-0.6149917977673213,0.07088206676343922,0.9955612156868469,0.09352316526210465,-0.004347595386304483,0.009611544820768937
1668680517.7754116,23001,1668680517,775210842,,-0.09765891007000416,-0.6149360704275453,0.07088206676343922,0.9955612156868469,0.09352316526210465,-0.004347595386304483,0.009611544820768937
1668680517.7837403,23002,1668680517,783592682,,-0.09759820814879172,-0.61487886175984,0.07088206676343922,0.9955612156868469,0.09352316526210465,-0.004347595386304483,0.009611544820768937
1668680517.7919688,23003,1668680517,791794803,,-0.09753593467138338,-0.6148201721463525,0.07088206676343922,0.9955612156868469,0.09352316526210465,-0.004347595386304483,0.009611544820768937
1668680517.7998133,23004,1668680517,799622836,,-0.09747209003113233,-0.6147600019802392,0.07088206676343922,0.9955612156868469,0.09352316526210465,-0.004347595386304483,0.009611544820768937
1668680517.8080256,23005,1668680517,807814849,,-0.09740667463131597,-0.6146983516657473,0.07088206676343922,0.9955612156868469,0.09352316526210465,-0.004347595386304483,0.009611544820768937
1668680517.8155057,23006,1668680517,815303940,,-0.09733968888513356,-0.6146352216182998,0.07088206676343922,0.9955612156868469,0.09352316526210465,-0.004347595386304483,0.009611544820768937
1668680517.824054,23007,1668680517,823787800,,-0.09727113321570341,-0.614570612264582,0.07088206676343922,0.9955612156868469,0.09352316526210465,-0.004347595386304483,0.009611544820768937
1668680517.8319976,23008,1668680517,831780876,,-0.09720100805606047,-0.6145045240426298,0.07088206676343922,0.9955612156868469,0.09352316526210465,-0.004347595386304483,0.009611544820768937
1668680517.8398285,23009,1668680517,839666114,,-0.09712931384915327,-0.6144369574019197,0.07088206676343922,0.9955612156868469,0.09352316526210465,-0.004347595386304483,0.009611544820768937
1668680517.8478923,23010,1668680517,847683180,,-0.09705605104784146,-0.6143679128034619,0.07088206676343922,0.9955612156868469,0.09352316526210465,-0.004347595386304483,0.009611544820768937
1668680517.856183,23011,1668680517,856030441,,-0.09698122011489269,-0.6142973907198935,0.07088206676343922,0.9955612156868469,0.09352316526210465,-0.004347595386304483,0.009611544820768937
1668680517.8634412,23012,1668680517,863299907,,-0.0969048215229798,-0.6142253916355758,0.07088206676343922,0.9955612156868469,0.09352316526210465,-0.004347595386304483,0.009611544820768937
1668680517.871778,23013,1668680517,871590195,,-0.09682685575467781,-0.6141519160466912,0.07088206676343922,0.9955612156868469,0.09352316526210465,-0.004347595386304483,0.009611544820768937
1668680517.880063,23014,1668680517,879827491,,-0.09674732330246089,-0.6140769644613444,0.07088206676343922,0.9955612156868469,0.09352316526210465,-0.004347595386304483,0.009611544820768937
1668680517.8884501,23015,1668680517,888256193,,-0.09666622466869923,-0.6140005373996638,0.07088206676343922,0.9955612156868469,0.09352316526210465,-0.004347595386304483,0.009611544820768937
1668680517.895697,23016,1668680517,895571216,,-0.09658356036565591,-0.6139226353939049,0.07088206676343922,0.9955612156868469,0.09352316526210465,-0.004347595386304483,0.009611544820768937
1668680517.903513,23017,1668680517,903307073,,-0.09649933091548354,-0.6138432589885567,0.07088206676343922,0.9955612156868469,0.09352316526210465,-0.004347595386304483,0.009611544820768937
1668680517.911817,23018,1668680517,911665697,,-0.09641353685022117,-0.6137624087404491,0.07088206676343922,0.9955612156868469,0.09352316526210465,-0.004347595386304483,0.009611544820768937
1668680517.91975,23019,1668680517,919564618,,-0.09632617871179067,-0.613680085218862,0.07088206676343922,0.9955612156868469,0.09352316526210465,-0.004347595386304483,0.009611544820768937
1668680517.9279087,23020,1668680517,927675913,,-0.09623725705199357,-0.6135962890056369,0.07088206676343922,0.9955612156868469,0.09352316526210465,-0.004347595386304483,0.009611544820768937
1668680517.935558,23021,1668680517,935358198,,-0.09614677243250741,-0.6135110206952903,0.07088206676343922,0.9955612156868469,0.09352316526210465,-0.004347595386304483,0.009611544820768937
1668680517.9439204,23022,1668680517,943726794,,-0.09605472542488219,-0.613424280895128,0.07088206676343922,0.9955612156868469,0.09352316526210465,-0.004347595386304483,0.009611544820768937
1668680517.9522104,23023,1668680517,951978437,,-0.09596111661053686,-0.6133360702253626,0.07088206676343922,0.9955612156868469,0.09352316526210465,-0.004347595386304483,0.009611544820768937
1668680517.9600415,23024,1668680517,959803911,,-0.09586594658075553,-0.6132463893192316,0.07088206676343922,0.9955612156868469,0.09352316526210465,-0.004347595386304483,0.009611544820768937
1668680517.9680948,23025,1668680517,967810382,,-0.09576921593668389,-0.6131552388231182,0.07088206676343922,0.9955612156868469,0.09352316526210465,-0.004347595386304483,0.009611544820768937
1668680517.9758205,23026,1668680517,975665305,,-0.09567092528932525,-0.6130626193966732,0.07088206676343922,0.9955612156868469,0.09352316526210465,-0.004347595386304483,0.009611544820768937
1668680517.9839058,23027,1668680517,983671579,,-0.0955710752595367,-0.6129685317129392,0.07088206676343922,0.9955612156868469,0.09352316526210465,-0.004347595386304483,0.009611544820768937
1668680517.9916127,23028,1668680517,991491402,,-0.09546966647802535,-0.6128729764584763,0.07088206676343922,0.9955612156868469,0.09352316526210465,-0.004347595386304483,0.009611544820768937
1668680517.9997869,23029,1668680517,999655536,,-0.09536669958534419,-0.6127759543334896,0.07088206676343922,0.9955612156868469,0.09352316526210465,-0.004347595386304483,0.009611544820768937
1668680518.0076644,23030,1668680518,7526122,,-0.09526217523188801,-0.6126774660519583,0.07088206676343922,0.9955612156868469,0.09352316526210465,-0.004347595386304483,0.009611544820768937
1668680518.0155091,23031,1668680518,15343294,,-0.09515609407788952,-0.6125775123417669,0.07088206676343922,0.9955612156868469,0.09352316526210465,-0.004347595386304483,0.009611544820768937
1668680518.0239813,23032,1668680518,23788328,,-0.09504845679341486,-0.6124760939448378,0.07088206676343922,0.9955612156868469,0.09352316526210465,-0.004347595386304483,0.009611544820768937
1668680518.0323765,23033,1668680518,32044080,,-0.0949392640583597,-0.6123732116172657,0.07088206676343922,0.9955612156868469,0.09352316526210465,-0.004347595386304483,0.009611544820768937
1668680518.0399122,23034,1668680518,39755775,,-0.09482851656244462,-0.6122688661294534,0.07088206676343922,0.9955612156868469,0.09352316526210465,-0.004347595386304483,0.009611544820768937
1668680518.0484636,23035,1668680518,48041633,,-0.09471621500521105,-0.6121630582662503,0.07088206676343922,0.9955612156868469,0.09352316526210465,-0.004347595386304483,0.009611544820768937
1668680518.0555599,23036,1668680518,55420596,,-0.09460236009601664,-0.6120557888270909,0.07088206676343922,0.9955612156868469,0.09352316526210465,-0.004347595386304483,0.009611544820768937
1668680518.0639865,23037,1668680518,63774962,,-0.09448695255403086,-0.6119470586261365,0.07088206676343922,0.9955612156868469,0.09352316526210465,-0.004347595386304483,0.009611544820768937
1668680518.0717928,23038,1668680518,71656994,,-0.09436999310823052,-0.6118368684924178,0.07088206676343922,0.9955612156868469,0.09352316526210465,-0.004347595386304483,0.009611544820768937
1668680518.0799227,23039,1668680518,79680164,,-0.09425148249739498,-0.6117252192699789,0.07088206676343922,0.9955612156868469,0.09352316526210465,-0.004347595386304483,0.009611544820768937
1668680518.0877268,23040,1668680518,87552253,,-0.09413142147010173,-0.6116121118180237,0.07088206676343922,0.9955612156868469,0.09352316526210465,-0.004347595386304483,0.009611544820768937
1668680518.0958977,23041,1668680518,95718520,,-0.09400981078472143,-0.6114975470110631,0.07088206676343922,0.9955612156868469,0.09352316526210465,-0.004347595386304483,0.009611544820768937
1668680518.1041474,23042,1668680518,103961278,,-0.09388665120941325,-0.6113815257390641,0.07088206676343922,0.9955612156868469,0.09352316526210465,-0.004347595386304483,0.009611544820768937
1668680518.1119764,23043,1668680518,111764528,,-0.09376194352212006,-0.6112640489076009,0.07088206676343922,0.9955612156868469,0.09352316526210465,-0.004347595386304483,0.009611544820768937
1668680518.1202118,23044,1668680518,120006273,,-0.09363568851056334,-0.6111451174380066,0.07088206676343922,0.9955612156868469,0.09352316526210465,-0.004347595386304483,0.009611544820768937
1668680518.1280077,23045,1668680518,127850841,,-0.09350788697223839,-0.611024732267527,0.07088206676343922,0.9955612156868469,0.09352316526210465,-0.004347595386304483,0.009611544820768937
1668680518.1354444,23046,1668680518,135307240,,-0.09337853971440918,-0.6109028943494762,0.07088206676343922,0.9955612156868469,0.09352316526210465,-0.004347595386304483,0.009611544820768937
1668680518.1439593,23047,1668680518,143749653,,-0.09324764755410325,-0.6107796046533932,0.07088206676343922,0.9955612156868469,0.09352316526210465,-0.004347595386304483,0.009611544820768937
1668680518.1520107,23048,1668680518,151579638,,-0.09311521131810671,-0.6106548641652,0.07088206676343922,0.9955612156868469,0.09352316526210465,-0.004347595386304483,0.009611544820768937
1668680518.1598172,23049,1668680518,159609065,,-0.09298123184295873,-0.6105286738873617,0.07088206676343922,0.9955612156868469,0.09352316526210465,-0.004347595386304483,0.009611544820768937
1668680518.167971,23050,1668680518,167838483,,-0.09284570997494651,-0.610401034839047,0.07088206676343922,0.9955612156868469,0.09352316526210465,-0.004347595386304483,0.009611544820768937
1668680518.1755893,23051,1668680518,175426563,,-0.09270864657009983,-0.6102719480562916,0.07088206676343922,0.9955612156868469,0.09352316526210465,-0.004347595386304483,0.009611544820768937
1668680518.1837702,23052,1668680518,183630507,,-0.09257004249418563,-0.6101414145921621,0.07088206676343922,0.9955612156868469,0.09352316526210465,-0.004347595386304483,0.009611544820768937
1668680518.1919065,23053,1668680518,191772035,,-0.09242989862270262,-0.6100094355169208,0.07088206676343922,0.9955612156868469,0.09352316526210465,-0.004347595386304483,0.009611544820768937
1668680518.1997747,23054,1668680518,199606023,,-0.09228821584087563,-0.6098760119181932,0.07088206676343922,0.9955612156868469,0.09352316526210465,-0.004347595386304483,0.009611544820768937
1668680518.2077305,23055,1668680518,207597933,,-0.09214499504365012,-0.609741144901136,0.07088206676343922,0.9955612156868469,0.09352316526210465,-0.004347595386304483,0.009611544820768937
1668680518.2154887,23056,1668680518,215266344,,-0.0920002371356865,-0.6096048355886066,0.07088206676343922,0.9955612156868469,0.09352316526210465,-0.004347595386304483,0.009611544820768937
1668680518.224113,23057,1668680518,223902505,,-0.09185394303135438,-0.609467085121334,0.07088206676343922,0.9955612156868469,0.09352316526210465,-0.004347595386304483,0.009611544820768937
1668680518.2316651,23058,1668680518,231551996,,-0.0917061136547268,-0.6093278946580911,0.07088206676343922,0.9955612156868469,0.09352316526210465,-0.004347595386304483,0.009611544820768937
1668680518.2400842,23059,1668680518,239877126,,-0.09155674993957452,-0.6091872653758683,0.07088206676343922,0.9955612156868469,0.09352316526210465,-0.004347595386304483,0.009611544820768937
1668680518.2478466,23060,1668680518,247622445,,-0.09140585282935987,-0.6090451984700479,0.07088206676343922,0.9955612156868469,0.09352316526210465,-0.004347595386304483,0.009611544820768937
1668680518.2560756,23061,1668680518,255778877,,-0.09125342327723104,-0.6089016951545805,0.07088206676343922,0.9955612156868469,0.09352316526210465,-0.004347595386304483,0.009611544820768937
1668680518.2640078,23062,1668680518,263757321,,-0.09109946224601595,-0.6087567566621623,0.07088206676343922,0.9955612156868469,0.09352316526210465,-0.004347595386304483,0.009611544820768937
1668680518.2718718,23063,1668680518,271739168,,-0.09094397070821611,-0.6086103842444135,0.07088206676343922,0.9955612156868469,0.09352316526210465,-0.004347595386304483,0.009611544820768937
1668680518.279613,23064,1668680518,279459086,,-0.09078694964600059,-0.6084625791720581,0.07088206676343922,0.9955612156868469,0.09352316526210465,-0.004347595386304483,0.009611544820768937
1668680518.2879498,23065,1668680518,287686275,,-0.09062840005119976,-0.608313342735105,0.07088206676343922,0.9955612156868469,0.09352316526210465,-0.004347595386304483,0.009611544820768937
1668680518.2956638,23066,1668680518,295512394,,-0.09046832292529908,-0.6081626762430296,0.07088206676343922,0.9955612156868469,0.09352316526210465,-0.004347595386304483,0.009611544820768937
1668680518.3040175,23067,1668680518,303713477,,-0.0903067192794326,-0.6080105810249574,0.07088206676343922,0.9955612156868469,0.09352316526210465,-0.004347595386304483,0.009611544820768937
1668680518.312091,23068,1668680518,311805779,,-0.09014359013437681,-0.6078570584298487,0.07088206676343922,0.9955612156868469,0.09352316526210465,-0.004347595386304483,0.009611544820768937
1668680518.3199823,23069,1668680518,319684769,,-0.08997893652054403,-0.6077021098266836,0.07088206676343922,0.9955612156868469,0.09352316526210465,-0.004347595386304483,0.009611544820768937
1668680518.3276644,23070,1668680518,327519854,,-0.08981275947797604,-0.6075457366046487,0.07088206676343922,0.9955612156868469,0.09352316526210465,-0.004347595386304483,0.009611544820768937
1668680518.3356633,23071,1668680518,335419745,,-0.08964506005633727,-0.6073879401733248,0.07088206676343922,0.9955612156868469,0.09352316526210465,-0.004347595386304483,0.009611544820768937
1668680518.344049,23072,1668680518,343806417,,-0.08947583931490846,-0.6072287219628757,0.07088206676343922,0.9955612156868469,0.09352316526210465,-0.004347595386304483,0.009611544820768937
1668680518.3517065,23073,1668680518,351565829,,-0.0893050983225798,-0.607068083424238,0.07088206676343922,0.9955612156868469,0.09352316526210465,-0.004347595386304483,0.009611544820768937
1668680518.3597925,23074,1668680518,359564173,,-0.08913283815784415,-0.6069060260293114,0.07088206676343922,0.9955612156868469,0.09352316526210465,-0.004347595386304483,0.009611544820768937
1668680518.3680007,23075,1668680518,367851833,,-0.08895905990879036,-0.6067425512711511,0.07088206676343922,0.9955612156868469,0.09352316526210465,-0.004347595386304483,0.009611544820768937
1668680518.3756266,23076,1668680518,375460308,,-0.08878376467309626,-0.6065776606641601,0.07088206676343922,0.9955612156868469,0.09352316526210465,-0.004347595386304483,0.009611544820768937
1668680518.3839514,23077,1668680518,383682417,,-0.08860695355802187,-0.6064113557442827,0.07088206676343922,0.9955612156868469,0.09352316526210465,-0.004347595386304483,0.009611544820768937
1668680518.3917627,23078,1668680518,391571889,,-0.0884286276804023,-0.6062436380692,0.07088206676343922,0.9955612156868469,0.09352316526210465,-0.004347595386304483,0.009611544820768937
1668680518.4000144,23079,1668680518,399819646,,-0.08824878816664067,-0.6060745092185242,0.07088206676343922,0.9955612156868469,0.09352316526210465,-0.004347595386304483,0.009611544820768937
1668680518.408093,23080,1668680518,407915146,,-0.0880674361527011,-0.6059039707939956,0.07088206676343922,0.9955612156868469,0.09352316526210465,-0.004347595386304483,0.009611544820768937
1668680518.415473,23081,1668680518,415253722,,-0.0878845727841015,-0.60573202441968,0.07088206676343922,0.9955612156868469,0.09352316526210465,-0.004347595386304483,0.009611544820768937
1668680518.4238594,23082,1668680518,423642132,,-0.08770019921590627,-0.6055586717421664,0.07088206676343922,0.9955612156868469,0.09352316526210465,-0.004347595386304483,0.009611544820768937
1668680518.4318688,23083,1668680518,431704630,,-0.08751431661271905,-0.6053839144307661,0.07088206676343922,0.9955612156868469,0.09352316526210465,-0.004347595386304483,0.009611544820768937
1668680518.439606,23084,1668680518,439448952,,-0.08732692614867543,-0.6052077541777126,0.07088206676343922,0.9955612156868469,0.09352316526210465,-0.004347595386304483,0.009611544820768937
1668680518.4477015,23085,1668680518,447525170,,-0.08713802900743542,-0.6050301926983613,0.07088206676343922,0.9955612156868469,0.09352316526210465,-0.004347595386304483,0.009611544820768937
1668680518.456101,23086,1668680518,455877881,,-0.08694762638217601,-0.604851231731392,0.07088206676343922,0.9955612156868469,0.09352316526210465,-0.004347595386304483,0.009611544820768937
1668680518.4634936,23087,1668680518,463249381,,-0.08675571947558366,-0.6046708730390096,0.07088206676343922,0.9955612156868469,0.09352316526210465,-0.004347595386304483,0.009611544820768937
1668680518.4716852,23088,1668680518,471511842,,-0.0865623094998467,-0.6044891184071473,0.07088206676343922,0.9955612156868469,0.09352316526210465,-0.004347595386304483,0.009611544820768937
1668680518.4800303,23089,1668680518,479817971,,-0.08636739767664767,-0.6043059696456701,0.07088206676343922,0.9955612156868469,0.09352316526210465,-0.004347595386304483,0.009611544820768937
1668680518.487886,23090,1668680518,487606063,,-0.08617098523715555,-0.6041214285885785,0.07088206676343922,0.9955612156868469,0.09352316526210465,-0.004347595386304483,0.009611544820768937
1668680518.495818,23091,1668680518,495683399,,-0.08597307342201807,-0.6039354970942135,0.07088206676343922,0.9955612156868469,0.09352316526210465,-0.004347595386304483,0.009611544820768937
1668680518.5035574,23092,1668680518,503401015,,-0.08577366348135385,-0.6037481770454612,0.07088206676343922,0.9955612156868469,0.09352316526210465,-0.004347595386304483,0.009611544820768937
1668680518.5118103,23093,1668680518,511656155,,-0.08557275667474437,-0.6035594703499592,0.07088206676343922,0.9955612156868469,0.09352316526210465,-0.004347595386304483,0.009611544820768937
1668680518.5198715,23094,1668680518,519699039,,-0.0853703542712263,-0.6033693789403028,0.07088206676343922,0.9955612156868469,0.09352316526210465,-0.004347595386304483,0.009611544820768937
1668680518.5280323,23095,1668680518,527862584,,-0.08516645754928318,-0.6031779047742521,0.07088206676343922,0.9955612156868469,0.09352316526210465,-0.004347595386304483,0.009611544820768937
1668680518.535651,23096,1668680518,535327042,,-0.08496106779683751,-0.6029850498349392,0.07088206676343922,0.9955612156868469,0.09352316526210465,-0.004347595386304483,0.009611544820768937
1668680518.5438983,23097,1668680518,543742665,,-0.08475418631124262,-0.6027908161310759,0.07088206676343922,0.9955612156868469,0.09352316526210465,-0.004347595386304483,0.009611544820768937
1668680518.5518095,23098,1668680518,551669501,,-0.08454581439927442,-0.602595205697163,0.07088206676343922,0.9955612156868469,0.09352316526210465,-0.004347595386304483,0.009611544820768937
1668680518.5599165,23099,1668680518,559700522,,-0.08433595337712313,-0.6023982205936982,0.07088206676343922,0.9955612156868469,0.09352316526210465,-0.004347595386304483,0.009611544820768937
1668680518.5678988,23100,1668680518,567696504,,-0.08412460457038504,-0.6021998629073859,0.07088206676343922,0.9955612156868469,0.09352316526210465,-0.004347595386304483,0.009611544820768937
1668680518.57582,23101,1668680518,575623137,,-0.08391176931405406,-0.6020001347513468,0.07088206676343922,0.9955612156868469,0.09352316526210465,-0.004347595386304483,0.009611544820768937
1668680518.5833826,23102,1668680518,583219922,,-0.08369744895251338,-0.6017990382653278,0.07088206676343922,0.9955612156868469,0.09352316526210465,-0.004347595386304483,0.009611544820768937
1668680518.592695,23103,1668680518,592440987,,-0.08348164483952683,-0.6015965756159121,0.07088206676343922,0.9955612156868469,0.09352316526210465,-0.004347595386304483,0.009611544820768937
1668680518.600245,23104,1668680518,600046746,,-0.08326435833823051,-0.6013927489967305,0.07088206676343922,0.9955612156868469,0.09352316526210465,-0.004347595386304483,0.009611544820768937
1668680518.6086602,23105,1668680518,608410082,,-0.08304559082112406,-0.601187560628672,0.07088206676343922,0.9955612156868469,0.09352316526210465,-0.004347595386304483,0.009611544820768937
1668680518.6161027,23106,1668680518,615901229,,-0.082825343670062,-0.600981012760095,0.07088206676343922,0.9955612156868469,0.09352316526210465,-0.004347595386304483,0.009611544820768937
1668680518.6248953,23107,1668680518,624640974,,-0.08260361827624507,-0.600773107667039,0.07088206676343922,0.9955612156868469,0.09352316526210465,-0.004347595386304483,0.009611544820768937
1668680518.632258,23108,1668680518,632081157,,-0.08238041604021132,-0.6005638476534356,0.07088206676343922,0.9955612156868469,0.09352316526210465,-0.004347595386304483,0.009611544820768937
1668680518.640472,23109,1668680518,640305875,,-0.08215573837182741,-0.6003532350513218,0.07088206676343922,0.9955612156868469,0.09352316526210465,-0.004347595386304483,0.009611544820768937
1668680518.648575,23110,1668680518,648437689,,-0.08192958669027958,-0.6001412722210501,0.07088206676343922,0.9955612156868469,0.09352316526210465,-0.004347595386304483,0.009611544820768937
1668680518.6556773,23111,1668680518,655520345,,-0.08170196242406477,-0.5999279615515024,0.07088206676343922,0.9955612156868469,0.09352316526210465,-0.004347595386304483,0.009611544820768937
1668680518.6639225,23112,1668680518,663645599,,-0.08147286701098158,-0.5997133054603013,0.07088206676343922,0.9955612156868469,0.09352316526210465,-0.004347595386304483,0.009611544820768937
1668680518.6722395,23113,1668680518,671890686,,-0.08124230189812115,-0.5994973063940227,0.07088206676343922,0.9955612156868469,0.09352316526210465,-0.004347595386304483,0.009611544820768937
1668680518.679894,23114,1668680518,679703230,,-0.08101026854185803,-0.599279966828408,0.07088206676343922,0.9955612156868469,0.09352316526210465,-0.004347595386304483,0.009611544820768937
1668680518.6879747,23115,1668680518,687808689,,-0.08077676840784098,-0.5990612892685768,0.07088206676343922,0.9955612156868469,0.09352316526210465,-0.004347595386304483,0.009611544820768937
1668680518.6954703,23116,1668680518,695295416,,-0.08054180297098379,-0.5988412762492396,0.07088206676343922,0.9955612156868469,0.09352316526210465,-0.004347595386304483,0.009611544820768937
1668680518.7036698,23117,1668680518,703546479,,-0.08030537371545585,-0.5986199303349089,0.07088206676343922,0.9955612156868469,0.09352316526210465,-0.004347595386304483,0.009611544820768937
1668680518.7116933,23118,1668680518,711542895,,-0.08006748213467282,-0.5983972541201134,0.07088206676343922,0.9955612156868469,0.09352316526210465,-0.004347595386304483,0.009611544820768937
1668680518.7200458,23119,1668680518,719846191,,-0.07982812973128722,-0.5981732502296085,0.07088206676343922,0.9955612156868469,0.09352316526210465,-0.004347595386304483,0.009611544820768937
1668680518.727811,23120,1668680518,727679921,,-0.07958731801717894,-0.5979479213185899,0.07088206676343922,0.9955612156868469,0.09352316526210465,-0.004347595386304483,0.009611544820768937
1668680518.7354045,23121,1668680518,735265101,,-0.07934504851344565,-0.5977212700729042,0.07088206676343922,0.9955612156868469,0.09352316526210465,-0.004347595386304483,0.009611544820768937
1668680518.744013,23122,1668680518,743778877,,-0.07910132275039317,-0.5974932992092618,0.07088206676343922,0.9955612156868469,0.09352316526210465,-0.004347595386304483,0.009611544820768937
1668680518.7518318,23123,1668680518,751668432,,-0.07885614226752588,-0.5972640114754482,0.07088206676343922,0.9955612156868469,0.09352316526210465,-0.004347595386304483,0.009611544820768937
1668680518.7600698,23124,1668680518,759798132,,-0.078609508613537,-0.5970334096505351,0.07088206676343922,0.9955612156868469,0.09352316526210465,-0.004347595386304483,0.009611544820768937
1668680518.767843,23125,1668680518,767701293,,-0.07836142334629873,-0.5968014965450921,0.07088206676343922,0.9955612156868469,0.09352316526210465,-0.004347595386304483,0.009611544820768937
1668680518.7757118,23126,1668680518,775558094,,-0.0781118880328524,-0.596568275001397,0.07088206676343922,0.9955612156868469,0.09352316526210465,-0.004347595386304483,0.009611544820768937
1668680518.783769,23127,1668680518,783569329,,-0.07786090424939873,-0.5963337478936466,0.07088206676343922,0.9955612156868469,0.09352316526210465,-0.004347595386304483,0.009611544820768937
1668680518.7919724,23128,1668680518,791815353,,-0.07760847358128767,-0.5960979181281673,0.07088206676343922,0.9955612156868469,0.09352316526210465,-0.004347595386304483,0.009611544820768937
1668680518.7998657,23129,1668680518,799685531,,-0.07735459762300853,-0.5958607886436242,0.07088206676343922,0.9955612156868469,0.09352316526210465,-0.004347595386304483,0.009611544820768937
1668680518.8078992,23130,1668680518,807663250,,-0.07709927797817984,-0.5956223624112312,0.07088206676343922,0.9955612156868469,0.09352316526210465,-0.004347595386304483,0.009611544820768937
1668680518.8158894,23131,1668680518,815678452,,-0.07684251625953925,-0.5953826424349598,0.07088206676343922,0.9955612156868469,0.09352316526210465,-0.004347595386304483,0.009611544820768937
1668680518.8237271,23132,1668680518,823520736,,-0.07658431408893329,-0.5951416317517472,0.07088206676343922,0.9955612156868469,0.09352316526210465,-0.004347595386304483,0.009611544820768937
1668680518.8321302,23133,1668680518,831938724,,-0.0763246730973072,-0.5948993334317053,0.07088206676343922,0.9955612156868469,0.09352316526210465,-0.004347595386304483,0.009611544820768937
1668680518.8404136,23134,1668680518,840090251,,-0.07606359492469464,-0.5946557505783279,0.07088206676343922,0.9955612156868469,0.09352316526210465,-0.004347595386304483,0.009611544820768937
1668680518.8481638,23135,1668680518,847898204,,-0.0758010812202072,-0.5944108863286973,0.07088206676343922,0.9955612156868469,0.09352316526210465,-0.004347595386304483,0.009611544820768937
1668680518.8560898,23136,1668680518,855924767,,-0.07553713364202416,-0.5941647438536912,0.07088206676343922,0.9955612156868469,0.09352316526210465,-0.004347595386304483,0.009611544820768937
1668680518.8635404,23137,1668680518,863339115,,-0.07527175385738183,-0.5939173263581887,0.07088206676343922,0.9955612156868469,0.09352316526210465,-0.004347595386304483,0.009611544820768937
1668680518.871651,23138,1668680518,871525183,,-0.07500494354256318,-0.593668637081275,0.07088206676343922,0.9955612156868469,0.09352316526210465,-0.004347595386304483,0.009611544820768937
1668680518.8797112,23139,1668680518,879575654,,-0.07473670438288715,-0.5934186792964464,0.07088206676343922,0.9955612156868469,0.09352316526210465,-0.004347595386304483,0.009611544820768937
1668680518.8878214,23140,1668680518,887650382,,-0.07446703807269808,-0.5931674563118142,0.07088206676343922,0.9955612156868469,0.09352316526210465,-0.004347595386304483,0.009611544820768937
1668680518.8956857,23141,1668680518,895528166,,-0.07419594631535495,-0.5929149714703075,0.07088206676343922,0.9955612156868469,0.09352316526210465,-0.004347595386304483,0.009611544820768937
1668680518.9034712,23142,1668680518,903344244,,-0.07392343082322061,-0.5926612281498757,0.07088206676343922,0.9955612156868469,0.09352316526210465,-0.004347595386304483,0.009611544820768937
1668680518.9119134,23143,1668680518,911743747,,-0.07364949331765103,-0.5924062297636905,0.07088206676343922,0.9955612156868469,0.09352316526210465,-0.004347595386304483,0.009611544820768937
1668680518.9197357,23144,1668680518,919596336,,-0.07337413552898439,-0.5921499797603462,0.07088206676343922,0.9955612156868469,0.09352316526210465,-0.004347595386304483,0.009611544820768937
1668680518.9276915,23145,1668680518,927575622,,-0.07309735919653015,-0.5918924816240603,0.07088206676343922,0.9955612156868469,0.09352316526210465,-0.004347595386304483,0.009611544820768937
1668680518.9355261,23146,1668680518,935379283,,-0.07281916606855801,-0.5916337388748715,0.07088206676343922,0.9955612156868469,0.09352316526210465,-0.004347595386304483,0.009611544820768937
1668680518.9437253,23147,1668680518,943603800,,-0.072539557902287,-0.5913737550688392,0.07088206676343922,0.9955612156868469,0.09352316526210465,-0.004347595386304483,0.009611544820768937
1668680518.9518194,23148,1668680518,951639246,,-0.07225853646387423,-0.5911125337982398,0.07088206676343922,0.9955612156868469,0.09352316526210465,-0.004347595386304483,0.009611544820768937
1668680518.9598978,23149,1668680518,959693025,,-0.07197610352840386,-0.5908500786917635,0.07088206676343922,0.9955612156868469,0.09352316526210465,-0.004347595386304483,0.009611544820768937
1668680518.967857,23150,1668680518,967593365,,-0.07169226087987579,-0.5905863934147094,0.07088206676343922,0.9955612156868469,0.09352316526210465,-0.004347595386304483,0.009611544820768937
1668680518.975968,23151,1668680518,975625671,,-0.07140701031119448,-0.5903214816691799,0.07088206676343922,0.9955612156868469,0.09352316526210465,-0.004347595386304483,0.009611544820768937
1668680518.9848697,23152,1668680518,984610933,,-0.07112035362415756,-0.5900553471942735,0.07088206676343922,0.9955612156868469,0.09352316526210465,-0.004347595386304483,0.009611544820768937
1668680518.9920456,23153,1668680518,991845451,,-0.0708322926294444,-0.5897879937662778,0.07088206676343922,0.9955612156868469,0.09352316526210465,-0.004347595386304483,0.009611544820768937
1668680518.9997478,23154,1668680518,999555418,,-0.07054282914660487,-0.5895194251988592,0.07088206676343922,0.9955612156868469,0.09352316526210465,-0.004347595386304483,0.009611544820768937
1668680519.00796,23155,1668680519,7837899,,-0.07025196500404762,-0.5892496453432545,0.07088206676343922,0.9955612156868469,0.09352316526210465,-0.004347595386304483,0.009611544820768937
1668680519.0155618,23156,1668680519,15387745,,-0.06995970203902865,-0.5889786580884578,0.07088206676343922,0.9955612156868469,0.09352316526210465,-0.004347595386304483,0.009611544820768937
1668680519.023997,23157,1668680519,23778492,,-0.06966604209763971,-0.5887064673614092,0.07088206676343922,0.9955612156868469,0.09352316526210465,-0.004347595386304483,0.009611544820768937
1668680519.031702,23158,1668680519,31538589,,-0.06937098703479658,-0.5884330771271805,0.07088206676343922,0.9955612156868469,0.09352316526210465,-0.004347595386304483,0.009611544820768937
1668680519.0400214,23159,1668680519,39849570,,-0.06907453871422739,-0.5881584913891604,0.07088206676343922,0.9955612156868469,0.09352316526210465,-0.004347595386304483,0.009611544820768937
1668680519.0480466,23160,1668680519,47825805,,-0.06877669900846087,-0.5878827141892379,0.07088206676343922,0.9955612156868469,0.09352316526210465,-0.004347595386304483,0.009611544820768937
1668680519.0554807,23161,1668680519,55320996,,-0.06847746979881447,-0.5876057496079848,0.07088206676343922,0.9955612156868469,0.09352316526210465,-0.004347595386304483,0.009611544820768937
1668680519.0637603,23162,1668680519,63569254,,-0.06817685297538248,-0.5873276017648368,0.07088206676343922,0.9955612156868469,0.09352316526210465,-0.004347595386304483,0.009611544820768937
1668680519.072077,23163,1668680519,71864362,,-0.06787485043702418,-0.5870482748182725,0.07088206676343922,0.9955612156868469,0.09352316526210465,-0.004347595386304483,0.009611544820768937
1668680519.0798144,23164,1668680519,79605442,,-0.0675714640913517,-0.5867677729659921,0.07088206676343922,0.9955612156868469,0.09352316526210465,-0.004347595386304483,0.009611544820768937
1668680519.0877361,23165,1668680519,87567604,,-0.06726669585471809,-0.586486100445094,0.07088206676343922,0.9955612156868469,0.09352316526210465,-0.004347595386304483,0.009611544820768937
1668680519.0954797,23166,1668680519,95303088,,-0.06696054765220522,-0.5862032615322496,0.07088206676343922,0.9955612156868469,0.09352316526210465,-0.004347595386304483,0.009611544820768937
