Time,header.seq,header.stamp.secs,header.stamp.nsecs,header.frame_id,pose.position.x,pose.position.y,pose.position.z,pose.orientation.x,pose.orientation.y,pose.orientation.z,pose.orientation.w
1668678551.4004595,60561,1668678551,400365782,,-0.09535174713792278,-0.6129993762483549,0.07069073005765021,0.995557964498943,0.09353957092764383,-0.004372378484975722,0.009776006330691247
1668678551.4094012,60562,1668678551,409110475,,-0.09535178149231838,-0.612999376237218,0.07069120065026857,0.9955579644796259,0.09353957094336914,-0.004372379651724201,0.009776007625595775
1668678551.4164739,60563,1668678551,416332607,,-0.09535177371213188,-0.6129993762263058,0.07069169646740908,0.9955579644600153,0.0935395709591274,-0.004372380826810098,0.009776008946316047
1668678551.424274,60564,1668678551,424112391,,-0.09535172713476416,-0.612999376215533,0.0706922855678616,0.9955579644401166,0.0935395709749165,-0.004372382010016958,0.009776010292478361
1668678551.432681,60565,1668678551,432477538,,-0.0953516449150804,-0.6129993762047421,0.07069302402458906,0.9955579644199342,0.09353957099073404,-0.0043723832011288025,0.009776011663708294
1668678551.441153,60566,1668678551,440924004,,-0.09535153003016086,-0.6129993761938544,0.07069393209851627,0.9955579643994731,0.09353957100657792,-0.004372384399930425,0.009776013059631293
1668678551.4488988,60567,1668678551,448759894,,-0.09535138528556475,-0.6129993761826932,0.07069504588783283,0.9955579643787381,0.09353957102244571,-0.004372385606207507,0.009776014479873358
1668678551.4567275,60568,1668678551,456579641,,-0.0953512133250561,-0.612999376171217,0.0706963429962921,0.995557964357734,0.09353957103833536,-0.004372386819746078,0.009776015924058967
1668678551.4648433,60569,1668678551,464696272,,-0.09535101663776813,-0.61299937615962,0.07069776096113205,0.9955579643364657,0.09353957105424456,-0.004372388040333496,0.009776017391813654
1668678551.4728863,60570,1668678551,472656145,,-0.0953507975652104,-0.612999376148117,0.07069925111024244,0.9955579643149381,0.093539571070171,-0.004372389267757431,0.009776018882762432
1668678551.4804468,60571,1668678551,480285017,,-0.09535055830820267,-0.6129993761368231,0.07070079217664096,0.9955579642931558,0.09353957108611283,-0.004372390501806505,0.009776020396530341
1668678551.4893272,60572,1668678551,489023232,,-0.09535030093349947,-0.6129993761257415,0.0707023857028638,0.9955579642711236,0.09353957110206744,-0.004372391742270249,0.009776021932742632
1668678551.496625,60573,1668678551,496482107,,-0.09535002738024927,-0.612999376114834,0.07070403750396481,0.9955579642488466,0.093539571118033,-0.004372392988939012,0.00977602349102455
1668678551.5048175,60574,1668678551,504577187,,-0.09534973946642057,-0.6129993761043143,0.07070568420416251,0.9955579642263294,0.0935395711340071,-0.004372394241603855,0.009776025071001162
1668678551.5122573,60575,1668678551,512136504,,-0.09534943889484271,-0.6129993760948375,0.07070718575426811,0.9955579642035766,0.09353957114998819,-0.004372395500057086,0.009776026672298528
1668678551.5206866,60576,1668678551,520551067,,-0.09534912725868583,-0.6129993760867212,0.07070847346801669,0.9955579641805933,0.09353957116597358,-0.004372396764091351,0.00977602829454206
1668678551.528521,60577,1668678551,528351820,,-0.09534880604689973,-0.6129993760797687,0.07070952091053184,0.9955579641573841,0.09353957118196136,-0.004372398033500845,0.009776029937358014
1668678551.5368223,60578,1668678551,536622156,,-0.0953484766496809,-0.6129993760738173,0.0707103299364224,0.9955579641339538,0.09353957119794978,-0.004372399308080161,0.009776031600372694
1668678551.5445921,60579,1668678551,544473764,,-0.09534814036344133,-0.6129993760684541,0.07071097287769959,0.9955579641103072,0.0935395712139365,-0.004372400587625361,0.00977603328321331
1668678551.5523365,60580,1668678551,552115069,,-0.09534779839579731,-0.6129993760634368,0.07071150661159986,0.995557964086449,0.09353957122991943,-0.004372401871933145,0.009776034985506613
1668678551.5605884,60581,1668678551,560412167,,-0.0953474518701975,-0.6129993760586641,0.07071195437384271,0.995557964062384,0.09353957124589678,-0.004372403160801425,0.009776036706880733
1668678551.5690215,60582,1668678551,568764555,,-0.09534710183033462,-0.6129993760541016,0.07071231532994002,0.9955579640381168,0.09353957126186625,-0.004372404454028895,0.00977603844696365
1668678551.576544,60583,1668678551,576406676,,-0.09534674924436996,-0.6129993760497258,0.07071258532381158,0.9955579640136522,0.09353957127782615,-0.004372405751415515,0.009776040205384397
1668678551.5848699,60584,1668678551,584687251,,-0.09534639500898923,-0.6129993760455114,0.07071274816922087,0.9955579639889948,0.09353957129377438,-0.0043724070527621966,0.009776041981772107
1668678551.592266,60585,1668678551,592109827,,-0.09534603995327796,-0.6129993760414271,0.07071282956500442,0.9955579639641493,0.09353957130970904,-0.0043724083578709355,0.009776043775756856
1668678551.600811,60586,1668678551,600587330,,-0.09534568484242818,-0.6129993760374337,0.07071287262225429,0.9955579639391205,0.0935395713256282,-0.004372409666544879,0.00977604558696929
1668678551.6089907,60587,1668678551,608813957,,-0.09534533038129096,-0.6129993760335284,0.07071289981032797,0.995557963913913,0.0935395713415297,-0.004372410978588072,0.009776047415040963
1668678551.6177156,60588,1668678551,617515356,,-0.09534497721774358,-0.6129993760297097,0.07071292737233104,0.9955579638885313,0.09353957135741196,-0.0043724122938059665,0.009776049259603974
1668678551.624452,60589,1668678551,624268588,,-0.0953446259459088,-0.6129993760259657,0.07071282550239905,0.9955579638629805,0.09353957137327296,-0.004372413612004908,0.009776051120291368
1668678551.632997,60590,1668678551,632743473,,-0.0953442771091853,-0.6129993760221428,0.07071241315983716,0.9955579638372645,0.09353957138911083,-0.00437241493299263,0.009776052996737127
1668678551.6406038,60591,1668678551,640373702,,-0.09534393120316464,-0.612999376017903,0.0707116494609191,0.9955579638113885,0.0935395714049238,-0.0043724162565778445,0.009776054888575992
1668678551.6486213,60592,1668678551,648384764,,-0.09534358867855804,-0.6129993760131072,0.07071061885246126,0.9955579637853568,0.09353957142070991,-0.004372417582570568,0.00977605679544332
1668678551.6566007,60593,1668678551,656434893,,-0.09534324994390739,-0.6129993760079591,0.0707094287832865,0.995557963759174,0.09353957143646746,-0.004372418910781767,0.009776058716975967
1668678551.6656253,60594,1668678551,665352989,,-0.09534291536801556,-0.6129993760026978,0.07070815403799968,0.9955579637328448,0.09353957145219474,-0.004372420241024099,0.009776060652811674
1668678551.6720967,60595,1668678551,672007037,,-0.09534263801027662,-0.6129993759974721,0.07070680662180982,0.9955579637063735,0.09353957146788994,-0.004372421573111029,0.00977606260258872
1668678551.6805878,60596,1668678551,680456824,,-0.09534246662471649,-0.6129993759922012,0.0707053670452571,0.9955579636797647,0.09353957148355124,-0.004372422906857553,0.009776064565945833
1668678551.6885345,60597,1668678551,688346260,,-0.09534242091002286,-0.6129993759868495,0.07070383072349984,0.995557963653023,0.09353957149917691,-0.004372424242079963,0.009776066542524478
1668678551.6970034,60598,1668678551,696758338,,-0.0953424808691715,-0.612999375981153,0.07070213954475851,0.9955579636261527,0.09353957151476518,-0.0043724255785958,0.009776068531967124
1668678551.7045317,60599,1668678551,704412758,,-0.0953425800954692,-0.6129993759749987,0.0707003175830967,0.9955579635991584,0.09353957153031459,-0.004372426916223442,0.009776070533917394
1668678551.71211,60600,1668678551,711985957,,-0.09534268463666942,-0.6129993759690467,0.07069847445339174,0.9955579635720446,0.09353957154582308,-0.004372428254782883,0.009776072548020114
1668678551.7203662,60601,1668678551,720258269,,-0.09534278326004812,-0.6129993759635726,0.07069664856902591,0.9955579635448155,0.09353957156128927,-0.004372429594095121,0.00977607457392076
1668678551.7289436,60602,1668678551,728734717,,-0.09534287062687237,-0.6129993759584534,0.0706948135769294,0.9955579635174757,0.09353957157671142,-0.004372430933982887,0.009776076611266704
1668678551.73644,60603,1668678551,736307500,,-0.09534293887334462,-0.6129993759534195,0.07069293013114031,0.9955579634900295,0.09353957159208798,-0.004372432274269911,0.009776078659706018
1668678551.7447584,60604,1668678551,744654396,,-0.09534303151942905,-0.6129993759485486,0.07069102963258148,0.9955579634624812,0.09353957160741716,-0.00437243361478166,0.009776080718888575
1668678551.752648,60605,1668678551,752458826,,-0.09534316875197231,-0.6129993759442927,0.0706891880591816,0.9955579634348352,0.0935395716226975,-0.004372434955345032,0.009776082788465566
1668678551.7611055,60606,1668678551,760866783,,-0.09534332396190767,-0.6129993759408376,0.07068743631913868,0.9955579634070958,0.09353957163792752,-0.004372436295787854,0.009776084868089771
1668678551.7690582,60607,1668678551,768898074,,-0.09534348335143776,-0.6129993759381419,0.07068578773815691,0.9955579633792673,0.09353957165310545,-0.00437243763593941,0.009776086957414986
1668678551.7770154,60608,1668678551,776851840,,-0.09534362781817406,-0.6129993759362535,0.07068426675247325,0.9955579633513538,0.09353957166822986,-0.00437243897563035,0.009776089056096763
1668678551.784486,60609,1668678551,784298904,,-0.09534375412018815,-0.6129993759350892,0.07068287128600845,0.99555796332336,0.09353957168329936,-0.0043724403146927085,0.009776091163792307
1668678551.79249,60610,1668678551,792303312,,-0.09534386700859226,-0.6129993759344594,0.07068158287005877,0.9955579632952897,0.0935395716983124,-0.004372441652960443,0.009776093280160488
1668678551.8005347,60611,1668678551,800419899,,-0.09534396863503193,-0.612999375934241,0.07068039164560193,0.9955579632671472,0.09353957171326738,-0.0043724429902680705,0.009776095404861148
1668678551.8083992,60612,1668678551,808227892,,-0.09534406049451483,-0.6129993759343145,0.07067927513927347,0.9955579632389366,0.0935395717281631,-0.004372444326452448,0.009776097537556616
1668678551.816514,60613,1668678551,816375978,,-0.09534414440934429,-0.6129993759345254,0.07067820343448565,0.9955579632106624,0.09353957174299785,-0.004372445661351308,0.009776099677910157
1668678551.8250713,60614,1668678551,824867045,,-0.0953442156299296,-0.6129993759348308,0.07067717579501569,0.9955579631823284,0.09353957175777046,-0.0043724469948039505,0.009776101825587333
1668678551.8322217,60615,1668678551,832058610,,-0.0953442663979514,-0.6129993759352912,0.07067621887336739,0.9955579631539387,0.09353957177247921,-0.004372448326651104,0.009776103980254879
1668678551.840406,60616,1668678551,840312045,,-0.09534429524639625,-0.6129993759359406,0.07067534731544195,0.9955579631254976,0.09353957178712304,-0.004372449656735161,0.009776106141581739
1668678551.848494,60617,1668678551,848371926,,-0.09534430227210272,-0.6129993759367416,0.07067456584923142,0.995557963097009,0.09353957180170029,-0.004372450984899818,0.009776108309238361
1668678551.8569667,60618,1668678551,856706012,,-0.09534432693767891,-0.6129993759376833,0.070673884323456,0.9955579630684767,0.09353957181621012,-0.0043724523109903695,0.009776110482896923
1668678551.8648176,60619,1668678551,864624224,,-0.09534438777452499,-0.6129993759387826,0.07067335084153369,0.995557963039905,0.09353957183065069,-0.00437245363485386,0.009776112662231547
1668678551.8721223,60620,1668678551,872021486,,-0.0953444522069822,-0.6129993759400705,0.07067302958091748,0.9955579630112978,0.09353957184502107,-0.004372454956338276,0.009776114846918411
1668678551.880296,60621,1668678551,880175885,,-0.09534450958269815,-0.6129993759414177,0.07067293024589114,0.9955579629826592,0.09353957185931969,-0.004372456275293146,0.009776117036635236
1668678551.8888273,60622,1668678551,888566052,,-0.09534456946789151,-0.6129993759426714,0.07067295900026625,0.9955579629539929,0.09353957187354531,-0.00437245759156983,0.009776119231061786
1668678551.8966446,60623,1668678551,896521118,,-0.09534464521101604,-0.6129993759437797,0.07067298878762607,0.9955579629253027,0.09353957188769699,-0.004372458905021346,0.009776121429880035
1668678551.9046614,60624,1668678551,904432238,,-0.09534481715460111,-0.6129993759447371,0.07067297513041107,0.9955579628965927,0.09353957190177309,-0.004372460215502207,0.009776123632773625
1668678551.9130251,60625,1668678551,912799428,,-0.0953451206729871,-0.612999375945504,0.07067289801270504,0.9955579628678668,0.09353957191577264,-0.004372461522868947,0.009776125839428464
1668678551.9214363,60626,1668678551,921183360,,-0.09534551088398913,-0.6129993759460755,0.07067274308060822,0.9955579628391285,0.09353957192969442,-0.004372462826978703,0.009776128049532906
1668678551.9293268,60627,1668678551,929172591,,-0.09534596258247341,-0.6129993759464489,0.07067250634653738,0.9955579628103816,0.0935395719435373,-0.004372464127690319,0.009776130262776331
1668678551.9373844,60628,1668678551,937169378,,-0.09534643965842701,-0.6129993759466803,0.07067223939814586,0.99555796278163,0.09353957195730031,-0.004372465424863701,0.009776132478850365
1668678551.945271,60629,1668678551,945042521,,-0.09534690843667479,-0.6129993759468512,0.0706719692234938,0.9955579627528774,0.09353957197098174,-0.004372466718360744,0.009776134697448445
1668678551.9531412,60630,1668678551,952819785,,-0.09534734119537562,-0.6129993759469569,0.07067164906300623,0.9955579627241274,0.09353957198458097,-0.0043724680080444904,0.009776136918265945
1668678551.9615712,60631,1668678551,961228501,,-0.09534773042794292,-0.6129993759469872,0.07067126697502406,0.995557962695384,0.09353957199809687,-0.004372469293780051,0.009776139141001266
1668678551.9684496,60632,1668678551,968326120,,-0.09534807378004967,-0.6129993759469436,0.0706708349655045,0.9955579626666504,0.0935395720115284,-0.004372470575434336,0.009776141365354693
1668678551.97651,60633,1668678551,976306992,,-0.09534836651492269,-0.6129993759468435,0.07067036751025085,0.9955579626379303,0.09353957202487431,-0.004372471852875476,0.009776143591028375
1668678551.9851153,60634,1668678551,984886695,,-0.09534860798876743,-0.6129993759466453,0.07066982597381023,0.9955579626092275,0.09353957203813361,-0.004372473125973448,0.00977614581772723
1668678551.9923077,60635,1668678551,992155002,,-0.09534879962444566,-0.612999375946315,0.0706692252253865,0.9955579625805453,0.0935395720513054,-0.004372474394599782,0.009776148045158107
1668678552.0005853,60636,1668678552,433439,,-0.09534894423756637,-0.6129993759459815,0.07066862475435419,0.9955579625518873,0.09353957206438863,-0.004372475658627818,0.009776150273030264
1668678552.008697,60637,1668678552,8540939,,-0.09534904486450542,-0.6129993759456757,0.07066805411167369,0.9955579625232568,0.09353957207738231,-0.004372476917932219,0.009776152501055376
1668678552.0170324,60638,1668678552,16826914,,-0.09534910418015563,-0.6129993759454694,0.0706675559250533,0.9955579624946576,0.09353957209028567,-0.004372478172389235,0.0097761547289466
1668678552.0246506,60639,1668678552,24500440,,-0.09534912501310773,-0.6129993759454149,0.07066720895155425,0.9955579624660927,0.09353957210309759,-0.004372479421876922,0.00977615695642033
1668678552.0321655,60640,1668678552,31986369,,-0.09534911019438341,-0.6129993759455302,0.07066710587103268,0.9955579624375659,0.0935395721158173,-0.004372480666274704,0.00977615918319443
1668678552.0406075,60641,1668678552,40483630,,-0.09534906251180797,-0.6129993759456384,0.07066726353046798,0.9955579624090802,0.09353957212844377,-0.00437248190546381,0.009776161408989627
1668678552.0487156,60642,1668678552,48465588,,-0.09534898462522177,-0.6129993759455735,0.07066762019643837,0.995557962380639,0.09353957214097618,-0.004372483139327003,0.009776163633528956
1668678552.056352,60643,1668678552,56254190,,-0.09534887902760186,-0.6129993759453143,0.07066809708053122,0.9955579623522458,0.09353957215341346,-0.00437248436774857,0.009776165856537176
1668678552.0648515,60644,1668678552,64666985,,-0.09534874809186518,-0.6129993759449509,0.07066860264698295,0.9955579623239037,0.09353957216575497,-0.004372485590614534,0.009776168077742507
1668678552.072569,60645,1668678552,72434143,,-0.09534860612262176,-0.6129993759446805,0.0706689996124266,0.9955579622956158,0.09353957217799996,-0.00437248680781258,0.009776170296874618
1668678552.0812685,60646,1668678552,81036234,,-0.09534846632458714,-0.612999375944581,0.07066922131099504,0.9955579622673855,0.09353957219014752,-0.004372488019231764,0.009776172513665736
1668678552.0884721,60647,1668678552,88337439,,-0.09534833529589035,-0.6129993759445428,0.07066924172695412,0.9955579622392158,0.09353957220219707,-0.0043724892247631,0.009776174727850778
1668678552.0964606,60648,1668678552,96321892,,-0.09534821035733797,-0.6129993759444154,0.07066896961777577,0.9955579622111099,0.09353957221414766,-0.004372490424298761,0.009776176939166903
1668678552.105061,60649,1668678552,104864449,,-0.09534807791192358,-0.6129993759437412,0.07066824268729985,0.995557962183071,0.09353957222599835,-0.004372491617733047,0.00977617914735403
1668678552.112846,60650,1668678552,112724626,,-0.09534793174411597,-0.6129993759415462,0.0706669174330033,0.9955579621551018,0.09353957223774897,-0.004372492804961337,0.009776181352154112
1668678552.1213055,60651,1668678552,121125145,,-0.09534777077994272,-0.6129993759367737,0.07066498113841124,0.9955579621272058,0.09353957224939817,-0.004372493985881091,0.009776183553312293
1668678552.1288848,60652,1668678552,128695278,,-0.09534759521105873,-0.6129993759273856,0.07066222399958154,0.9955579620993856,0.09353957226094574,-0.0043724951603910205,0.009776185750575287
1668678552.1367579,60653,1668678552,136583536,,-0.09534740455698622,-0.612999375908424,0.07065831586815675,0.9955579620716445,0.09353957227239058,-0.004372496328391701,0.009776187943693048
1668678552.1449685,60654,1668678552,144713811,,-0.09534719933590614,-0.6129993758724607,0.07065291104790647,0.9955579620439852,0.0935395722837324,-0.0043724974897854626,0.009776190132417695
1668678552.1525156,60655,1668678552,152310059,,-0.09534698054532535,-0.6129993758082419,0.07064572019586365,0.9955579620164107,0.09353957229497047,-0.004372498644476008,0.009776192316503823
1668678552.1603987,60656,1668678552,160224145,,-0.09534674949413079,-0.6129993757088064,0.07063678616334786,0.9955579619889235,0.09353957230610406,-0.004372499792368716,0.009776194495708983
1668678552.1687188,60657,1668678552,168523024,,-0.09534650750330748,-0.6129993755709215,0.07062620482222896,0.9955579619615269,0.09353957231713267,-0.004372500933370544,0.009776196669792564
1668678552.1768055,60658,1668678552,176607510,,-0.09534625575645005,-0.6129993753889522,0.07061394176616322,0.9955579619342236,0.09353957232805571,-0.004372502067390368,0.00977619883851732
1668678552.1845345,60659,1668678552,184395127,,-0.09534599543684082,-0.6129993751605287,0.07060011610732544,0.9955579619070161,0.09353957233887274,-0.004372503194338187,0.009776201001647779
1668678552.192155,60660,1668678552,192024817,,-0.09534572769380265,-0.6129993748951654,0.07058501313281675,0.9955579618799073,0.09353957234958311,-0.0043725043141260075,0.009776203158951651
1668678552.2003577,60661,1668678552,200241930,,-0.09534545362840724,-0.6129993746003309,0.07056881011311776,0.9955579618528998,0.09353957236018616,-0.004372505426667225,0.009776205310199014
1668678552.208991,60662,1668678552,208753020,,-0.09534517427676192,-0.6129993742902077,0.07055187876995539,0.9955579618259964,0.09353957237068151,-0.004372506531877017,0.009776207455162689
1668678552.2166283,60663,1668678552,216434099,,-0.09534489060419643,-0.6129993739920363,0.07053469668140876,0.9955579617991998,0.0935395723810688,-0.004372507629672146,0.00977620959361762
1668678552.2242308,60664,1668678552,224097095,,-0.09534460351221997,-0.6129993737256717,0.0705176779430172,0.9955579617725123,0.09353957239134726,-0.004372508719970882,0.009776211725341944
1668678552.233224,60665,1668678552,232991753,,-0.09534431384095535,-0.6129993735061278,0.07050106981528169,0.9955579617459365,0.09353957240151689,-0.0043725098026931464,0.00977621385011633
1668678552.240849,60666,1668678552,240653009,,-0.09534402236601766,-0.6129993733347445,0.07048502505568695,0.995557961719475,0.0935395724115769,-0.004372510877760368,0.009776215967723576
1668678552.2483976,60667,1668678552,248290693,,-0.09534372980693434,-0.6129993732192371,0.07046976381400084,0.9955579616931303,0.0935395724215269,-0.00437251194509582,0.009776218077949862
1668678552.256549,60668,1668678552,256355563,,-0.09534343682844737,-0.6129993731639295,0.07045556068244435,0.9955579616669048,0.09353957243136642,-0.0043725130046242695,0.00977622018058358
1668678552.264475,60669,1668678552,264379071,,-0.09534314404487296,-0.612999373175076,0.07044270538399182,0.9955579616408009,0.09353957244109519,-0.004372514056272027,0.00977622227541565
1668678552.2723987,60670,1668678552,272164313,,-0.09534285201785136,-0.6129993732467047,0.07043129951835764,0.995557961614821,0.09353957245071305,-0.004372515099967058,0.009776224362240153
1668678552.2805216,60671,1668678552,280416117,,-0.09534256126131771,-0.6129993733673521,0.07042131430944308,0.9955579615889676,0.09353957246021948,-0.004372516135638777,0.009776226440853191
1668678552.2883883,60672,1668678552,288235811,,-0.09534227146673985,-0.6129993735244985,0.07041269071171434,0.9955579615632427,0.09353957246961404,-0.0043725171632183575,0.009776228511054193
1668678552.296391,60673,1668678552,296237925,,-0.09534198001241963,-0.6129993737084061,0.07040538936678166,0.9955579615376486,0.09353957247889653,-0.004372518182638476,0.009776230572644677
1668678552.3050423,60674,1668678552,304759227,,-0.09534168137173787,-0.6129993739089391,0.07039927015878872,0.9955579615121879,0.0935395724880664,-0.004372519193833494,0.00977623262542919
1668678552.3120997,60675,1668678552,311994160,,-0.0953413673539889,-0.6129993741167268,0.07039418149035276,0.9955579614868624,0.09353957249712369,-0.004372520196739194,0.00977623466921531
1668678552.3203948,60676,1668678552,320237724,,-0.09534102733220477,-0.6129993743263581,0.07039004946129979,0.9955579614616743,0.09353957250606813,-0.00437252119129291,0.00977623670381249
1668678552.3287873,60677,1668678552,328618316,,-0.09534064845583298,-0.6129993745336008,0.0703868052306522,0.9955579614366261,0.09353957251489933,-0.00437252217743378,0.0097762387290339
1668678552.3369908,60678,1668678552,336676941,,-0.09534021585189083,-0.612999374735369,0.07038442618873884,0.9955579614117196,0.09353957252361714,-0.004372523155102265,0.0097762407446945
1668678552.344159,60679,1668678552,344036224,,-0.09533971281416877,-0.6129993749294689,0.07038291403761678,0.9955579613869567,0.09353957253222125,-0.004372524124240591,0.009776242750612877
1668678552.35277,60680,1668678552,352534405,,-0.09533912098087786,-0.6129993751136702,0.070382226091441,0.9955579613623398,0.09353957254071153,-0.004372525084792599,0.009776244746610152
1668678552.3606424,60681,1668678552,360521859,,-0.09533842050199012,-0.6129993752861489,0.07038231065881788,0.9955579613378707,0.09353957254908785,-0.004372526036703638,0.009776246732510221
1668678552.3689282,60682,1668678552,368665456,,-0.09533759019625894,-0.6129993754457311,0.07038306490689561,0.9955579613135513,0.09353957255734988,-0.004372526979920793,0.009776248708140202
1668678552.3765926,60683,1668678552,376396612,,-0.09533660769843776,-0.6129993755919976,0.07038435237920951,0.9955579612893837,0.09353957256549772,-0.0043725279143928,0.00977625067332984
1668678552.3849092,60684,1668678552,384744847,,-0.09533544959705474,-0.6129993757248913,0.07038614504337083,0.9955579612653697,0.09353957257353081,-0.0043725288400702465,0.009776252627912341
1668678552.3920264,60685,1668678552,391910311,,-0.09533409156325373,-0.6129993758439787,0.07038850035179793,0.9955579612415109,0.0935395725814493,-0.00437252975690517,0.00977625457172386
1668678552.4009504,60686,1668678552,400553174,,-0.09533250847165865,-0.6129993759488525,0.07039142511518656,0.9955579612178094,0.09353957258925301,-0.004372530664851434,0.00977625650460368
1668678552.40857,60687,1668678552,408351040,,-0.09533067451327572,-0.6129993760394944,0.07039489809302604,0.9955579611942666,0.09353957259694183,-0.004372531563864733,0.009776258426394381
1668678552.4164495,60688,1668678552,416313835,,-0.09532865141032004,-0.6129993761170781,0.07039877782869768,0.9955579611708846,0.09353957260451574,-0.004372532453901028,0.00977626033693804
1668678552.4244134,60689,1668678552,424255813,,-0.09532647177588904,-0.6129993761847857,0.07040287022299423,0.9955579611476649,0.09353957261197512,-0.004372533334916221,0.00977626223607503
1668678552.432412,60690,1668678552,432228476,,-0.09532406350637107,-0.6129993762437053,0.07040709913872695,0.9955579611246094,0.09353957261931922,-0.004372534206872108,0.009776264123660335
1668678552.440465,60691,1668678552,440319833,,-0.09532137902813749,-0.6129993762945002,0.07041142767870429,0.9955579611017195,0.09353957262654823,-0.004372535069731412,0.00977626599955033
1668678552.4485152,60692,1668678552,448383850,,-0.09531843015219564,-0.6129993763376664,0.07041584467709326,0.9955579610789966,0.09353957263366248,-0.004372535923457298,0.009776267863600733
1668678552.45675,60693,1668678552,456575635,,-0.09531524969610254,-0.6129993763738955,0.07042034255865998,0.9955579610564427,0.09353957264066144,-0.004372536768012379,0.00977626971566482
1668678552.4649236,60694,1668678552,464720405,,-0.09531175851320088,-0.6129993764035316,0.07042487954025906,0.9955579610340589,0.09353957264754532,-0.004372537603364674,0.009776271555608928
1668678552.4722724,60695,1668678552,472142479,,-0.0953078250708209,-0.6129993764263166,0.07042941604916653,0.9955579610118467,0.09353957265431417,-0.0043725384294892875,0.009776273383315427
1668678552.4804287,60696,1668678552,480324291,,-0.09530338574406248,-0.6129993764416771,0.07043394504287716,0.9955579609898072,0.09353957266096813,-0.0043725392463614425,0.00977627519866568
1668678552.4885051,60697,1668678552,488311658,,-0.09529839471160412,-0.6129993764492061,0.0704384591553092,0.9955579609679418,0.09353957266750709,-0.004372540053956852,0.009776277001540677
1668678552.49744,60698,1668678552,497146760,,-0.09529279890301168,-0.6129993764483205,0.07044293608301645,0.9955579609462516,0.09353957267393109,-0.004372540852255036,0.00977627879183025
1668678552.5043805,60699,1668678552,504255669,,-0.09528655956999878,-0.6129993764382723,0.07044739171067685,0.9955579609247377,0.0935395726802402,-0.004372541641236865,0.009776280569426036
1668678552.5151353,60700,1668678552,514704137,,-0.0952796455597484,-0.6129993764175691,0.07045187607017411,0.9955579609034013,0.09353957268643442,-0.0043725424208852165,0.009776282334223558
1668678552.5206676,60701,1668678552,520504413,,-0.09527203108699749,-0.6129993763853362,0.07045639785681809,0.9955579608822435,0.09353957269251406,-0.0043725431911844324,0.009776284086121582
1668678552.5297585,60702,1668678552,529585359,,-0.09526370142214728,-0.6129993763403194,0.07046104306279977,0.995557960861265,0.09353957269847904,-0.004372543952120056,0.009776285825020313
1668678552.5369616,60703,1668678552,536875065,,-0.09525464545712652,-0.6129993762801396,0.07046594249240515,0.9955579608404673,0.09353957270432958,-0.004372544703678574,0.009776287550821609
1668678552.5444303,60704,1668678552,544331515,,-0.09524514656105047,-0.6129993762045071,0.0704714929817186,0.9955579608198518,0.09353957271006587,-0.004372545445818993,0.009776289263363474
1668678552.5521202,60705,1668678552,552023834,,-0.09523585232123015,-0.612999376115588,0.07047834864119262,0.9955579607994223,0.09353957271568834,-0.004372546178432659,0.009776290962327662
1668678552.5609136,60706,1668678552,560712930,,-0.09522705211034967,-0.6129993760122451,0.07048673458620482,0.9955579607791812,0.09353957272119737,-0.004372546901439742,0.009776292647461998
1668678552.5688293,60707,1668678552,568699959,,-0.09521882359925007,-0.6129993758878312,0.07049669404998725,0.99555796075913,0.09353957272659322,-0.004372547614827981,0.009776294318669323
1668678552.576758,60708,1668678552,576628140,,-0.09521251625311679,-0.612999375728803,0.07050911616441154,0.995557960739272,0.09353957273187641,-0.004372548318476509,0.009776295975599644
1668678552.584849,60709,1668678552,584640049,,-0.09521096390445109,-0.6129993754694272,0.07052569972660962,0.9955579607196129,0.09353957273704737,-0.004372549012234399,0.00977629761781769
1668678552.5926237,60710,1668678552,592442123,,-0.09521643739547739,-0.6129993749330177,0.07054771249976312,0.9955579607001446,0.09353957274210603,-0.004372549696417028,0.00977629924593272
1668678552.600783,60711,1668678552,600578422,,-0.09522920505821919,-0.6129993739077281,0.0705752459188645,0.9955579606808477,0.09353957274705053,-0.004372550371806335,0.00977630086161741
1668678552.6086423,60712,1668678552,608503665,,-0.09524904252237977,-0.6129993722304595,0.07060816672437613,0.9955579606617027,0.09353957275187857,-0.004372551039180165,0.009776302466545478
1668678552.6165483,60713,1668678552,616406455,,-0.09527599158799067,-0.6129993697220981,0.07064653046439376,0.995557960642689,0.09353957275658861,-0.004372551699343261,0.009776304062444941
1668678552.6248453,60714,1668678552,624615523,,-0.09530902657466925,-0.6129993663830025,0.07068940916475773,0.9955579606237973,0.09353957276117963,-0.004372552352688038,0.00977630565013027
1668678552.632119,60715,1668678552,632009934,,-0.09534637294108327,-0.6129993625083313,0.07073514934387601,0.9955579606050381,0.09353957276565301,-0.004372552998811838,0.009776307228648702
1668678552.6402721,60716,1668678552,640178210,,-0.09538693026636272,-0.6129993583581546,0.0707828336639475,0.9955579605864254,0.09353957277001007,-0.004372553637216533,0.009776308796828642
1668678552.6485946,60717,1668678552,648480791,,-0.09542993465879009,-0.612999354067507,0.07083189627331242,0.9955579605679677,0.0935395727742521,-0.004372554267596661,0.009776310353921552
1668678552.6570604,60718,1668678552,656808026,,-0.09547387599541178,-0.6129993499317052,0.07088136122773585,0.9955579605496879,0.09353957277838167,-0.004372554889086759,0.009776311897933784
1668678552.6649086,60719,1668678552,664714839,,-0.09551635444595859,-0.6129993464030606,0.07092976228742737,0.9955579605316278,0.09353957278240303,-0.004372555500115724,0.00977631342530111
1668678552.6721036,60720,1668678552,671998012,,-0.09555527330862369,-0.612999343912617,0.07097573516476097,0.9955579605138277,0.0935395727863205,-0.004372556099149551,0.009776314932541517
1668678552.6805966,60721,1668678552,680389910,,-0.09558999985516381,-0.6129993425000623,0.07101891296423629,0.9955579604962973,0.09353957279013572,-0.004372556685846873,0.009776316418823861
1668678552.688982,60722,1668678552,688791209,,-0.09561990325539822,-0.6129993420888468,0.07105868160965352,0.995557960479034,0.09353957279384825,-0.004372557260331905,0.009776317884351977
1668678552.6962492,60723,1668678552,696156314,,-0.0956440183803918,-0.6129993427248313,0.07109408558773915,0.9955579604620416,0.09353957279745931,-0.0043725578224727375,0.009776319328764327
1668678552.7040477,60724,1668678552,703943328,,-0.09566199625508996,-0.6129993442570355,0.07112468852069788,0.9955579604453109,0.09353957280096803,-0.00437255837266594,0.009776320752873158
1668678552.7124317,60725,1668678552,712275486,,-0.0956739150724356,-0.612999346456752,0.07115049465490673,0.995557960428826,0.09353957280437315,-0.004372558911529064,0.00977632215798176
1668678552.7209706,60726,1668678552,720690015,,-0.09567995301931283,-0.6129993490742045,0.07117167679146386,0.9955579604125709,0.09353957280767361,-0.004372559439716119,0.009776323545472575
1668678552.728514,60727,1668678552,728354923,,-0.0956802248773393,-0.6129993519112454,0.07118832097858023,0.9955579603965315,0.09353957281086789,-0.00437255995780311,0.009776324916555472
1668678552.7364602,60728,1668678552,736335829,,-0.09567492337950496,-0.6129993547956085,0.07120025286900679,0.9955579603806938,0.09353957281395535,-0.004372560466333613,0.00977632627236674
1668678552.7441943,60729,1668678552,744091308,,-0.09566427559554136,-0.6129993575823077,0.07120740704380397,0.9955579603650464,0.09353957281693503,-0.004372560965793806,0.009776327613913952
1668678552.752973,60730,1668678552,752745078,,-0.09564852871462332,-0.6129993601280659,0.07121015057153922,0.9955579603495784,0.09353957281980613,-0.004372561456604854,0.009776328942058994
1668678552.7612817,60731,1668678552,761112645,,-0.09562792500160051,-0.6129993623271128,0.07120882847218493,0.9955579603342819,0.09353957282256864,-0.00437256193912477,0.009776330257523164
1668678552.7692301,60732,1668678552,769007166,,-0.09560268955257303,-0.6129993641104481,0.07120427830965102,0.9955579603191492,0.09353957282522193,-0.004372562413659416,0.009776331560909967
1668678552.777581,60733,1668678552,777376066,,-0.09557304191363983,-0.6129993654521796,0.07119754671967794,0.9955579603041745,0.09353957282776613,-0.0043725628804639795,0.009776332852710738
1668678552.7858858,60734,1668678552,785451375,,-0.09553949915385643,-0.6129993663752388,0.07118957064453725,0.9955579602893558,0.09353957283020146,-0.0043725633396404185,0.00977633413307189
1668678552.7929564,60735,1668678552,792713051,,-0.09550276134153383,-0.6129993669566961,0.0711812902189668,0.995557960274698,0.09353957283252869,-0.004372563791038317,0.00977633540157308
1668678552.8015895,60736,1668678552,801375540,,-0.09546317174874576,-0.6129993672490749,0.07117309139495562,0.9955579602602037,0.09353957283474884,-0.004372564234582552,0.009776336657964485
1668678552.8091612,60737,1668678552,809020965,,-0.0954209469571121,-0.6129993672768884,0.07116516673598638,0.995557960245873,0.09353957283686261,-0.004372564670292088,0.00977633790220935
1668678552.817373,60738,1668678552,817141179,,-0.09537636820972735,-0.6129993670833493,0.07115777599425803,0.9955579602317088,0.09353957283887056,-0.004372565098084924,0.009776339134043568
1668678552.8252707,60739,1668678552,825002754,,-0.095329467340434,-0.6129993666862303,0.07115106445864304,0.9955579602177113,0.09353957284077319,-0.004372565517991834,0.00977634035345683
1668678552.8322237,60740,1668678552,832053879,,-0.09528013530746673,-0.6129993660762121,0.071145129202867,0.9955579602038758,0.09353957284257079,-0.004372565930204893,0.009776341560801092
1668678552.8405702,60741,1668678552,840345624,,-0.09522838743605892,-0.6129993652553921,0.07113996814867724,0.9955579601902004,0.09353957284426363,-0.004372566334830901,0.009776342756236865
1668678552.8487062,60742,1668678552,848470897,,-0.09517405679084057,-0.6129993642112045,0.07113537465347686,0.9955579601766813,0.0935395728458519,-0.004372566732049109,0.009776343940086727
1668678552.8565862,60743,1668678552,856470463,,-0.09511686321110661,-0.6129993628973529,0.07113107489514447,0.9955579601633086,0.09353957284733537,-0.004372567122255589,0.009776345113159971
1668678552.8644645,60744,1668678552,864354290,,-0.09505685437184568,-0.6129993613129202,0.07112691018285384,0.9955579601500791,0.09353957284871425,-0.004372567505599665,0.009776346275711422
1668678552.872123,60745,1668678552,871954286,,-0.09499437921209104,-0.6129993595084012,0.07112281616599114,0.9955579601369982,0.09353957284998972,-0.004372567881909755,0.009776347427275902
1668678552.8811967,60746,1668678552,880975729,,-0.09492970075382821,-0.612999357539355,0.07111879501367507,0.9955579601240722,0.09353957285116297,-0.004372568250968975,0.009776348567286776
1668678552.8884916,60747,1668678552,888361794,,-0.09486298061606331,-0.6129993554322263,0.07111484870222774,0.9955579601113029,0.0935395728522349,-0.004372568612727833,0.009776349695553896
1668678552.8963568,60748,1668678552,896252007,,-0.09479413343853708,-0.6129993531917894,0.07111073808167566,0.9955579600986899,0.09353957285320612,-0.004372568967243678,0.009776350812126043
1668678552.904459,60749,1668678552,904305835,,-0.09472308989793914,-0.6129993507868458,0.07110632602517711,0.9955579600862262,0.09353957285407676,-0.0043725693148020574,0.00977635191756439
1668678552.9124858,60750,1668678552,912295524,,-0.09465007577381702,-0.6129993482691329,0.07110177132601359,0.9955579600739176,0.09353957285484774,-0.004372569655214203,0.009776353011365752
1668678552.920384,60751,1668678552,920288142,,-0.0945751995006434,-0.6129993456674133,0.07109713791040374,0.9955579600617666,0.09353957285552024,-0.0043725699884076845,0.009776354093288392
1668678552.9285939,60752,1668678552,928394394,,-0.09449891378722967,-0.6129993430517808,0.07109287729025815,0.9955579600497821,0.09353957285609571,-0.004372570314065555,0.009776355162542688
1668678552.9366643,60753,1668678552,936474839,,-0.09442184984104576,-0.6129993405692552,0.07108963530503021,0.9955579600379861,0.09353957285657731,-0.0043725706313800525,0.009776356217239546
1668678552.9448397,60754,1668678552,944604675,,-0.09434501927312476,-0.6129993383757673,0.07108846809270455,0.9955579600264044,0.09353957285696808,-0.004372570939388386,0.009776357255143005
1668678552.9524035,60755,1668678552,952259259,,-0.0942696544113536,-0.6129993367073635,0.07109072561220924,0.9955579600150802,0.09353957285727336,-0.0043725712364626025,0.009776358272527362
1668678552.9648578,60756,1668678552,964656517,,-0.0941960470859975,-0.6129993355742476,0.07109674492781903,0.9955579600040273,0.09353957285749491,-0.004372571522105436,0.009776359268203088
1668678552.9691513,60757,1668678552,968901675,,-0.09412421570552199,-0.612999334869157,0.07110654058619481,0.9955579599932411,0.09353957285763322,-0.00437257179651207,0.009776360242532728
1668678552.9772778,60758,1668678552,977095107,,-0.09405439542885716,-0.612999334548801,0.07112019810099866,0.9955579599827277,0.09353957285768913,-0.004372572059491011,0.009776361195012245
1668678552.984371,60759,1668678552,984258795,,-0.0939865168950537,-0.6129993345379751,0.07113743270482062,0.9955579599724844,0.09353957285766351,-0.004372572311147299,0.009776362125802173
1668678552.992045,60760,1668678552,991952924,,-0.09392028274262323,-0.6129993347306966,0.07115787826200995,0.9955579599625006,0.09353957285755578,-0.004372572551923543,0.009776363035820652
1668678553.0004952,60761,1668678553,399454,,-0.09385541690623471,-0.6129993350448464,0.0711812234998209,0.9955579599527666,0.09353957285736593,-0.004372572782213242,0.009776363925874563
1668678553.0090225,60762,1668678553,8786315,,-0.09379103159636772,-0.6129993353711238,0.07120678997216827,0.9955579599432629,0.09353957285709233,-0.004372573002800568,0.009776364797646339
1668678553.0165203,60763,1668678553,16344188,,-0.09372597178868586,-0.6129993355599741,0.07123373517124425,0.9955579599339537,0.09353957285673256,-0.00437257321505628,0.009776365654133245
1668678553.0246186,60764,1668678553,24517833,,-0.09365930023362168,-0.61299933552499,0.07126137657625752,0.9955579599248142,0.09353957285628514,-0.004372573419963074,0.009776366497461143
1668678553.0321474,60765,1668678553,31962946,,-0.0935901798760752,-0.6129993351788586,0.07128913262056262,0.9955579599158177,0.0935395728557478,-0.004372573618577519,0.009776367329920628
1668678553.0408826,60766,1668678553,40591700,,-0.09351834303788292,-0.612999334492992,0.07131677461406927,0.9955579599069505,0.09353957285512013,-0.004372573811435907,0.009776368152636257
1668678553.0486412,60767,1668678553,48541222,,-0.0934436900589842,-0.6129993334768842,0.07134416989393152,0.9955579598982084,0.09353957285440273,-0.004372573998735768,0.00977636896597211
1668678553.0565515,60768,1668678553,56296493,,-0.09336568320070296,-0.612999332098665,0.07137059021216785,0.9955579598895737,0.09353957285359454,-0.004372574181172339,0.009776369771407948
1668678553.0645764,60769,1668678553,64421592,,-0.09328375642336564,-0.6129993303335002,0.07139462269999176,0.9955579598810207,0.09353957285269415,-0.004372574359753781,0.009776370571123315
1668678553.0725315,60770,1668678553,72373775,,-0.09319771606109999,-0.6129993281950997,0.07141513760750551,0.9955579598725355,0.09353957285170088,-0.00437257453504537,0.009776371366305487
1668678553.08078,60771,1668678553,80570734,,-0.0931076261037294,-0.6129993256616963,0.07143193263073151,0.9955579598641122,0.09353957285061504,-0.0043725747072927605,0.00977637215742465
1668678553.0885024,60772,1668678553,88387732,,-0.09301360956348738,-0.6129993227104864,0.07144500396637976,0.99555795985575,0.09353957284943765,-0.0043725748765541615,0.00977637294453128
1668678553.0971744,60773,1668678553,96927936,,-0.09291574932448293,-0.6129993193200922,0.07145421537246685,0.9955579598474459,0.0935395728481693,-0.0043725750429722265,0.009776373727865795
1668678553.1047468,60774,1668678553,104375319,,-0.09281417411472809,-0.6129993154758833,0.07145979098311145,0.9955579598391995,0.09353957284681085,-0.004372575206593586,0.009776374507452518
1668678553.1127772,60775,1668678553,112495280,,-0.09270904195033168,-0.6129993111799338,0.07146208447425258,0.9955579598310117,0.09353957284536345,-0.004372575367394376,0.009776375283158808
1668678553.1205287,60776,1668678553,120368496,,-0.09260051112789278,-0.6129993064544624,0.07146147212243265,0.9955579598228852,0.09353957284382822,-0.004372575525307969,0.009776376054756439
1668678553.1283014,60777,1668678553,128196844,,-0.09248872593152363,-0.6129993013308511,0.0714583705002642,0.9955579598148223,0.09353957284220639,-0.004372575680275388,0.00977637682203399
1668678553.1369119,60778,1668678553,136647178,,-0.09237382974633965,-0.612999295856025,0.07145338303163731,0.9955579598068257,0.09353957284049937,-0.004372575832215626,0.009776377584732213
1668678553.1445136,60779,1668678553,144413464,,-0.09225596151406304,-0.6129992900930438,0.07144724272777807,0.9955579597988985,0.09353957283870806,-0.004372575981034927,0.009776378342561997
1668678553.1521757,60780,1668678553,152065031,,-0.09213525404225191,-0.6129992841040711,0.07144041655263302,0.9955579597910441,0.09353957283683395,-0.004372576126631343,0.009776379095217946
1668678553.1605542,60781,1668678553,160406553,,-0.09201183370083964,-0.6129992779428594,0.0714330980747913,0.9955579597832657,0.09353957283487835,-0.004372576268898797,0.009776379842384445
1668678553.168931,60782,1668678553,168723977,,-0.09188581959111648,-0.6129992716589072,0.07142551488533211,0.9955579597755672,0.0935395728328424,-0.004372576407729042,0.009776380583742101
1668678553.1765246,60783,1668678553,176341610,,-0.09175732331097969,-0.6129992653043663,0.07141796936291296,0.9955579597679517,0.0935395728307278,-0.004372576543015946,0.009776381318976523
1668678553.1845548,60784,1668678553,184460172,,-0.09162644983647866,-0.6129992589255684,0.07141076740428932,0.9955579597604226,0.09353957282853576,-0.004372576674654675,0.00977638204777682
1668678553.1921973,60785,1668678553,192037606,,-0.09149329770185298,-0.6129992525631808,0.07140405383511446,0.9955579597529834,0.09353957282626756,-0.0043725768025430515,0.009776382769838292
1668678553.2007837,60786,1668678553,200517220,,-0.09135795927192614,-0.6129992462428605,0.07139775934227917,0.9955579597456372,0.0935395728239244,-0.0043725769265826435,0.009776383484865018
1668678553.2085264,60787,1668678553,208355901,,-0.09122052096836396,-0.6129992399895509,0.07139183994187442,0.995557959738387,0.09353957282150761,-0.004372577046679131,0.009776384192571015
1668678553.2165616,60788,1668678553,216425862,,-0.09108106352277161,-0.6129992338187251,0.07138595145618241,0.9955579597312361,0.09353957281901863,-0.004372577162743329,0.009776384892681799
1668678553.2243993,60789,1668678553,224261404,,-0.09093966230806261,-0.6129992277336364,0.07137954892853705,0.995557959724187,0.09353957281645833,-0.004372577274691321,0.009776385584935671
1668678553.2324638,60790,1668678553,232233865,,-0.09079638760966945,-0.6129992217412062,0.07137230155572019,0.9955579597172425,0.09353957281382835,-0.004372577382444818,0.009776386269084001
1668678553.2407136,60791,1668678553,240603851,,-0.09065130488898228,-0.6129992158547839,0.0713641575431363,0.9955579597104052,0.09353957281112969,-0.004372577485931337,0.009776386944891354
1668678553.2487247,60792,1668678553,248434648,,-0.0905044750250088,-0.6129992100758027,0.07135463520915152,0.9955579597036772,0.09353957280836386,-0.0043725775850846065,0.009776387612136709
1668678553.2570345,60793,1668678553,256855922,,-0.09035595454909892,-0.6129992043766938,0.0713429928308853,0.9955579596970608,0.0935395728055319,-0.004372577679844418,0.009776388270613194
1668678553.26849,60794,1668678553,268343483,,-0.09020579589658789,-0.6129991987454234,0.07132899149497755,0.995557959690558,0.09353957280263488,-0.00437257777015693,0.009776388920128724
1668678553.2722576,60795,1668678553,272073900,,-0.09005404762754857,-0.6129991931814208,0.07131264442323546,0.9955579596841708,0.09353957279967413,-0.004372577855974111,0.009776389560504917
1668678553.281149,60796,1668678553,280830141,,-0.0899007546384223,-0.6129991876919877,0.07129409697985428,0.9955579596779007,0.09353957279665073,-0.004372577937254657,0.009776390191578499
1668678553.2889817,60797,1668678553,288821807,,-0.08974595836427882,-0.6129991822901099,0.07127352140674674,0.9955579596717493,0.09353957279356584,-0.0043725780139628615,0.009776390813199694
1668678553.2968647,60798,1668678553,296611994,,-0.0895896969708582,-0.6129991769884453,0.07125109268729037,0.995557959665718,0.0935395727904205,-0.00437257808606927,0.00977639142523319
1668678553.304581,60799,1668678553,304413832,,-0.08943200554767408,-0.6129991718214851,0.0712272913913498,0.995557959659808,0.09353957278721611,-0.004372578153550447,0.009776392027557092
1668678553.3125343,60800,1668678553,312409283,,-0.0892729162850243,-0.6129991668461526,0.07120269720653466,0.99555795965402,0.09353957278395363,-0.0043725782163885046,0.009776392620062689
1668678553.3205492,60801,1668678553,320386509,,-0.08911245862542734,-0.612999162090184,0.07117756802668364,0.9955579596483554,0.09353957278063396,-0.004372578274571266,0.009776393202655139
1668678553.3291368,60802,1668678553,328866960,,-0.08895065943258446,-0.6129991575768249,0.07115226757332521,0.9955579596428146,0.09353957277725845,-0.00437257832809186,0.009776393775251288
1668678553.3369021,60803,1668678553,336727784,,-0.08878754315065578,-0.6129991533432393,0.07112715885959885,0.9955579596373982,0.09353957277382807,-0.004372578376948847,0.009776394337780893
1668678553.3446176,60804,1668678553,344417029,,-0.08862313193271801,-0.6129991493881041,0.07110231878682682,0.9955579596321068,0.09353957277034379,-0.004372578421145815,0.009776394890185253
1668678553.3521783,60805,1668678553,352044232,,-0.08845744579075995,-0.612999145705096,0.07107778040695142,0.9955579596269407,0.09353957276680684,-0.0043725784606912215,0.009776395432417482
1668678553.3611698,60806,1668678553,360905047,,-0.08829050272830348,-0.6129991422843926,0.07105355874368835,0.9955579596219002,0.09353957276321798,-0.004372578495598136,0.009776395964441369
1668678553.368904,60807,1668678553,368746318,,-0.0881223188673286,-0.6129991391164935,0.07102967174259309,0.9955579596169851,0.0935395727595785,-0.004372578525884426,0.00977639648623129
1668678553.3767443,60808,1668678553,376575518,,-0.08795290856433147,-0.6129991361819459,0.07100598448672864,0.9955579596121955,0.0935395727558894,-0.0043725785515720626,0.009776396997772314
1668678553.3848245,60809,1668678553,384643054,,-0.08778228452384562,-0.612999133451334,0.0709823273513869,0.9955579596075314,0.09353957275215168,-0.004372578572686983,0.00977639749905839
1668678553.39317,60810,1668678553,392809231,,-0.08761045791495743,-0.6129991309115654,0.0709586683794065,0.9955579596029923,0.09353957274836625,-0.00437257858925951,0.009776397990093624
1668678553.4015296,60811,1668678553,401385441,,-0.0874374384698401,-0.6129991285543334,0.07093502792848332,0.9955579595985778,0.09353957274453414,-0.004372578601323371,0.009776398470890419
1668678553.4085932,60812,1668678553,408488203,,-0.08726323457891111,-0.6129991263701656,0.0709113846365917,0.9955579595942878,0.09353957274065633,-0.004372578608915941,0.009776398941469916
1668678553.4171603,60813,1668678553,416850410,,-0.08708785339126603,-0.6129991243736674,0.07088818466559135,0.9955579595901214,0.09353957273673354,-0.004372578612077973,0.009776399401860987
1668678553.4258053,60814,1668678553,425562829,,-0.08691130090854123,-0.612999122623434,0.07086615120044096,0.9955579595860782,0.09353957273276708,-0.0043725786108534895,0.0097763998521007
1668678553.432774,60815,1668678553,432573083,,-0.08673358204163444,-0.612999121143121,0.0708458592439965,0.9955579595821572,0.09353957272875785,-0.004372578605289356,0.009776400292232841
1668678553.441194,60816,1668678553,440926560,,-0.08655470069423399,-0.6129991199371142,0.07082758828966604,0.9955579595783578,0.09353957272470656,-0.0043725785954355015,0.009776400722308362
1668678553.4485893,60817,1668678553,448447588,,-0.08637465983087074,-0.612999118971945,0.07081141425890422,0.9955579595746789,0.09353957272061442,-0.004372578581344455,0.009776401142384738
1668678553.4570832,60818,1668678553,456708527,,-0.08619346156855956,-0.6129991182417375,0.07079782895668175,0.9955579595711199,0.09353957271648218,-0.004372578563071367,0.009776401552525496
1668678553.4646204,60819,1668678553,464523714,,-0.08601110723247743,-0.612999117735864,0.07078721815192573,0.9955579595676795,0.09353957271231103,-0.004372578540673601,0.009776401952800027
1668678553.4721894,60820,1668678553,472046421,,-0.08582759740881331,-0.6129991174090355,0.0707795779354259,0.9955579595643566,0.09353957270810177,-0.004372578514210997,0.009776402343283168
1668678553.4805841,60821,1668678553,480408855,,-0.08564293201437749,-0.6129991172131969,0.07077476135778088,0.9955579595611502,0.0935395727038553,-0.004372578483745274,0.009776402724055094
1668678553.4889843,60822,1668678553,488698773,,-0.0854571102989986,-0.6129993225006077,0.07077261086391883,0.9955579595580555,0.09353957269957235,-0.0043725784494753695,0.009776403095503008
1668678553.496552,60823,1668678553,496356922,,-0.08527013084158862,-0.613000167821362,0.07077285496322,0.9955579595550602,0.09353957269525297,-0.004372578411889559,0.009776403458662068
1668678553.5046158,60824,1668678553,504453031,,-0.08508199174515114,-0.6130019767930576,0.07077511877343594,0.9955579595521532,0.09353957269089729,-0.004372578371423991,0.009776403814450236
1668678553.5122786,60825,1668678553,512107390,,-0.0848926907559086,-0.6130048554212779,0.07077910922821053,0.9955579595493299,0.09353957268650635,-0.004372578328285036,0.00977640416327166
1668678553.520903,60826,1668678553,520680525,,-0.08470222526616375,-0.6130087691673671,0.07078461709441314,0.9955579595465889,0.09353957268208081,-0.004372578282531809,0.00977640450520033
1668678553.528402,60827,1668678553,528293517,,-0.0845105923129289,-0.6130136572982673,0.07079147749118318,0.9955579595439308,0.09353957267762189,-0.00437257823416751,0.009776404840186027
1668678553.5369318,60828,1668678553,536774002,,-0.08431778850377301,-0.6130197338218436,0.07079926240813698,0.9955579595413502,0.0935395726731304,-0.0043725781834054395,0.009776405168649683
1668678553.5443518,60829,1668678553,544185531,,-0.08412381001802034,-0.613027418750161,0.07080746512518353,0.995557959538834,0.09353957266860626,-0.004372578130770206,0.009776405491708358
1668678553.5529692,60830,1668678553,552733760,,-0.08392865287563532,-0.6130368238742038,0.07081589161439197,0.9955579595363749,0.0935395726640503,-0.004372578076552936,0.009776405809956276
1668678553.5604117,60831,1668678553,560230923,,-0.08373231297872238,-0.6130479287615381,0.07082443101758273,0.9955579595339732,0.09353957265946326,-0.004372578020768021,0.009776406123369084
1668678553.5686078,60832,1668678553,568437064,,-0.08353478595442147,-0.6130607924655574,0.07083313711125142,0.9955579595316248,0.09353957265484632,-0.004372577963582408,0.009776406432263525
1668678553.5764868,60833,1668678553,576391776,,-0.08333606720065592,-0.61307568285265,0.07084235957127731,0.9955579595293229,0.09353957265019988,-0.004372577905272221,0.009776406737201546
1668678553.5848947,60834,1668678553,584674041,,-0.08313615185810215,-0.6130929482843351,0.0708523813111288,0.9955579595270544,0.09353957264552422,-0.004372577846365137,0.009776407039307829
1668678553.5921724,60835,1668678553,592035740,,-0.08293503509039321,-0.613112659874085,0.07086339001321872,0.995557959524814,0.0935395726408202,-0.004372577787060914,0.009776407338972413
1668678553.6006331,60836,1668678553,600525151,,-0.08273271204760552,-0.6131346914075552,0.07087543861304553,0.995557959522603,0.09353957263608878,-0.004372577727351322,0.009776407636120941
1668678553.6085443,60837,1668678553,608390939,,-0.08252917784145664,-0.6131588727103254,0.07088850176519502,0.9955579595204244,0.09353957263133149,-0.0043725776671158165,0.009776407930427429
1668678553.6169505,60838,1668678553,616649600,,-0.08232442743255541,-0.6131852147651441,0.07090249330697836,0.9955579595182772,0.0935395726265495,-0.004372577606411836,0.009776408221965429
1668678553.6245453,60839,1668678553,624357523,,-0.08211845566134593,-0.6132138375112672,0.07091712985226918,0.9955579595161563,0.09353957262174341,-0.004372577545464862,0.009776408511185344
1668678553.6321218,60840,1668678553,631934703,,-0.08191125737689868,-0.6132447646819789,0.07093214593707547,0.9955579595140582,0.09353957261691387,-0.004372577484423452,0.009776408798364337
1668678553.640685,60841,1668678553,640519356,,-0.08170282750361135,-0.6132778429014931,0.07094741792242436,0.9955579595119844,0.0935395726120624,-0.004372577423234872,0.00977640908333126
1668678553.6490276,60842,1668678553,648837046,,-0.08149316104381678,-0.6133127754164978,0.07096275324968035,0.9955579595099415,0.09353957260719055,-0.004372577361666287,0.009776409365511074
1668678553.6564324,60843,1668678553,656283560,,-0.08128225306705777,-0.6133491431552738,0.0709782300669003,0.9955579595079398,0.09353957260229974,-0.0043725772993439644,0.009776409644014983
1668678553.6643689,60844,1668678553,664271252,,-0.08107009866749272,-0.6133865449298321,0.070994197072671,0.9955579595059907,0.09353957259739189,-0.004372577235849685,0.009776409917856327
1668678553.6721241,60845,1668678553,672017237,,-0.08085669281113846,-0.6134249217002103,0.07101097694690045,0.9955579595040968,0.09353957259246815,-0.004372577171094673,0.00977641018678691
1668678553.68215,60846,1668678553,681811652,,-0.08064203039093684,-0.6134642910810769,0.07102873047985292,0.9955579595022542,0.09353957258752921,-0.004372577105248088,0.00977641045113666
1668678553.6889622,60847,1668678553,688752758,,-0.08042610645982114,-0.6135045873204991,0.07104748213844786,0.995557959500464,0.09353957258257653,-0.0043725770382732326,0.00977641071077448
1668678553.6969635,60848,1668678553,696780770,,-0.08020891603888386,-0.6135458894431319,0.07106759693867835,0.9955579594987227,0.09353957257761047,-0.004372576970322554,0.009776410965994343
1668678553.7042947,60849,1668678553,704188491,,-0.07999045421768822,-0.6135882467959295,0.07108933317246724,0.9955579594970265,0.0935395725726322,-0.004372576901564261,0.009776411217124777
1668678553.7129333,60850,1668678553,712715169,,-0.0797707162503624,-0.6136315978658327,0.07111261337367689,0.9955579594953748,0.09353957256764243,-0.004372576832014431,0.009776411464154654
1668678553.7204185,60851,1668678553,720277059,,-0.07954969751661439,-0.6136758151434485,0.07113730192709883,0.9955579594937701,0.0935395725626428,-0.004372576761608621,0.009776411706893558
1668678553.728368,60852,1668678553,728267513,,-0.07932739357576762,-0.6137205777315846,0.07116322352573742,0.9955579594922193,0.09353957255763418,-0.004372576690096298,0.009776411944734761
1668678553.736421,60853,1668678553,736287814,,-0.07910380017935502,-0.6137654507247725,0.07119032662978768,0.9955579594907349,0.09353957255261829,-0.004372576617001448,0.009776412176568208
1668678553.74595,60854,1668678553,745585114,,-0.07887891309626203,-0.6138101243860431,0.07121863658354753,0.9955579594893265,0.0935395725475969,-0.004372576541984493,0.009776412401591675
1668678553.753127,60855,1668678553,752857613,,-0.07865272809609075,-0.6138544615832413,0.07124809406869481,0.9955579594879976,0.09353957254257084,-0.004372576464911415,0.00977641261946355
1668678553.761059,60856,1668678553,760853596,,-0.07842524098741999,-0.6138984108889315,0.07127858237191693,0.9955579594867485,0.09353957253754146,-0.004372576385794595,0.009776412830171013
1668678553.7698958,60857,1668678553,769616531,,-0.07819644769694237,-0.6139419203672865,0.07130997721417968,0.9955579594855793,0.0935395725325093,-0.004372576304639315,0.009776413033686055
1668678553.7770321,60858,1668678553,776805620,,-0.07796634423349275,-0.6139850135160585,0.07134220254878185,0.9955579594844882,0.09353957252747541,-0.004372576221518705,0.009776413230133285
1668678553.784446,60859,1668678553,784280769,,-0.07773492676414033,-0.6140275403920412,0.07137541631104687,0.995557959483476,0.09353957252244058,-0.004372576136417315,0.00977641341943973
1668678553.792158,60860,1668678553,792005898,,-0.07750219172067906,-0.6140692061742247,0.07140985178261593,0.995557959482552,0.09353957251740605,-0.004372576048996013,0.00977641360080832
1668678553.8004663,60861,1668678553,800321542,,-0.07726813553914136,-0.6141099093421035,0.07144547446644826,0.9955579594817189,0.09353957251237319,-0.004372575959158853,0.009776413773987795
1668678553.8102844,60862,1668678553,809368712,,-0.07703275479919965,-0.6141494039776731,0.07148227833555976,0.9955579594809805,0.09353957250734256,-0.0043725758667676135,0.009776413938633542
1668678553.8167224,60863,1668678553,816497194,,-0.07679604630157569,-0.6141874086692081,0.07152032607565754,0.9955579594803468,0.09353957250231601,-0.004372575771452107,0.00977641409388268
1668678553.8240588,60864,1668678553,823922212,,-0.07655800678865674,-0.6142238782123253,0.07155955238475417,0.9955579594798182,0.09353957249729386,-0.004372575673214982,0.0097764142397079
1668678553.8328109,60865,1668678553,832657033,,-0.07631863309318011,-0.6142588313061845,0.07159982422779809,0.9955579594793924,0.09353957249227728,-0.004372575572139399,0.009776414376263589
1668678553.8413122,60866,1668678553,841021966,,-0.07607792210358398,-0.6142924146203119,0.07164133519430221,0.9955579594790641,0.0935395724872666,-0.004372575468444852,0.009776414504008176
1668678553.8490365,60867,1668678553,848797115,,-0.07583587077329886,-0.6143248160645879,0.0716844495099006,0.995557959478825,0.0935395724822623,-0.0043725753624659315,0.009776414623659498
1668678553.856608,60868,1668678553,856440706,,-0.07559247631735926,-0.6143559912282229,0.07172937819588558,0.9955579594786723,0.0935395724772654,-0.004372575254291917,0.009776414735385264
1668678553.8651078,60869,1668678553,864936357,,-0.075347736183292,-0.6143858137137944,0.07177618789564222,0.9955579594786104,0.0935395724722765,-0.0043725751437891655,0.009776414838855505
1668678553.872501,60870,1668678553,872274947,,-0.07510164786183691,-0.6144142742020612,0.07182473574513092,0.9955579594786378,0.09353957246729651,-0.004372575031006882,0.009776414934149852
1668678553.8805256,60871,1668678553,880398465,,-0.07485420894437712,-0.6144414045575435,0.07187482249617791,0.9955579594787523,0.09353957246232612,-0.004372574916046892,0.00977641502146647
1668678553.8890667,60872,1668678553,888880793,,-0.0746054171286596,-0.6144672768414718,0.07192604990922397,0.9955579594789499,0.09353957245736617,-0.004372574799063056,0.009776415101120355
1668678553.8967018,60873,1668678553,896566778,,-0.07435527020288059,-0.614492049831784,0.071977865843709,0.9955579594792244,0.09353957245241695,-0.004372574680300574,0.009776415173631507
1668678553.9054034,60874,1668678553,905087134,,-0.07410376604141564,-0.6145158990366602,0.0720298416094859,0.9955579594795678,0.09353957244747911,-0.004372574560076738,0.00977641523968044
1668678553.9124556,60875,1668678553,912284343,,-0.07385090273148372,-0.6145388127979257,0.07208171234273923,0.9955579594799773,0.09353957244255351,-0.0043725744385012515,0.0097764152994839
