Time,header.seq,header.stamp.secs,header.stamp.nsecs,header.frame_id,twist.linear.x,twist.linear.y,twist.linear.z,twist.angular.x,twist.angular.y,twist.angular.z
1668678551.4004683,60561,1668678551,400365782,,-7.034926547258821e-06,1.4069601933325609e-09,5.7569883880393346e-05,-3.4626746861805576e-07,2.5942256881273635e-07,2.917937351822503e-09
1668678551.409418,60562,1668678551,409110475,,-1.5536719308439632e-06,1.3782025345267862e-09,6.007827081459019e-05,-3.5293743578288714e-07,2.609169936582274e-07,2.9411328260834158e-09
1668678551.4164827,60563,1668678551,416332607,,3.498719201749147e-06,1.3517354602311283e-09,6.387601462010622e-05,-3.5950930965409393e-07,2.6236616876505213e-07,2.963767763724055e-09
1668678551.4242814,60564,1668678551,424112391,,8.145626803436932e-06,1.3534440362213923e-09,8.339910124707583e-05,-3.659830237582754e-07,2.6377026647675943e-07,2.9858437158582592e-09
1668678551.4326859,60565,1668678551,432477538,,1.240929873137491e-05,1.3580746240105895e-09,0.0001012150837043822,-3.723585252685284e-07,2.651294637188393e-07,3.007362290308722e-09
1668678551.4411664,60566,1668678551,440924004,,1.631193897663557e-05,1.3871393021397556e-09,0.0001258034035338428,-3.7863577486362466e-07,2.66443941918595e-07,3.0283251567578002e-09
1668678551.4489086,60567,1668678551,448759894,,1.987422055183516e-05,1.4343517858977154e-09,0.00015264393286842476,-3.848147465474874e-07,2.677138869324009e-07,3.0487340393664693e-09
1668678551.45675,60568,1668678551,456579641,,2.3115915220182712e-05,1.4603926667321362e-09,0.000171633187903467,-3.908954274715542e-07,2.689394889622728e-07,3.0685907244154065e-09
1668678551.4648497,60569,1668678551,464696272,,2.605591227669728e-05,1.4556214185678949e-09,0.0001828580257737444,-3.968778178283654e-07,2.701209424897007e-07,3.087897048024708e-09
1668678551.4729066,60570,1668678551,472656145,,2.871223066918834e-05,1.430963273789884e-09,0.0001896792540841094,-4.027619306656125e-07,2.712584461885835e-07,3.106654907663372e-09
1668678551.480451,60571,1668678551,480285017,,3.11020243473659e-05,1.4022394178531396e-09,0.0001955873475341533,-4.085477917589017e-07,2.7235220286680203e-07,3.1248662595167206e-09
1668678551.4892232,60572,1668678551,489023232,,3.3241655419883604e-05,1.380322203045612e-09,0.00020279421077557338,-4.1423543947337385e-07,2.734024193924621e-07,3.1425331017829105e-09
1668678551.4966388,60573,1668678551,496482107,,3.51466613425299e-05,1.3594928446461617e-09,0.00021015606724929465,-4.1982492462064447e-07,2.744093066226382e-07,3.1596575031671206e-09
1668678551.5048318,60574,1668678551,504577187,,3.683179071038645e-05,1.2559425275055651e-09,0.00020151897836813085,-4.2531631033110106e-07,2.7537307933704014e-07,3.176241574129866e-09
1668678551.512266,60575,1668678551,512136504,,3.8311088974701975e-05,1.0708661777042065e-09,0.00017386853739266805,-4.307096719343389e-07,2.7629395617549284e-07,3.192287485738563e-09
1668678551.5206943,60576,1668678551,520551067,,3.959793844285569e-05,9.242840667620905e-10,0.00014805989146354944,-4.3600509680548735e-07,2.771721595636064e-07,3.207797444297199e-09
1668678551.528531,60577,1668678551,528351820,,4.070499537136469e-05,7.772608381406557e-10,0.00011380072855946244,-4.4120268426988476e-07,2.7800791566403417e-07,3.2227737244009454e-09
1668678551.5368369,60578,1668678551,536622156,,4.1644302078453034e-05,6.898687799009369e-10,8.845573927159299e-05,-4.463025454595993e-07,2.7880145429453344e-07,3.2372186474011926e-09
1668678551.544601,60579,1668678551,544473764,,4.2427254126612534e-05,6.405294203058901e-10,7.22795777247774e-05,-4.5130480320271545e-07,2.795530088813791e-07,3.251134573145284e-09
1668678551.5523462,60580,1668678551,552115069,,4.3064654758692414e-05,6.079423734095541e-10,6.115389605647686e-05,-4.5620959188381856e-07,2.8026281638317303e-07,3.264523919580247e-09
1668678551.5606058,60581,1668678551,560412167,,4.3566743531593604e-05,5.806688982138785e-10,5.078666368631769e-05,-4.610170573536123e-07,2.8093111723700304e-07,3.277389153848783e-09
1668678551.5690403,60582,1668678551,568764555,,4.3943220763774777e-05,5.559389971931871e-10,3.945235989181278e-05,-4.657273567809155e-07,2.815581552937702e-07,3.2897327856620806e-09
1668678551.576566,60583,1668678551,576406676,,4.4203269309026865e-05,5.350776195046968e-10,2.804610748309829e-05,-4.703406585564355e-07,2.8214417776256965e-07,3.3015573785890717e-09
1668678551.584875,60584,1668678551,584687251,,4.4355575066443634e-05,5.161826175296643e-10,1.2665244624506754e-05,-4.748571421588795e-07,2.826894351447765e-07,3.3128655345116822e-09
1668678551.592282,60585,1668678551,592109827,,4.44083526198255e-05,5.046199836360257e-10,7.68370129463466e-06,-4.792769980548118e-07,2.831941811761357e-07,3.3236599060525e-09
1668678551.6008167,60586,1668678551,600587330,,4.4369359774940954e-05,4.935219532099882e-10,3.0806112778328887e-06,-4.836004275725184e-07,2.836586727673002e-07,3.3339431854210446e-09
1668678551.6090007,60587,1668678551,608813957,,4.4245924541132394e-05,4.82785288001176e-10,3.716407109123894e-06,-4.87827642789593e-07,2.8408316994260346e-07,3.3437181126130464e-09
1668678551.6177268,60588,1668678551,617515356,,4.404496231395781e-05,4.718265496162338e-10,3.1740936828057875e-06,-4.919588664118075e-07,2.8446793578806805e-07,3.3529874767792515e-09
1668678551.6244557,60589,1668678551,624268588,,4.3772997682414765e-05,4.678972697626998e-10,-2.864157479763931e-05,-4.959943316640598e-07,2.848132363829444e-07,3.361754099691339e-09
1668678551.633005,60590,1668678551,632743473,,4.343619013020359e-05,5.07885679711533e-10,-7.444405928227745e-05,-4.999342821711777e-07,2.8511934074927676e-07,3.370020850663254e-09
1668678551.640613,60591,1668678551,640373702,,4.304032667925088e-05,5.858250079832221e-10,-0.0001164806604525293,-5.03778971838555e-07,2.8538652078689855e-07,3.3777906392599456e-09
1668678551.6486366,60592,1668678551,648384764,,4.2590834186544836e-05,6.39661066206928e-10,-0.00014117144648725444,-5.075286647420572e-07,2.856150512203583e-07,3.385066412979888e-09
1668678551.6566062,60593,1668678551,656434893,,4.2092835006192394e-05,6.660672512294741e-10,-0.00015634584196805095,-5.111836350215289e-07,2.8580520953707376e-07,3.391851164370155e-09
1668678551.6656418,60594,1668678551,665352989,,4.155114071107026e-05,6.570235903857266e-10,-0.00016234047754003147,-5.14744166749426e-07,2.859572759389591e-07,3.39814792201399e-09
1668678551.6721065,60595,1668678551,672007037,,2.778830014247775e-05,6.628645874862226e-10,-0.00017451356675288803,-5.182101946438107e-07,2.860715633321276e-07,3.403959780156631e-09
1668678551.6805964,60596,1668678551,680456824,,1.505809548976835e-05,6.686523013513156e-10,-0.00018538056858203426,-5.215825149990832e-07,2.861483604680312e-07,3.4092897982404254e-09
1668678551.6885705,60597,1668678551,688346260,,-3.629415009056892e-06,6.888542376177334e-10,-0.00019869986761399764,-5.248613580762735e-07,2.861880084468087e-07,3.4141411229622793e-09
1668678551.6970055,60598,1668678551,696758338,,-1.1360357043618764e-05,7.797429927293738e-10,-0.00022409480747039403,-5.280471836204453e-07,2.8619064667019614e-07,3.4185169267689003e-09
1668678551.7045395,60599,1668678551,704412758,,-1.344621273492292e-05,7.725666228134638e-10,-0.000231395604800814,-5.311401532320683e-07,2.861565717375913e-07,3.422420438698961e-09
1668678551.712119,60600,1668678551,711985957,,-1.2689088607474897e-05,7.116271932556012e-10,-0.0002293868222686813,-5.341405855185566e-07,2.8608610389832486e-07,3.425854903969463e-09
1668678551.7203867,60601,1668678551,720258269,,-1.1966757539748745e-05,6.525445590469284e-10,-0.00022708427017859131,-5.370488367897348e-07,2.8597957671452356e-07,3.428823609874618e-09
1668678551.7289493,60602,1668678551,728734717,,-9.874945470964643e-06,6.359329716794244e-10,-0.00023166375144232615,-5.398652646262353e-07,2.858372726678323e-07,3.4313298703867855e-09
1668678551.7364473,60603,1668678551,736307500,,-7.186667444717673e-06,6.373303748915234e-10,-0.00023919769162897257,-5.42590241396231e-07,2.856595043649106e-07,3.4333770341118096e-09
1668678551.7447965,60604,1668678551,744654396,,-1.597485614688333e-05,5.740329475920464e-10,-0.0002359269511532886,-5.452241467824298e-07,2.8544672205947307e-07,3.4349684756221756e-09
1668678551.7526672,60605,1668678551,752458826,,-1.833328726353576e-05,4.682154590837041e-10,-0.0002244664046898329,-5.477673660267496e-07,2.8519901615411983e-07,3.4361076188520613e-09
1668678551.7612765,60606,1668678551,760866783,,-2.046920352775287e-05,3.7573075209829964e-10,-0.00021346861142677563,-5.502202899717963e-07,2.849167687003218e-07,3.4367979049947876e-09
1668678551.7690716,60607,1668678551,768898074,,-1.9378187608314954e-05,2.7291205832829457e-10,-0.0001986766402094642,-5.525832993882459e-07,2.846002459632588e-07,3.4370428093350575e-09
1668678551.7770326,60608,1668678551,776851840,,-1.6738505621963655e-05,1.7204175126648452e-10,-0.00018156978713156034,-5.548568175839032e-07,2.842497846778033e-07,3.436845836824056e-09
1668678551.7844896,60609,1668678551,784298904,,-1.483700492042842e-05,9.835205857453293e-11,-0.00016729683401325464,-5.570412783256841e-07,2.838657318006336e-07,3.4362105169227135e-09
1668678551.7925022,60610,1668678551,792303312,,-1.3385101795840667e-05,4.250426169446165e-11,-0.00015480715744936143,-5.591371053050496e-07,2.8344839845738585e-07,3.4351404084297934e-09
1668678551.8005447,60611,1668678551,800419899,,-1.2021513091710147e-05,-2.589537556156702e-12,-0.0001429989603157419,-5.611447316674446e-07,2.8299809711111125e-07,3.433639097337205e-09
1668678551.8084042,60612,1668678551,808227892,,-1.0943360338111993e-05,-2.379411495737585e-11,-0.00013612762371646597,-5.630646004586495e-07,2.8251514951143966e-07,3.431710201197305e-09
1668678551.8165226,60613,1668678551,816375978,,-1.003534862701644e-05,-3.369111336049285e-11,-0.00013179857434093118,-5.648971617153117e-07,2.8199987493590823e-07,3.4293573538830813e-09
1668678551.825088,60614,1668678551,824867045,,-7.769800132122584e-06,-4.9854559639893677e-11,-0.0001251112947200271,-5.666428733512941e-07,2.814525768153195e-07,3.4265842265742406e-09
1668678551.8322382,60615,1668678551,832058610,,-4.922209022127845e-06,-7.620744672250018e-11,-0.00011411911991333878,-5.683022047157385e-07,2.808735900904515e-07,3.423394504501072e-09
1668678551.840414,60616,1668678551,840312045,,-2.28990539642924e-06,-9.54670928730178e-11,-0.00010377036361311147,-5.698756289691761e-07,2.802632502715396e-07,3.4197919065524136e-09
1668678551.848504,60617,1668678551,848371926,,5.334754406895076e-07,-1.1458702886899946e-10,-9.159619140996788e-05,-5.713636274584257e-07,2.7962187958956124e-07,3.4157801673980675e-09
1668678551.8570533,60618,1668678551,856706012,,-6.6998727025517965e-06,-1.29979366826096e-10,-7.878525517162069e-05,-5.727666401366543e-07,2.789499185049634e-07,3.4113630532975065e-09
1668678551.8648372,60619,1668678551,864624224,,-8.509343416693899e-06,-1.580848416618803e-10,-5.458522886404127e-05,-5.740852327448469e-07,2.78247526458953e-07,3.406544336132173e-09
1668678551.8721325,60620,1668678551,872021486,,-7.598774207830196e-06,-1.7348594663169634e-10,-2.5729927529211846e-05,-5.75319880046721e-07,2.775150594904857e-07,3.401327826690697e-09
1668678551.880303,60621,1668678551,880175885,,-6.745155693534146e-06,-1.661049284510351e-10,8.961703470946158e-07,-5.764710886523343e-07,2.7675288426023665e-07,3.3957173427403068e-09
1668678551.8888476,60622,1668678551,888566052,,-8.22614260734509e-06,-1.4707819937764365e-10,6.2924235179770955e-06,-5.775393709117478e-07,2.759613619280107e-07,3.3897167334951767e-09
1668678551.8966544,60623,1668678551,896521118,,-1.0709638613831567e-05,-1.2999425752377643e-10,1.1544163820575112e-06,-5.785252521025985e-07,2.7514081135238116e-07,3.3833298646324128e-09
1668678551.904729,60624,1668678551,904432238,,-3.227625801908633e-05,-1.0620914293090429e-10,-4.568720298527427e-06,-5.794293758847219e-07,2.742918352636136e-07,3.3765605951511135e-09
1668678551.9130456,60625,1668678551,912799428,,-4.36033386521541e-05,-8.204457613096135e-11,-1.4710706386142432e-05,-5.802522242727454e-07,2.734143811004151e-07,3.369412847906497e-09
1668678551.9214408,60626,1668678551,921183360,,-5.394941186842497e-05,-5.613742773116067e-11,-2.4022317977715923e-05,-5.809943223409794e-07,2.7250889878254856e-07,3.3618905389182262e-09
1668678551.9293382,60627,1668678551,929172591,,-5.8975208585268595e-05,-3.285824766077808e-11,-3.5161199549131746e-05,-5.816560681757753e-07,2.715756216372778e-07,3.3539976211670926e-09
1668678551.9374049,60628,1668678551,937169378,,-6.029378026122198e-05,-2.5363766759770226e-11,-3.157589848455206e-05,-5.822380098505672e-07,2.706149082964633e-07,3.345738044049245e-09
1668678551.9452655,60629,1668678551,945042521,,-5.690078106297466e-05,-1.7524436289255392e-11,-3.5967764281439165e-05,-5.827406647902168e-07,2.696270726634198e-07,3.337115774457145e-09
1668678551.9531457,60630,1668678551,952819785,,-5.128889296979545e-05,-8.300671335363682e-12,-4.407235697937868e-05,-5.831646866931801e-07,2.686125180275897e-07,3.3281347955056283e-09
1668678551.9615734,60631,1668678551,961228501,,-4.6019247632031716e-05,1.9538316730379915e-12,-5.144963781499566e-05,-5.835107249952661e-07,2.675716457165845e-07,3.318799091556364e-09
1668678551.9684672,60632,1668678551,968326120,,-3.981877797279882e-05,9.524250576982844e-12,-5.655274138091049e-05,-5.837793253995655e-07,2.665047719556117e-07,3.309112673696604e-09
1668678551.9765358,60633,1668678551,976306992,,-3.336493942749099e-05,1.579668500484978e-11,-6.0311071382674266e-05,-5.839710889612844e-07,2.654122553326238e-07,3.299079559722102e-09
1668678551.9851153,60634,1668678551,984886695,,-2.700351871572967e-05,4.075973790742534e-11,-7.507303654928441e-05,-5.840866080427696e-07,2.64294446012694e-07,3.288703788387594e-09
1668678551.9923196,60635,1668678551,992155002,,-2.0905400648434802e-05,4.102151008844821e-11,-7.511406907412789e-05,-5.841264733585976e-07,2.63151690131865e-07,3.277989409249181e-09
1668678552.0005956,60636,1668678552,433439,,-1.5247879386557939e-05,4.1756908572112445e-11,-7.500368868701453e-05,-5.840912782534627e-07,2.6198433354456184e-07,3.2669404795912917e-09
1668678552.0087054,60637,1668678552,8540939,,-9.908856740359384e-06,3.002820775200858e-11,-6.765698225883855e-05,-5.839816181948604e-07,2.607927177769094e-07,3.255561070118746e-09
1668678552.0170395,60638,1668678552,16826914,,-4.9200576738762655e-06,1.5828908164291788e-11,-5.6889674021246447e-05,-5.837980950940184e-07,2.595771872518705e-07,3.243855260084619e-09
1668678552.0246732,60639,1668678552,24500440,,-2.881836473385398e-07,-1.1900616568429262e-11,-2.9853703101113857e-05,-5.835413154779492e-07,2.583380863749342e-07,3.2318271347953606e-09
1668678552.0321705,60640,1668678552,31986369,,3.9928634696091055e-06,-2.0580741904522717e-11,4.083571729537435e-06,-5.832118906547049e-07,2.5707575974706293e-07,3.21948079378228e-09
1668678552.040614,60641,1668678552,40483630,,7.927782084854054e-06,-1.3357339499126622e-12,3.533128821461265e-05,-5.8281043666568e-07,2.5579055231704357e-07,3.2068203378585652e-09
1668678552.0487342,60642,1668678552,48465588,,1.154386672535976e-05,2.4570519627209607e-11,5.383520585962204e-05,-5.823375743856272e-07,2.5448280910850827e-07,3.1938498828957434e-09
1668678552.0563605,60643,1668678552,56254190,,1.4855540150279684e-05,4.612300928703804e-11,6.538581860357602e-05,-5.817939291614057e-07,2.5315287554099334e-07,3.180573547671142e-09
1668678552.0648656,60644,1668678552,64666985,,1.7878393172225775e-05,4.272428584027226e-11,6.100579364245577e-05,-5.811801307567138e-07,2.518010972200896e-07,3.166995465778388e-09
1668678552.0725803,60645,1668678552,72434143,,1.7613914500207835e-05,1.563887210075804e-11,3.823556512624047e-05,-5.804967654294749e-07,2.504278413544037e-07,3.1531197729710433e-09
1668678552.0812812,60646,1668678552,81036234,,1.7335592561811975e-05,4.425023589564952e-12,1.7189076017956355e-05,-5.797445195421513e-07,2.4903342901354406e-07,3.138950600862372e-09
1668678552.0884824,60647,1668678552,88337439,,1.542158150280094e-05,4.5161687226573706e-12,-1.2085086061046615e-05,-5.789240124598014e-07,2.4761821877310485e-07,3.124492094926486e-09
1668678552.0964823,60648,1668678552,96321892,,1.5813060916491882e-05,3.9973715115064117e-11,-5.5942204824328695e-05,-5.78035948050746e-07,2.4618252713009304e-07,3.1097483926279532e-09
1668678552.10509,60649,1668678552,104864449,,1.72983109634705e-05,1.8185617239888833e-10,-0.00012579039967336548,-5.770809585124363e-07,2.4472670961887337e-07,3.0947236463154044e-09
1668678552.1129425,60650,1668678552,112724626,,1.924367876440447e-05,4.771989713549543e-10,-0.0002055231449396479,-5.76059689780747e-07,2.432511177107842e-07,3.079422016526585e-09
1668678552.121312,60651,1668678552,121125145,,2.0997415162374882e-05,8.635379591122974e-10,-0.00027855046394257454,-5.749727891306903e-07,2.4175610209527973e-07,3.063847648684785e-09
1668678552.1289003,60652,1668678552,128695278,,2.2894936123795443e-05,1.8627625478582915e-09,-0.0004107341435116307,-5.738209218713546e-07,2.402420059548658e-07,3.0480047097042134e-09
1668678552.136763,60653,1668678552,136583536,,2.4768799326590063e-05,3.5099517610229704e-09,-0.0005662985468307894,-5.726047483297341e-07,2.3870917568207886e-07,3.0318973526314566e-09
1668678552.1451159,60654,1668678552,144713811,,2.6536892783013806e-05,6.7088086029328765e-09,-0.000784906194949793,-5.713249327878691e-07,2.3715795658586737e-07,3.015529746101895e-09
1668678552.1525278,60655,1668678552,152310059,,2.8161337672377907e-05,1.104823397736476e-08,-0.0010128063720359162,-5.699821430067673e-07,2.3558869323080428e-07,2.9989060470957357e-09
1668678552.1603997,60656,1668678552,160224145,,2.96021241586888e-05,1.573962998511382e-08,-0.0012207012548917245,-5.685770493578945e-07,2.3400172972337262e-07,2.9820304160287515e-09
1668678552.168796,60657,1668678552,168523024,,3.089635206875059e-05,2.0972284436025266e-08,-0.0014246334422193232,-5.671103264976169e-07,2.323974093255441e-07,2.9649070136080944e-09
1668678552.1768177,60658,1668678552,176607510,,3.204131006597634e-05,2.7276503333856528e-08,-0.001641129858189777,-5.655826508669224e-07,2.3077607502440906e-07,2.947539998419946e-09
1668678552.1845453,60659,1668678552,184395127,,3.303945172994103e-05,3.2329011433342524e-08,-0.0018152842021754024,-5.639947014992416e-07,2.2913806924129383e-07,2.9299335280882585e-09
1668678552.192165,60660,1668678552,192024817,,3.389709038268055e-05,3.6287892565789255e-08,-0.0019604588341067715,-5.623471598926167e-07,2.2748373382537147e-07,2.91209175318967e-09
1668678552.200369,60661,1668678552,200241930,,3.462000931276256e-05,3.960440967785594e-08,-0.0020902955239406433,-5.606407097885664e-07,2.258134100173148e-07,2.8940188239281236e-09
1668678552.2089982,60662,1668678552,208753020,,3.521821775519975e-05,3.8844794488710093e-08,-0.0021425400280469468,-5.588760372261049e-07,2.2412743839611316e-07,2.875718892452351e-09
1668678552.2166471,60663,1668678552,216434099,,3.56999876692585e-05,3.588447438028347e-08,-0.002152982059835112,-5.570538302021883e-07,2.2242615886495765e-07,2.8571961020002964e-09
1668678552.2242389,60664,1668678552,224097095,,3.607269504345368e-05,2.9801145960518732e-08,-0.002101702772407193,-5.551747786618495e-07,2.2070991059908863e-07,2.838454589928108e-09
1668678552.2332344,60665,1668678552,232991753,,3.634481659984986e-05,2.419946314698792e-08,-0.0020503293908485753,-5.532395743669388e-07,2.1897903201253514e-07,2.8194984967632244e-09
1668678552.2408834,60666,1668678552,240653009,,3.65234055213717e-05,1.7156680194689345e-08,-0.001960860893996691,-5.512489108018235e-07,2.1723386071285427e-07,2.8003319416539736e-09
1668678552.248404,60667,1668678552,248290693,,3.661578571852634e-05,1.003468397753974e-08,-0.0018544499647133003,-5.492034830613545e-07,2.154747334717529e-07,2.7809590514736235e-09
1668678552.2565608,60668,1668678552,256355563,,3.662803453380152e-05,1.4614185901001218e-09,-0.0016963335293483982,-5.471039877241232e-07,2.137019861765695e-07,2.7613839447470853e-09
1668678552.2644935,60669,1668678552,264379071,,3.656703847528628e-05,-6.634436830501959e-09,-0.0015174917035651629,-5.449511227706802e-07,2.1191595379892676e-07,2.741610735872526e-09
1668678552.272417,60670,1668678552,272164313,,3.643896976487061e-05,-1.3445622168727448e-08,-0.0013339752698214007,-5.427455874790473e-07,2.1011697035655772e-07,2.721643526468079e-09
1668678552.2805376,60671,1668678552,280416117,,3.624955175420715e-05,-1.8495685392071402e-08,-0.0011623274218897322,-5.404880823058256e-07,2.0830536887782066e-07,2.701486408556689e-09
1668678552.288401,60672,1668678552,288235811,,3.6198573125273925e-05,-2.2301955376503626e-08,-0.0009935724039505025,-5.381793137539583e-07,2.0648148082014897e-07,2.681143466321163e-09
1668678552.2964153,60673,1668678552,296237925,,3.6664585031503446e-05,-2.4901644720460307e-08,-0.0008317641491609124,-5.358199937876769e-07,2.0464563612675432e-07,2.66061877871981e-09
1668678552.3050747,60674,1668678552,304759227,,3.799529315207168e-05,-2.6081144756700817e-08,-0.000698038070761194,-5.334108349711053e-07,2.0279816401164893e-07,2.6399164160712018e-09
1668678552.3121085,60675,1668678552,311994160,,4.05089188549681e-05,-2.651997011536665e-08,-0.0005741292092938995,-5.30952551713808e-07,2.0093939335347672e-07,2.619040442120935e-09
1668678552.3204,60676,1668678552,320237724,,4.449635691114887e-05,-2.6381450774805575e-08,-0.000458878183366006,-5.284458619654583e-07,1.9906965325228988e-07,2.597994902027315e-09
1668678552.328791,60677,1668678552,328618316,,5.022261207531125e-05,-2.578718912277617e-08,-0.0003521795731330909,-5.258914892265326e-07,1.9718927367351437e-07,2.57678383222082e-09
1668678552.337014,60678,1668678552,336676941,,5.792827972452781e-05,-2.4923681180137507e-08,-0.00024258097758048263,-5.232901646351951e-07,1.952985861381926e-07,2.555411258357669e-09
1668678552.3441663,60679,1668678552,344036224,,6.783109197390578e-05,-2.376660301018834e-08,-0.00013545684976449794,-5.206426291403037e-07,1.9339792442964837e-07,2.5338811937612813e-09
1668678552.3527815,60680,1668678552,352534405,,8.012720507431914e-05,-2.235015316627828e-08,-3.652971683531373e-05,-5.179496355452065e-07,1.9148762527070717e-07,2.51219764131963e-09
1668678552.3606546,60681,1668678552,360521859,,9.499251770405912e-05,-2.0755098865869148e-08,5.767155720277037e-05,-5.152119504537432e-07,1.8956802895780444e-07,2.490364586858057e-09
1668678552.3689613,60682,1668678552,368665456,,0.00011258393223315568,-1.9073747845873536e-08,0.0001308904703092969,-5.124303560197091e-07,1.876394799359052e-07,2.4683860015922796e-09
1668678552.3766098,60683,1668678552,376396612,,0.0001330405473003856,-1.7399069226179437e-08,0.0001909776211829965,-5.096056514608236e-07,1.8570232729441113e-07,2.446265848227028e-09
1668678552.3849146,60684,1668678552,384744847,,0.00015648483628560742,-1.568307249481081e-08,0.0002571884401939974,-5.067386543426174e-07,1.837569251792171e-07,2.424008064042492e-09
1668678552.3920352,60685,1668678552,391910311,,0.00018302367045491827,-1.3882976950590937e-08,0.0003316386987670811,-5.038302015751213e-07,1.8180363311527912e-07,2.4016165853430783e-09
1668678552.4009535,60686,1668678552,400553174,,0.00021274929147179554,-1.2097477460057765e-08,0.0003995521839561392,-5.008811501608869e-07,1.798428162499059e-07,2.3790953241741714e-09
1668678552.4085958,60687,1668678552,408351040,,0.00024574038017521926,-1.0272550818351898e-08,0.00046869231834504514,-4.978923776710497e-07,1.7787484549580877e-07,2.3564481774294294e-09
1668678552.4164565,60688,1668678552,416313835,,0.00026003539905570806,-8.97282018269433e-09,0.0005012416224124697,-4.948612692641753e-07,1.758991360786823e-07,2.333679360432689e-09
1668678552.424428,60689,1668678552,424255813,,0.0002848732308575823,-7.82713008491591e-09,0.000521856960720745,-4.917927407177821e-07,1.739171169130405e-07,2.310792354123445e-09
1668678552.4324276,60690,1668678552,432228476,,0.00031719415821583353,-6.785097793500542e-09,0.0005353719717406278,-4.886873564672441e-07,1.719290830248686e-07,2.2877910237908625e-09
1668678552.440466,60691,1668678552,440319833,,0.00035392540438545323,-5.7877749816965284e-09,0.0005467630176393197,-4.855455900001447e-07,1.6993529625931488e-07,2.264679252830283e-09
1668678552.4485385,60692,1668678552,448383850,,0.0003832935862252784,-4.888824521202891e-09,0.00055748657676065,-4.823657369704652e-07,1.6793536580540125e-07,2.24146110515671e-09
1668678552.4567525,60693,1668678552,456575635,,0.0004118204401662449,-4.054812246321802e-09,0.0005669838109501607,-4.791496832624541e-07,1.6592992814090108e-07,2.2181402751890456e-09
1668678552.4649427,60694,1668678552,464720405,,0.00046097526368768965,-3.219126386309018e-09,0.0005672615665816587,-4.75903736570868e-07,1.6392097059711574e-07,2.194720037217851e-09
1668678552.4722936,60695,1668678552,472142479,,0.0005223853001036563,-2.289376942425556e-09,0.0005668656312314353,-4.7262773351218986e-07,1.6190858929790214e-07,2.1712042564238712e-09
1668678552.4804444,60696,1668678552,480324291,,0.0005874463511273706,-1.3293636812173897e-09,0.0005653827641475938,-4.6932070809151603e-07,1.5989260603017937e-07,2.147596857835811e-09
1668678552.488516,60697,1668678552,488311658,,0.0006603117150765905,-2.7428473370519315e-10,0.0005631453065819437,-4.6598533071657993e-07,1.578739462259807e-07,2.123901397636796e-09
1668678552.497442,60698,1668678552,497146760,,0.0007386403686348937,8.138234681927694e-10,0.0005560865761585939,-4.626222552741477e-07,1.5585291482045363e-07,2.1001216109033105e-09
1668678552.5043876,60699,1668678552,504255669,,0.0008211928248230008,2.1180824567677173e-09,0.0005578202981563972,-4.5923230036183685e-07,1.5382985976739757e-07,2.0762612000773534e-09
1668678552.5151422,60700,1668678552,514704137,,0.0009073096743896741,3.5596812835065243e-09,0.0005632695342338746,-4.5581638517940876e-07,1.5180515577047147e-07,2.0523238382190445e-09
1668678552.5206728,60701,1668678552,520504413,,0.000996308438146644,5.060990195269072e-09,0.0005671770806958297,-4.5237530380320576e-07,1.4977913373431768e-07,2.028313194919057e-09
1668678552.5297658,60702,1668678552,529585359,,0.0010861077271064612,6.917959291604404e-09,0.0005941243781729198,-4.489088383528927e-07,1.4775179300454902e-07,2.004233009373843e-09
1668678552.5369716,60703,1668678552,536875065,,0.0011778834890760824,8.971613219559622e-09,0.0006307329875350176,-4.4541856792912327e-07,1.4572370969622854e-07,1.9800868371160074e-09
1668678552.5444446,60704,1668678552,544331515,,0.001196840743638918,1.0765656807138383e-08,0.0007568894137978645,-4.4185117673372184e-07,1.4367754862430423e-07,1.95588336173759e-09
1668678552.552129,60705,1668678552,552023834,,0.001126719757307925,1.2300897997405587e-08,0.0009570257184195871,-4.3819300532374725e-07,1.416088523960963e-07,1.9316274651841325e-09
1668678552.5609303,60706,1668678552,560712930,,0.0010733335471041691,1.4693118700123784e-08,0.001139460855562389,-4.345215533279775e-07,1.395429550027488e-07,1.907315500633208e-09
1668678552.568839,60707,1668678552,568699959,,0.0009837950494271082,1.79516462161969e-08,0.00135040559591936,-4.308031666763982e-07,1.3746897287142374e-07,1.8829542165928193e-09
1668678552.576765,60708,1668678552,576628140,,0.0005930435808442972,2.5066119723146434e-08,0.0017551246015331844,-4.2691557105387377e-07,1.3534784117744282e-07,1.8585584853894263e-09
1668678552.5848696,60709,1668678552,584640049,,-0.00020495237043010277,5.01174607422831e-08,0.002390769831234081,-4.230463377341733e-07,1.3324403203180303e-07,1.8341143776271981e-09
1668678552.5926373,60710,1668678552,592442123,,-0.0011634150124555315,1.0566870241749699e-07,0.003112429718617793,-4.196075651749593e-07,1.3129502960906961e-07,1.8095872803686186e-09
1668678552.6007886,60711,1668678552,600578422,,-0.002028495064390485,1.7970422956904506e-07,0.003770932405159071,-4.165907275601068e-07,1.2949574878788508e-07,1.7849812019091194e-09
1668678552.6086578,60712,1668678552,608503665,,-0.002930864388491509,2.794116131824408e-07,0.004459278332377634,-4.140476650877037e-07,1.2786495662347682e-07,1.7602938152255776e-09
1668678552.6165583,60713,1668678552,616406455,,-0.003806394848558651,3.9572234930747973e-07,0.0051316674576992564,-4.11899928910092e-07,1.263755215424829e-07,1.7355344279768037e-09
1668678552.624864,60714,1668678552,624615523,,-0.004452346729830618,4.784631471478859e-07,0.005588016044441908,-4.095838915832588e-07,1.2483461980225324e-07,1.7107586311113088e-09
1668678552.632127,60715,1668678552,632009934,,-0.004884242111090818,5.168436088794986e-07,0.005847034061497072,-4.0686977745031514e-07,1.2316454510430657e-07,1.685992079454579e-09
1668678552.6402824,60716,1668678552,640178210,,-0.0052550867194674205,5.45292836249699e-07,0.006074050817613313,-4.0404903999923246e-07,1.2146550768917983e-07,1.661210549327996e-09
1668678552.6486108,60717,1668678552,648480791,,-0.005496010297545308,5.425030308792424e-07,0.006191604283053943,-4.0085916258491747e-07,1.1964796314508416e-07,1.63644383981143e-09
1668678552.6570776,60718,1668678552,656808026,,-0.005489324143726334,4.903046823802835e-07,0.006174634019043083,-3.968575700981868e-07,1.1756095238797345e-07,1.6117417695610259e-09
1668678552.6649194,60719,1668678552,664714839,,-0.005130291421457491,3.6579273409328e-07,0.005925625639552055,-3.917132633075987e-07,1.1509155344071307e-07,1.5871454896870807e-09
1668678552.672113,60720,1668678552,671998012,,-0.004599428261978483,2.2135023305719535e-07,0.005567586484361487,-3.8614296759729386e-07,1.1248451020984067e-07,1.5625882072642372e-09
1668678552.6806133,60721,1668678552,680389910,,-0.004082212018461136,1.0050614120733231e-07,0.00522685693826127,-3.8076959394369375e-07,1.099526341734585e-07,1.5380085087446371e-09
1668678552.688996,60722,1668678552,688791209,,-0.0033936435027120326,-3.729878333882183e-08,0.004715295797404804,-3.7517471394789455e-07,1.0735259691563119e-07,1.5134532559482605e-09
1668678552.6962569,60723,1668678552,696156314,,-0.0026351435073600727,-1.5951622587338666e-07,0.004135690165640557,-3.6973725698222245e-07,1.04813759234257e-07,1.4888848712951708e-09
1668678552.7040555,60724,1668678552,703943328,,-0.001859330801177911,-2.5597777863186734e-07,0.003515035334191081,-3.6461582429157043e-07,1.0239031765313736e-07,1.4642882770025956e-09
1668678552.7124426,60725,1668678552,712275486,,-0.0011203781889481622,-3.1762263367355904e-07,0.002936492212820559,-3.5987572199942525e-07,1.0010481084611432e-07,1.4396583836086968e-09
1668678552.7209818,60726,1668678552,720690015,,-0.00038911263109786304,-3.537420441409354e-07,0.002359037141873797,-3.554545670769456e-07,9.793585047026652e-08,1.4150043452492572e-09
1668678552.728517,60727,1668678552,728354923,,0.0003211446895490916,-3.657171413208116e-07,0.0018020061482982757,-3.513396131009451e-07,9.587920852185887e-08,1.390330278748346e-09
1668678552.7364695,60728,1668678552,736335829,,0.001004226654475631,-3.602428372583144e-07,0.0011809639895538195,-3.4749939818950435e-07,9.392426146146766e-08,1.3656426727307047e-09
1668678552.7442062,60729,1668678552,744091308,,0.0016577171031295686,-3.348934215632425e-07,0.0006075785876301812,-3.43896928246291e-07,9.205848776813459e-08,1.340948853692514e-09
1668678552.7529786,60730,1668678552,752745078,,0.002279001583942419,-2.9474348858095994e-07,7.830331337357698e-05,-3.4049292179368724e-07,9.026859624945694e-08,1.3162565789918979e-09
1668678552.7612941,60731,1668678552,761112645,,0.002871925654294568,-2.438850740409304e-07,-0.0004088273206881855,-3.3725650444759245e-07,8.854410426608098e-08,1.2915727836196322e-09
1668678552.7692513,60732,1668678552,769007166,,0.0034369356425967617,-1.8829480290676876e-07,-0.0007287123228717821,-3.3415751767696913e-07,8.687479898396961e-08,1.2669043687393855e-09
1668678552.777608,60733,1668678552,777376066,,0.003974972958416922,-1.3203400599500767e-07,-0.0009541842280259825,-3.311691555621778e-07,8.525160232852706e-08,1.2422578660187256e-09
1668678552.7858734,60734,1668678552,785451375,,0.0044107156609109735,-8.57348336420849e-08,-0.0010398341449452807,-3.280726916889796e-07,8.360088486519986e-08,1.2176598679011774e-09
1668678552.7929745,60735,1668678552,792713051,,0.004773735922041187,-4.8610881329239585e-08,-0.0010302723249013622,-3.248694890892e-07,8.192289900757011e-08,1.1931130840248105e-09
1668678552.801595,60736,1668678552,801375540,,0.005123660714332382,-1.305653123072105e-08,-0.0010194337865232547,-3.2168956407260986e-07,8.026132011502811e-08,1.1686069716076997e-09
1668678552.8091743,60737,1668678552,809020965,,0.005432535565677014,1.639297461099239e-08,-0.0009617313509745476,-3.1843616674107707e-07,7.858354275454477e-08,1.1441544760237843e-09
1668678552.817391,60738,1668678552,817141179,,0.005712149666265389,4.1651691611943504e-08,-0.0008859546029821273,-3.1512672305278647e-07,7.689539505709381e-08,1.1197565825959988e-09
1668678552.8252811,60739,1668678552,825002754,,0.006013065820407727,6.85368370427172e-08,-0.0007919299669618875,-3.119246951599112e-07,7.52519678711165e-08,1.0954000814050735e-09
1668678552.832234,60740,1668678552,832053879,,0.006319940475895717,9.573585667422602e-08,-0.000691884715078599,-3.087842179130991e-07,7.363783241246739e-08,1.0710928966678468e-09
1668678552.8405864,60741,1668678552,840345624,,0.006617025443793873,1.2153960429873098e-07,-0.0005983795608050889,-3.056473655263021e-07,7.20334652503144e-08,1.0468437661864671e-09
1668678552.848733,60742,1668678552,848470897,,0.006965633649800158,1.548713608761066e-07,-0.0005499947794253889,-3.027584623534272e-07,7.052131863885601e-08,1.022633153505148e-09
1668678552.8565993,60743,1668678552,856470463,,0.007332758899292871,1.9081296382635605e-07,-0.0005249452560042993,-3.0000568943853805e-07,6.90637297345181e-08,9.984755591774253e-10
1668678552.8644745,60744,1668678552,864354290,,0.007669448658796808,2.219617874629392e-07,-0.0005162331702455393,-2.971798084586369e-07,6.759008991616433e-08,9.743932397054955e-10
1668678552.8721278,60745,1668678552,871954286,,0.007949339328440275,2.435801255606753e-07,-0.0005072713659517752,-2.9413987939107744e-07,6.605277347451017e-08,9.504008049304735e-10
1668678552.8812103,60746,1668678552,880975729,,0.008220273283748957,2.631201147692265e-07,-0.0004980170413929756,-2.9108997894362215e-07,6.452064497893028e-08,9.264826180549468e-10
1668678552.8885007,60747,1668678552,888361794,,0.008459759378897957,2.7681893621784985e-07,-0.0004885611303725957,-2.879139454765292e-07,6.29544588261568e-08,9.026508585724402e-10
1668678552.8963656,60748,1668678552,896252007,,0.0087520329016104,3.002733346016273e-07,-0.0005390939697067113,-2.850321126574105e-07,6.149619098655803e-08,8.788742181936593e-10
1668678552.904483,60749,1668678552,904305835,,0.009008850305394353,3.162317766970283e-07,-0.0005639202533282124,-2.8199927001130716e-07,5.999547724567329e-08,8.551916223786815e-10
1668678552.9124928,60750,1668678552,912295524,,0.009244678868043374,3.2751950381856873e-07,-0.0005747547163909684,-2.788793719484819e-07,5.847388812664804e-08,8.315999156655041e-10
1668678552.920405,60751,1668678552,920288142,,0.009474387569656566,3.372037731523743e-07,-0.000583599377352921,-2.7574773113591257e-07,5.695685138709227e-08,8.080957170780723e-10
1668678552.9285982,60752,1668678552,928394394,,0.00959703953429119,3.2371793335250103e-07,-0.0004815565683154511,-2.7202583314012477e-07,5.52488185293098e-08,7.847211821315758e-10
1668678552.9366813,60753,1668678552,936474839,,0.009668946119533988,3.005682150083574e-07,-0.00032894094125113384,-2.680157569932357e-07,5.345176604121e-08,7.614541115696927e-10
1668678552.9448516,60754,1668678552,944604675,,0.009538696534221356,2.381165364037721e-07,3.713559455019509e-05,-2.6284431891359056e-07,5.1270456717178794e-08,7.38349622761425e-10
1668678552.9524114,60755,1668678552,952259259,,0.009302520899157006,1.6417943820997704e-07,0.0005272419096262226,-2.5709588915633714e-07,4.890222866932173e-08,7.153652843705505e-10
1668678552.964869,60756,1668678552,964656517,,0.009099312731793178,1.0846351875838233e-07,0.0009775853693706925,-2.5157289028709755e-07,4.661824290312644e-08,6.924524929147191e-10
1668678552.9691541,60757,1668678552,968901675,,0.008858535676966645,5.741302302530914e-08,0.0014713281217817449,-2.4588541318051286e-07,4.428671593635419e-08,6.696368841374589e-10
1668678552.977476,60758,1668678552,977095107,,0.008596537500624184,1.3257326444291474e-08,0.0019430502425204054,-2.401358855772429e-07,4.194224235016522e-08,6.469141264342504e-10
1668678552.984377,60759,1668678552,984258795,,0.008373099960299408,-1.635875308002371e-08,0.002365600917122274,-2.3463568021244612e-07,3.9690062407840825e-08,6.242704374270769e-10
1668678552.9920585,60760,1668678552,991952924,,0.008185442064030908,-3.4738623742160355e-08,0.0027457889524537373,-2.293542385782229e-07,3.7519865975720566e-08,6.017113300671451e-10
1668678553.0005038,60761,1668678553,399454,,0.008031020806128279,-4.43483863876681e-08,0.0030905213143934134,-2.2426606076260392e-07,3.542304748854232e-08,5.792416823968694e-10
1668678553.009038,60762,1668678553,8786315,,0.008065308177885906,-3.030104605648593e-08,0.00330109698673824,-2.201027071023525e-07,3.364693038418595e-08,5.568331889332923e-10
1668678553.016539,60763,1668678553,16344188,,0.008199643931164628,-6.367694024243545e-09,0.0034352025664742534,-2.1642947620793297e-07,3.2044687149070886e-08,5.345120873689879e-10
1668678553.0246286,60764,1668678553,24517833,,0.008468243143883737,3.0693523008678065e-08,0.003475147804068436,-2.134358903298591e-07,3.068047967975029e-08,5.122764573650684e-10
1668678553.0321615,60765,1668678553,31962946,,0.008811843420485434,7.481256413541505e-08,0.003463862005604455,-2.1087000957409428e-07,2.9469242340265326e-08,4.901423936859439e-10
1668678553.040889,60766,1668678553,40591700,,0.009147363222383097,1.1577430128424578e-07,0.0034466351171047174,-2.083247946865161e-07,2.8273390469287212e-08,4.681290841079822e-10
1668678553.0486493,60767,1668678553,48541222,,0.009515877977031946,1.5945744583777368e-07,0.003402183435269795,-2.0602539031848715e-07,2.716906020078019e-08,4.462319107972901e-10
1668678553.056556,60768,1668678553,56296493,,0.009985830744592531,2.099844956412541e-07,0.0032028942676125337,-2.0439223727578102e-07,2.6298511969242294e-08,4.2444313688716484e-10
1668678553.0645914,60769,1668678553,64421592,,0.010495855866361445,2.565515042302208e-07,0.0028052260062931124,-2.0312501649032188e-07,2.55602809032837e-08,4.0277851887093874e-10
1668678553.0725467,60770,1668678553,72373775,,0.01101422668363014,3.0563554432928264e-07,0.002323499913674309,-2.0205197553842507e-07,2.4896322174791565e-08,3.8124783538484586e-10
1668678553.0807915,60771,1668678553,80570734,,0.011508255512038318,3.5771174804884895e-07,0.0018752556698462606,-2.009580550342094e-07,2.42338931713223e-08,3.598598086185234e-10
1668678553.088511,60772,1668678553,88387732,,0.011995872777386715,4.126907018178354e-07,0.001392578887971379,-1.999485441783592e-07,2.3608600487588522e-08,3.3861525042255813e-10
1668678553.0971808,60773,1668678553,96927936,,0.01246918086691181,4.6996589856829983e-07,0.0009102740827676446,-1.9895932639000125e-07,2.2998749088065217e-08,3.1751850107508695e-10
1668678553.1047664,60774,1668678553,104375319,,0.012924616189390298,5.281684258915576e-07,0.00048363040995991446,-1.9795107798490697e-07,2.2391019316881505e-08,2.965727628756465e-10
1668678553.1127908,60775,1668678553,112495280,,0.013358420129233658,5.838775476475302e-07,8.97445808726276e-05,-1.9687981735809728e-07,2.1770505371099952e-08,2.757806621955794e-10
1668678553.1205328,60776,1668678553,120368496,,0.013774281109265494,6.361664641771526e-07,-0.00024283036064684028,-1.957593303093851e-07,2.1141841992204386e-08,2.5514393375836164e-10
1668678553.1283247,60777,1668678553,128196844,,0.014172013913497596,6.834824489792139e-07,-0.0005325730320432669,-1.945751838462902e-07,2.0500114987552585e-08,2.346643851458552e-10
1668678553.1369286,60778,1668678553,136647178,,0.014552028292862406,7.229460918977565e-07,-0.0007142928467297703,-1.9331859317536326e-07,1.9842317239423483e-08,2.1434353250637805e-10
1668678553.144523,60779,1668678553,144413464,,0.014915025617177745,7.54260415119205e-07,-0.0008207825432479372,-1.9198436171987418e-07,1.9166652659853393e-08,1.941826630047494e-10
1668678553.1521869,60780,1668678553,152065031,,0.0152618381667493,7.783059746155707e-07,-0.0008857610771321975,-1.9056966755865942e-07,1.847212608314117e-08,1.7418291461956947e-10
1668678553.1605666,60781,1668678553,160406553,,0.015593243124846548,7.964852650549691e-07,-0.000943858250621813,-1.8907238819037978e-07,1.7757976749125347e-08,1.543453038987952e-10
1668678553.168938,60782,1668678553,168723977,,0.01591028016589379,8.076167948243483e-07,-0.0009519395598808825,-1.8749397550792178e-07,1.702465165446653e-08,1.3467075024586883e-10
1668678553.1765296,60783,1668678553,176341610,,0.01621378574179676,8.130302216412021e-07,-0.0009344417944390527,-1.8583509802847474e-07,1.6272331215881446e-08,1.1516012449197532e-10
1668678553.1845622,60784,1668678553,184460172,,0.01650457867085755,8.122944486850373e-07,-0.000866049244574242,-1.8409721570623937e-07,1.550146224815578e-08,9.581421073212582e-11
1668678553.192207,60785,1668678553,192037606,,0.016783450954316728,8.083547626727178e-07,-0.0008123442444153826,-1.8228238506440742e-07,1.4712692236610106e-08,7.663373061128631e-11
1668678553.200794,60786,1668678553,200517220,,0.017051152624858453,8.010751942199775e-07,-0.0007612801212784653,-1.8039304002881538e-07,1.3906795300945053e-08,5.761939189663501e-11
1668678553.2085557,60787,1668678553,208355901,,0.01730841950792041,7.909829520703497e-07,-0.0007185710244080708,-1.7843217555533618e-07,1.3084734562887092e-08,3.877191970258487e-11
1668678553.216587,60788,1668678553,216425862,,0.01755593852041875,7.805964121075313e-07,-0.000753550435231207,-1.7640291632774977e-07,1.2247516314491114e-08,2.009195934626895e-11
1668678553.2244222,60789,1668678553,224261404,,0.017794362121570807,7.695734674396761e-07,-0.0008470807099459002,-1.7430860585197533e-07,1.1396220271826275e-08,1.5801943087367931e-12
1668678553.2324781,60790,1668678553,232233865,,0.01802430967020371,7.571862996492899e-07,-0.0009647613402228663,-1.7215274811583e-07,1.0531979954819803e-08,-1.676269192896207e-11
1668678553.2407224,60791,1668678553,240603851,,0.01824636777882392,7.424396453714028e-07,-0.0010712407358242572,-1.6993895296318288e-07,9.65596433908679e-09,-3.493604017190677e-11
1668678553.24873,60792,1668678553,248434648,,0.01846109628923692,7.318708419769568e-07,-0.0013093397165805523,-1.6767092038606117e-07,8.769372578576115e-09,-5.293913918347215e-11
1668678553.2570639,60793,1668678553,256855922,,0.01866902133765305,7.234020467832494e-07,-0.0016012507923258996,-1.6535237737304483e-07,7.873412742522706e-09,-7.077130895205563e-11
1668678553.2685,60794,1668678553,268343483,,0.018870640805151398,7.15267020099851e-07,-0.0018990787741417782,-1.6298706249668216e-07,6.9692966314432656e-09,-8.843181742435036e-11
1668678553.2722821,60795,1668678553,272073900,,0.019066425726555845,7.066652845575681e-07,-0.00218768464447103,-1.6057870141464076e-07,6.0582316287064245e-09,-1.0591994989428422e-10
1668678553.2811565,60796,1668678553,280830141,,0.019256820902827376,6.962120404445587e-07,-0.002449171915632243,-1.581309858415792e-07,5.1414135254996066e-09,-1.2323493961408083e-10
1668678553.2889853,60797,1668678553,288821807,,0.019442247094296115,6.84523769628616e-07,-0.0026947171618934354,-1.5564755825631278e-07,4.2200214882878034e-09,-1.4037602677485772e-10
1668678553.2968786,60798,1668678553,296611994,,0.01962310068068342,6.70488512922462e-07,-0.0029124588435646462,-1.531319951948273e-07,3.295212361222738e-09,-1.573424168732629e-10
1668678553.3045838,60799,1668678553,304413832,,0.019799753775220124,6.480667438651631e-07,-0.0030378629092836238,-1.5058779647002967e-07,2.368117109634478e-09,-1.741333119364974e-10
1668678553.3125436,60800,1668678553,312409283,,0.019972560094700463,6.207649756263196e-07,-0.003110682023046785,-1.480183754652383e-07,1.439837534031492e-09,-1.9074789664452751e-10
1668678553.3205795,60801,1668678553,320386509,,0.020141852949812345,5.926228505610038e-07,-0.0031716118747256625,-1.4542705140683024e-07,5.114436115285018e-10,-2.071853383300848e-10
1668678553.3291647,60802,1668678553,328866960,,0.02030794262182235,5.573789014926455e-07,-0.0031535019356409896,-1.428170434198046e-07,-4.160283645360252e-10,-2.2344477657032513e-10
1668678553.3369179,60803,1668678553,336727784,,0.020471125139463753,5.220977051839869e-07,-0.0031236771974633534,-1.4019146564350597e-07,-1.3415775469705071e-09,-2.3952535788129836e-10
1668678553.3446436,60804,1668678553,344417029,,0.02063167658489358,4.873513830587714e-07,-0.0030863418459631422,-1.3755332403011101e-07,-2.2642395664570353e-09,-2.554262079623726e-10
1668678553.3521874,60805,1668678553,352044232,,0.02078985617310515,4.5389296760175064e-07,-0.0030482539895509203,-1.34905513998198e-07,-3.1830873316925773e-09,-2.71146445574022e-10
1668678553.3611856,60806,1668678553,360905047,,0.020945906712273792,4.21560591219372e-07,-0.003007162753119819,-1.322508190620714e-07,-4.097231467189814e-09,-2.8668518253782693e-10
1668678553.3689232,60807,1668678553,368746318,,0.021100055818522676,3.905512672368702e-07,-0.002964588477846244,-1.2959191032861075e-07,-5.005820505614607e-09,-3.0204150291979204e-10
1668678553.3767643,60808,1668678553,376575518,,0.02125251759543348,3.64209471295023e-07,-0.0029572257563457,-1.2693134659099987e-07,-5.9080408971101325e-09,-3.172145116026037e-10
1668678553.3848388,60809,1668678553,384643054,,0.02140349028312453,3.3972446810425423e-07,-0.0029570582051263936,-1.2427157506281314e-07,-6.803116655088037e-09,-3.322033134689484e-10
1668678553.393212,60810,1668678553,392809231,,0.02155315972186764,3.164849016545808e-07,-0.0029576848992531263,-1.216149326096149e-07,-7.690309083117908e-09,-3.470070064626185e-10
1668678553.40154,60811,1668678553,401385441,,0.021701699297204575,2.938957480247094e-07,-0.002952428056591219,-1.1896364732286863e-07,-8.568916136874292e-09,-3.616246885274066e-10
1668678553.4086008,60812,1668678553,408488203,,0.0218492712996152,2.735617150992651e-07,-0.0029583949177243245,-1.163198405207237e-07,-9.43827180885197e-09,-3.760554159737417e-10
1668678553.4171703,60813,1668678553,416850410,,0.02199602228057908,2.4333554259296614e-07,-0.002841600271058289,-1.1368552898841067e-07,-1.0297745353269813e-08,-3.9029832837877976e-10
1668678553.4258208,60814,1668678553,425562829,,0.022142094577225827,2.1050976767738776e-07,-0.0026667695717933226,-1.1106262737237658e-07,-1.1146740532767124e-08,-4.0435250980852544e-10
1668678553.4327855,60815,1668678553,432573083,,0.022287617679325078,1.739204351709318e-07,-0.0024062246814339034,-1.0845295091307071e-07,-1.1984694627334425e-08,-4.1821708596234686e-10
1668678553.4412012,60816,1668678553,440926560,,0.022432715012373962,1.429363533578367e-07,-0.002161518638073872,-1.0585821822012265e-07,-1.2811077553073931e-08,-4.318911478451426e-10
1668678553.4486053,60817,1668678553,448447588,,0.022577496588457976,1.1353722445265135e-07,-0.0018819943163289779,-1.0328005420014901e-07,-1.3625390882189212e-08,-4.453738489118564e-10
1668678553.4570832,60818,1668678553,456708527,,0.022722064420430416,8.32856729731853e-08,-0.0015143378936567761,-1.0071999290026329e-07,-1.4427166858854874e-08,-4.586643079229624e-10
1668678553.4646351,60819,1668678553,464523714,,0.02286651535551307,5.85561984361468e-08,-0.0011383698403433817,-9.817948048616246e-08,-1.5215967425819855e-08,-4.717616783334044e-10
1668678553.4721982,60820,1668678553,472046421,,0.023010936733949792,3.9932223844691826e-08,-0.0007716904243240617,-9.565987836118684e-08,-1.5991383162648233e-08,-4.846651274759139e-10
1668678553.4805925,60821,1668678553,480408855,,0.02315540849239862,2.7314262686302374e-08,-0.00043245946797869903,-9.316246608079108e-08,-1.6753032336500225e-08,-4.973738434999042e-10
1668678553.4890065,60822,1668678553,488698773,,0.023300024310704433,-5.13302360440116e-05,-0.00010516794785295775,-9.092415896046592e-08,-1.7420717066812808e-08,-5.098278396675759e-10
1668678553.4965594,60823,1668678553,496356922,,0.023444852396710878,-0.0001599802404631559,0.00016619121765445354,-8.897577252731624e-08,-1.7983970616191648e-08,-5.220139459582995e-10
1668678553.5046182,60824,1668678553,504453031,,0.023589937880072895,-0.0002922421998886351,0.000399761109994871,-8.716452116872995e-08,-1.8494506070490177e-08,-5.339666625525652e-10
1668678553.5122826,60825,1668678553,512107390,,0.023735326514563594,-0.0004273936158898603,0.0005978530833864799,-8.539545566553855e-08,-1.8984496750573503e-08,-5.457087767779534e-10
1668678553.5209184,60826,1668678553,520680525,,0.023881061814230456,-0.000551020961832667,0.000779114069538716,-8.360144819322991e-08,-1.9476724328606684e-08,-5.572580105694946e-10
1668678553.528414,60827,1668678553,528293517,,0.02402719224274456,-0.0006709892913142834,0.0009359860346913401,-8.181997434582962e-08,-1.995856119512817e-08,-5.686041498753625e-10
1668678553.5369415,60828,1668678553,536774002,,0.024173784442324,-0.0008481193332643938,0.0010102462284765558,-8.034281217465626e-08,-2.0331225540474486e-08,-5.796617630338119e-10
1668678553.5443776,60829,1668678553,544185531,,0.024320868956773486,-0.0010730905686990645,0.001040437319935797,-7.912922015291266e-08,-2.0608469962122254e-08,-5.904366440212527e-10
1668678553.5529714,60830,1668678553,552733760,,0.024468446268704435,-0.0012781678139908955,0.0010661886511867734,-7.78533547428459e-08,-2.0900634712197642e-08,-6.010227593389317e-10
1668678553.5604384,60831,1668678553,560230923,,0.024616560407100935,-0.0014980312311279184,0.0010686659945806586,-7.66843458888263e-08,-2.1150507836125744e-08,-6.113684211661585e-10
1668678553.5686133,60832,1668678553,568437064,,0.02476522883899363,-0.0017178714022891047,0.0011078607904689776,-7.555037031614989e-08,-2.138243778760686e-08,-6.214942657734035e-10
1668678553.5764961,60833,1668678553,576391776,,0.024914504107319557,-0.002004701396676618,0.0011977581796379082,-7.478582202135892e-08,-2.1483196765699313e-08,-6.312900827087908e-10
1668678553.584917,60834,1668678553,584674041,,0.025064380320636084,-0.0023116317800745433,0.0013076806715750081,-7.416046112726808e-08,-2.153069897023463e-08,-6.408247543721046e-10
1668678553.5921812,60835,1668678553,592035740,,0.025214861239378553,-0.002616239908795075,0.001444498393858707,-7.356230632748822e-08,-2.1562881193809037e-08,-6.501333221775596e-10
1668678553.6006432,60836,1668678553,600525151,,0.025365945350730317,-0.00289161710679474,0.001567654563857727,-7.285345929135267e-08,-2.1626499689913863e-08,-6.592632689761402e-10
1668678553.6085584,60837,1668678553,608390939,,0.025517650868639052,-0.003153681460945244,0.0016981361924583776,-7.21137232462016e-08,-2.169461880616435e-08,-6.681885253434494e-10
1668678553.6169739,60838,1668678553,616649600,,0.02566999956086881,-0.0034318048142335978,0.0017997518577216396,-7.149482223367705e-08,-2.1715912178828407e-08,-6.768545099400392e-10
1668678553.6245506,60839,1668678553,624357523,,0.025822994614416346,-0.003723854268504753,0.0018593866785045566,-7.098678141549512e-08,-2.169376974467483e-08,-6.852621733943742e-10
1668678553.63213,60840,1668678553,631934703,,0.025976627364624166,-0.004007910837741757,0.0018946361279218854,-7.047474533084745e-08,-2.166711112849655e-08,-6.934525870194719e-10
1668678553.640691,60841,1668678553,640519356,,0.026130887381906557,-0.004261616236371128,0.0019233612396915012,-6.98388478914333e-08,-2.167659682035094e-08,-7.014722969156395e-10
1668678553.6490383,60842,1668678553,648837046,,0.02628576672037101,-0.0044714852804970595,0.0019104708340097825,-6.9004398150249e-08,-2.174763216061283e-08,-7.093538187397108e-10
1668678553.6564407,60843,1668678553,656283560,,0.026441256579670776,-0.004620421106945048,0.0019587340045436816,-6.78762011782066e-08,-2.191259908972728e-08,-7.171404789452218e-10
1668678553.6643915,60844,1668678553,664271252,,0.026597365817050224,-0.004729993651229885,0.002033018170616118,-6.656817704329228e-08,-2.2133085854207125e-08,-7.247927050202385e-10
1668678553.6721454,60845,1668678553,672017237,,0.026754125970705412,-0.004864168390069977,0.002161951697818056,-6.542801332551319e-08,-2.2291453005739495e-08,-7.321694223128006e-10
1668678553.6821501,60846,1668678553,681811652,,0.026911503349001248,-0.004978146256088555,0.002276432764610629,-6.421050801106538e-08,-2.2470753801846592e-08,-7.393717305070879e-10
1668678553.688974,60847,1668678553,688752758,,0.027069504903354538,-0.005095882072828992,0.0024114834119347466,-6.304710883730082e-08,-2.262655634014364e-08,-7.463447429523207e-10
1668678553.6969767,60848,1668678553,696780770,,0.027228129765904236,-0.005229614647566296,0.0026172191705845275,-6.200592666985409e-08,-2.273583007983155e-08,-7.530573040148703e-10
1668678553.7043033,60849,1668678553,704188491,,0.02738735472418078,-0.005359689061584221,0.0028168419221567113,-6.097758858454204e-08,-2.283563598989586e-08,-7.595563206175271e-10
1668678553.7129438,60850,1668678553,712715169,,0.027547164406864246,-0.005478043710250015,0.0030032110267734784,-5.991641680724727e-08,-2.2941503967908485e-08,-7.658629702644859e-10
1668678553.7204406,60851,1668678553,720277059,,0.02770754264757355,-0.005576241193939192,0.0031689298283175977,-5.8774023559756295e-08,-2.306990113472209e-08,-7.720012545897603e-10
1668678553.7283757,60852,1668678553,728267513,,0.027868454541916065,-0.005614372242494836,0.0033114721055746608,-5.7322672166414384e-08,-2.3298067049269504e-08,-7.780824526348873e-10
1668678553.7364316,60853,1668678553,736287814,,0.028029897232929042,-0.005603842271810426,0.003464306405459554,-5.5625682674994344e-08,-2.360474835104258e-08,-7.840843391226926e-10
1668678553.7459538,60854,1668678553,745585114,,0.028191870542257493,-0.005564539305067872,0.003613184443079367,-5.379599619210421e-08,-2.395185899942663e-08,-7.899581336290318e-10
1668678553.7531312,60855,1668678553,752857613,,0.028354375287819117,-0.005519726268885242,0.0037511890224728615,-5.1966924053889474e-08,-2.429436602997652e-08,-7.956410252862867e-10
1668678553.7610786,60856,1668678553,760853596,,0.02851739597788504,-0.0054675667701744755,0.00387088858388857,-5.0127700657422777e-08,-2.463598395988434e-08,-8.011393978768488e-10
1668678553.7699096,60857,1668678553,769616531,,0.0286809194225955,-0.0054097696026120055,0.003977823484039352,-4.8288048815699376e-08,-2.4973491949539448e-08,-8.0644937949792e-10
1668678553.777043,60858,1668678553,776805620,,0.028844941398550344,-0.005363484112212357,0.004078511557158201,-4.654749687137225e-08,-2.527324448136324e-08,-8.115192406954463e-10
1668678553.7844656,60859,1668678553,784280769,,0.029009411535407398,-0.0052681999279333225,0.004224930784183395,-4.45530247260989e-08,-2.565484877271526e-08,-8.16537087944269e-10
1668678553.7921727,60860,1668678553,792005898,,0.02917433000467666,-0.005148210045839508,0.00438393871578502,-4.244654140423288e-08,-2.6070414860333152e-08,-8.214330465827757e-10
1668678553.8004801,60861,1668678553,800321542,,0.02933969553863094,-0.00502754676343324,0.004521733260935871,-4.036900026787487e-08,-2.6472315154844536e-08,-8.261329259573458e-10
1668678553.8102906,60862,1668678553,809368712,,0.02950545741463758,-0.004846076469588181,0.004679234390936937,-3.7966537633552216e-08,-2.698047618524338e-08,-8.308365870290935e-10
1668678553.8167377,60863,1668678553,816497194,,0.029671632813287736,-0.0046550605528219696,0.004832700343304303,-3.554204906091891e-08,-2.7492509160290807e-08,-8.353803690464012e-10
1668678553.8240714,60864,1668678553,823922212,,0.029838210550751903,-0.004462289434874456,0.004973875932803214,-3.314161568481388e-08,-2.7992885435861037e-08,-8.397393197467906e-10
1668678553.8328187,60865,1668678553,832657033,,0.030005179295371862,-0.0042759486300119635,0.005094083164508612,-3.0813623276700845e-08,-2.84652751010063e-08,-8.438854268155715e-10
1668678553.841337,60866,1668678553,841021966,,0.03017254100348264,-0.004119840643013073,0.005283657872018578,-2.8699201475804875e-08,-2.8861908949384327e-08,-8.477334251244528e-10
1668678553.8490474,60867,1668678553,848797115,,0.03034026806162788,-0.003980479441299293,0.005494920702889183,-2.671755833862392e-08,-2.921012998776014e-08,-8.513279317612366e-10
1668678553.8566232,60868,1668678553,856440706,,0.030508317096194646,-0.003813268681940597,0.005737249860222426,-2.460227302263085e-08,-2.960019961778526e-08,-8.548310809208814e-10
1668678553.865124,60869,1668678553,864936357,,0.030676686511040746,-0.0036423099886097993,0.005965173399961681,-2.2497666774998724e-08,-2.998335977069666e-08,-8.58157413186067e-10
1668678553.872516,60870,1668678553,872274947,,0.030845363782708503,-0.0034727697904020404,0.006171786601414082,-2.043462227880287e-08,-3.034921471751183e-08,-8.612882837488733e-10
1668678553.8805244,60871,1668678553,880398465,,0.031014336259826285,-0.0033097776483146935,0.006349898203936067,-1.8443801804942685e-08,-3.0687429142294345e-08,-8.642041110507037e-10
1668678553.8890707,60872,1668678553,888880793,,0.031183589382538138,-0.0031582550939244546,0.006456951263989606,-1.6554588641538512e-08,-3.0988086693016503e-08,-8.66885042916099e-10
1668678553.8967106,60873,1668678553,896566778,,0.03135311830176637,-0.0030349572079528043,0.006497028492869907,-1.4867947078632971e-08,-3.121700829084029e-08,-8.692626549122728e-10
1668678553.9054112,60874,1668678553,905087134,,0.03152290070621298,-0.0029273104432846584,0.0064969090541252715,-1.3307334596724622e-08,-3.1400099717625654e-08,-8.713841176399839e-10
1668678553.9124632,60875,1668678553,912284343,,0.03169290100081011,-0.0028010975526117786,0.006470769363285447,-1.1664512835610121e-08,-3.160791475624071e-08,-8.733892012391387e-10
1668678553.9204025,60876,1668678553,920285781,,0.03186312092781888,-0.0026793323149523767,0.006433930655693686,-1.0079702582527824e-08,-3.179305954397957e-08,-8.751846261589868e-10
1668678553.9286225,60877,1668678553,928496380,,0.032033538834729355,-0.002550622580193931,0.0063803205780381825,-8.483043276185688e-09,-3.197924232866377e-08,-8.768190826180522e-10
1668678553.9371593,60878,1668678553,936972239,,0.03220415216357006,-0.002434315842195282,0.006284730071551059,-6.992968225370908e-09,-3.212641714613572e-08,-8.782102545179526e-10
1668678553.9444337,60879,1668678553,944242484,,0.032374951037736424,-0.0023338889970587343,0.006189281081729437,-5.630621130643405e-09,-3.222744011477201e-08,-8.793412734076078e-10
1668678553.9528701,60880,1668678553,952719432,,0.032545913239739974,-0.0022367928358727317,0.006089165201513895,-4.3183341378672316e-09,-3.230863032926273e-08,-8.802664777651792e-10
1668678553.9606786,60881,1668678553,960568387,,0.032717029450090605,-0.0021490259790798625,0.005987586466142243,-3.0929847734113662e-09,-3.235753949179e-08,-8.809586116154122e-10
1668678553.9707663,60882,1668678553,969380841,,0.03288828760468618,-0.0020722936821917994,0.0058875023005255465,-1.964907659756515e-09,-3.237069306095269e-08,-8.814088278685794e-10
1668678553.9774833,60883,1668678553,977259596,,0.033059669533044726,-0.0019987100737643704,0.005786560653028792,-8.847633798563306e-10,-3.2364826299232166e-08,-8.816530838728909e-10
1668678553.9853232,60884,1668678553,985108629,,0.033231162467247014,-0.0019278087205484202,0.005683609686616082,1.5060712627110867e-10,-3.2341053416698115e-08,-8.816938151801068e-10
1668678553.9931233,60885,1668678553,992899725,,0.033402753631986436,-0.0018581297191875635,0.005585902225503089,1.1505917952886642e-09,-3.230259995731441e-08,-8.815383908955532e-10
1668678554.0024028,60886,1668678554,2102982,,0.03357443124500241,-0.0017902902942426074,0.005484896507315229,2.111569242049284e-09,-3.2248288575099926e-08,-8.81184354650788e-10
1668678554.0086305,60887,1668678554,8454634,,0.03374618372113302,-0.001723965111421109,0.005385462745890049,3.035839130267632e-09,-3.217894575303394e-08,-8.806338158695581e-10
