Time,header.seq,header.stamp.secs,header.stamp.nsecs,header.frame_id,wrench.force.x,wrench.force.y,wrench.force.z,wrench.torque.x,wrench.torque.y,wrench.torque.z
1668678551.400565,60561,1668678551,400365782,,-3.092950888821631e-06,-9.164521039151863e-238,2.1537306853042097,5e-324,-5e-324,0.0
1668678551.409558,60562,1668678551,409110475,,-1.6364116773374923e-06,-4.8487447052180157e-238,2.155738265823368,5e-324,-5e-324,0.0
1668678551.4165263,60563,1668678551,416332607,,-8.657891036694489e-07,-2.565363221486534e-238,2.1759275310370545,5e-324,-5e-324,0.0
1668678551.424346,60564,1668678551,424112391,,-8.657891036694489e-07,-2.565363221486534e-238,2.1759275310370545,5e-324,-5e-324,0.0
1668678551.4327314,60565,1668678551,432477538,,-4.580698013915191e-07,-1.3572767506347523e-238,2.1864021504110926,5e-324,-5e-324,0.0
1668678551.441227,60566,1668678551,440924004,,-2.4235456655386176e-07,-7.181050084385883e-239,2.1919561245190735,5e-324,-5e-324,0.0
1668678551.4490376,60567,1668678551,448759894,,-1.2822442289599417e-07,-3.7993342397077188e-239,2.1851693822022495,5e-324,-5e-324,0.0
1668678551.4568548,60568,1668678551,456579641,,-6.784069663220782e-08,-2.0101434324211223e-239,2.17776259002266,5e-324,-5e-324,0.0
1668678551.4649537,60569,1668678551,464696272,,-3.5893007085524845e-08,-1.0635222815291498e-239,2.173817613354594,5e-324,-5e-324,0.0
1668678551.4729478,60570,1668678551,472656145,,-3.5893007085524845e-08,-1.0635222815291498e-239,2.173817613354594,5e-324,-5e-324,0.0
1668678551.4804952,60571,1668678551,480285017,,-1.899019352094778e-08,-5.626860377553439e-240,2.1765068712006514,5e-324,-5e-324,0.0
1668678551.4892385,60572,1668678551,489023232,,-1.00472899666432e-08,-2.977046955984535e-240,2.177912456131099,5e-324,-5e-324,0.0
1668678551.496711,60573,1668678551,496482107,,-5.315798154581991e-09,-1.575089478582431e-240,2.15915910429823,5e-324,-5e-324,0.0
1668678551.5048957,60574,1668678551,504577187,,-2.812470836819912e-09,-8.333448891539626e-241,2.135036278621836,5e-324,-5e-324,0.0
1668678551.5123491,60575,1668678551,512136504,,-2.812470836819912e-09,-8.333448891539626e-241,2.135036278621836,5e-324,-5e-324,0.0
1668678551.5208359,60576,1668678551,520551067,,-1.4880159061616026e-09,-4.4090428748469736e-241,2.12228917006139,5e-324,-5e-324,0.0
1668678551.52858,60577,1668678551,528351820,,-7.872761942995088e-10,-2.3327267407825115e-241,2.130328798850573,5e-324,-5e-324,0.0
1668678551.5369642,60578,1668678551,536622156,,-4.165303633813479e-10,-1.2341939513007488e-241,2.139504683338938,5e-324,-5e-324,0.0
1668678551.544683,60579,1668678551,544473764,,-2.203769717347669e-10,-6.529846307314962e-242,2.1443983306588192,5e-324,-5e-324,0.0
1668678551.5524,60580,1668678551,552115069,,-2.203769717347669e-10,-6.529846307314962e-242,2.1443983306588192,5e-324,-5e-324,0.0
1668678551.5606422,60581,1668678551,560412167,,-1.1659656519811112e-10,-3.454796772599365e-242,2.1422907770559867,5e-324,-5e-324,0.0
1668678551.5691278,60582,1668678551,568764555,,-6.168865516656273e-11,-1.8278563044573176e-242,2.141178663995806,5e-324,-5e-324,0.0
1668678551.5766103,60583,1668678551,576406676,,-3.263809847050912e-11,-9.670782073906399e-243,2.1351529924765993,5e-324,-5e-324,0.0
1668678551.5849276,60584,1668678551,584687251,,-1.726809360480349e-11,-5.116596183897301e-243,2.1466642467269113,5e-324,-5e-324,0.0
1668678551.5923207,60585,1668678551,592109827,,-1.726809360480349e-11,-5.116596183897301e-243,2.1466642467269113,5e-324,-5e-324,0.0
1668678551.6009395,60586,1668678551,600587330,,-9.136165117391527e-12,-2.7070774947674426e-243,2.152765816530329,5e-324,-5e-324,0.0
1668678551.6090634,60587,1668678551,608813957,,-4.833742216281646e-12,-1.4322546277424701e-243,2.1513651393616993,5e-324,-5e-324,0.0
1668678551.617759,60588,1668678551,617515356,,-2.5574257375215187e-12,-7.577741393273073e-244,2.112227703889327,5e-324,-5e-324,0.0
1668678551.624522,60589,1668678551,624268588,,-1.3530772040153816e-12,-4.0092148079726124e-244,2.0915312028368227,5e-324,-5e-324,0.0
1668678551.633159,60590,1668678551,632743473,,-1.3530772040153816e-12,-4.0092148079726124e-244,2.0915312028368227,5e-324,-5e-324,0.0
1668678551.6406708,60591,1668678551,640373702,,-7.158831215174934e-13,-2.121186583476699e-244,2.1087744309877645,5e-324,-5e-324,0.0
1668678551.6486886,60592,1668678551,648384764,,-3.7875787290834026e-13,-1.1222727485127776e-244,2.117883193740601,5e-324,-5e-324,0.0
1668678551.6566627,60593,1668678551,656434893,,-2.0039238526249412e-13,-5.937696060617477e-245,2.1274736613655953,5e-324,-5e-324,0.0
1668678551.6659462,60594,1668678551,665352989,,-0.016477491478438362,-3.1415032179114607e-245,2.118758224007054,5e-324,-5e-324,0.0
1668678551.6722124,60595,1668678551,672007037,,-0.016477491478438362,-3.1415032179114607e-245,2.118758224007054,5e-324,-5e-324,0.0
1668678551.6806786,60596,1668678551,680456824,,-0.02514432501586611,-1.6620996371986334e-245,2.1141624439189037,5e-324,-5e-324,0.0
1668678551.6886084,60597,1668678551,688346260,,-0.01330330436976603,-8.79380033171651e-246,2.0972624106957385,5e-324,-5e-324,0.0
1668678551.6970623,60598,1668678551,696758338,,-0.0070384831186743975,-4.652604605848655e-246,2.116819364480331,5e-324,-5e-324,0.0
1668678551.7045822,60599,1668678551,704412758,,-0.0037239052219577044,-2.461589847598777e-246,2.127164708326162,5e-324,-5e-324,0.0
1668678551.7121553,60600,1668678551,711985957,,-0.0037239052219577044,-2.461589847598777e-246,2.127164708326162,5e-324,-5e-324,0.0
1668678551.7204576,60601,1668678551,720258269,,-0.0019702356130301565,-1.3023725614216696e-246,2.1182296332440136,5e-324,-5e-324,0.0
1668678551.728998,60602,1668678551,728734717,,-0.001042407939913033,-6.890564203450134e-247,2.1135130228132097,5e-324,-5e-324,0.0
1668678551.736522,60603,1668678551,736307500,,-0.01514016994838919,-3.64564460648951e-247,2.1256849898182595,5e-324,-5e-324,0.0
1668678551.7448795,60604,1668678551,744654396,,-0.008010327933094785,-1.9288296581245606e-247,2.1356635590843993,5e-324,-5e-324,0.0
1668678551.752702,60605,1668678551,752458826,,-0.008010327933094785,-1.9288296581245606e-247,2.1356635590843993,5e-324,-5e-324,0.0
1668678551.7613516,60606,1668678551,760866783,,-0.004238086746347607,-1.0205009680423477e-247,2.140966141542883,5e-324,-5e-324,0.0
1668678551.7691634,60607,1668678551,768898074,,-0.0022422776470061296,-5.399244155069475e-248,2.144830815171847,5e-324,-5e-324,0.0
1668678551.7770731,60608,1668678551,776851840,,-0.002945571909516822,-2.8566202638665385e-248,2.1425303206908097,5e-324,-5e-324,0.0
1668678551.7845526,60609,1668678551,784298904,,-0.003356352863218021,-1.511374388259708e-248,2.141298405146244,5e-324,-5e-324,0.0
1668678551.7925553,60610,1668678551,792303312,,-0.003356352863218021,-1.511374388259708e-248,2.141298405146244,5e-324,-5e-324,0.0
1668678551.8006203,60611,1668678551,800419899,,-0.0036081209966406323,-7.996346488124355e-249,2.135940982933479,5e-324,-5e-324,0.0
1668678551.8084457,60612,1668678551,808227892,,-0.0037412991151521266,-4.230689474086236e-249,2.1331061242808382,5e-324,-5e-324,0.0
1668678551.8166187,60613,1668678551,816375978,,-0.0019794383359187048,-2.2383639144109237e-249,2.136156497226193,5e-324,-5e-324,0.0
1668678551.8251746,60614,1668678551,824867045,,-0.0010472768963690016,-1.1842686739421202e-249,2.1418896080279524,5e-324,-5e-324,0.0
1668678551.8322706,60615,1668678551,832058610,,-0.0010472768963690016,-1.1842686739421202e-249,2.1418896080279524,5e-324,-5e-324,0.0
1668678551.8405073,60616,1668678551,840312045,,-0.0005540909649803475,-6.265702744094343e-250,2.1449376220006338,5e-324,-5e-324,0.0
1668678551.8485816,60617,1668678551,848371926,,-0.012844830240050606,-3.3150442751025695e-250,2.146710131758428,5e-324,-5e-324,0.0
1668678551.8570569,60618,1668678551,856706012,,-0.006795914630977103,-1.753916359381771e-250,2.162017530721345,5e-324,-5e-324,0.0
1668678551.8648787,60619,1668678551,864624224,,-0.003595567618132001,-9.27958223306633e-251,2.1700921930606127,5e-324,-5e-324,0.0
1668678551.8722322,60620,1668678551,872021486,,-0.003595567618132001,-9.27958223306633e-251,2.1700921930606127,5e-324,-5e-324,0.0
1668678551.8803487,60621,1668678551,880175885,,-0.006446151871591165,-4.9096210295109506e-251,2.146186876503931,5e-324,-5e-324,0.0
1668678551.88895,60622,1668678551,888566052,,-0.007865844335667773,-2.597571533718836e-251,2.1335675396041855,5e-324,-5e-324,0.0
1668678551.8967326,60623,1668678551,896521118,,-0.03199144280746367,-1.3743174538786215e-251,2.1323315082401235,5e-324,-5e-324,0.0
1668678551.9047937,60624,1668678551,904432238,,-0.021401678463726245,-7.271208663621955e-252,2.126231423567773,5e-324,-5e-324,0.0
1668678551.913153,60625,1668678551,912799428,,-0.021401678463726245,-7.271208663621955e-252,2.126231423567773,5e-324,-5e-324,0.0
1668678551.9215126,60626,1668678551,921183360,,-0.01590621342830097,-3.8470351432064727e-252,2.1229684206926462,5e-324,-5e-324,0.0
1668678551.9293988,60627,1668678551,929172591,,-0.011913980983451995,-2.0353809218966338e-252,2.1401867954962808,5e-324,-5e-324,0.0
1668678551.9374416,60628,1668678551,937169378,,-0.006303422946468259,-1.0768748771470336e-252,2.130491586466204,5e-324,-5e-324,0.0
1668678551.9453166,60629,1668678551,945042521,,-0.003335001197101977,-5.697505997795393e-253,2.125328216627095,5e-324,-5e-324,0.0
1668678551.9532073,60630,1668678551,952819785,,-0.003335001197101977,-5.697505997795393e-253,2.125328216627095,5e-324,-5e-324,0.0
1668678551.961605,60631,1668678551,961228501,,-0.0017644751239329875,-3.014423985905863e-253,2.127315442724954,5e-324,-5e-324,0.0
1668678551.9685204,60632,1668678551,968326120,,-0.0009335446313134057,-1.5948648356527647e-253,2.1283529451989667,5e-324,-5e-324,0.0
1668678551.9766076,60633,1668678551,976306992,,-0.0004939177474554076,-8.438075917304466e-254,2.114078483590851,5e-324,-5e-324,0.0
1668678551.9851751,60634,1668678551,984886695,,-0.0002613209192882439,-4.4643987123242066e-254,2.130836546650658,5e-324,-5e-324,0.0
1668678551.992396,60635,1668678551,992155002,,-0.0002613209192882439,-4.4643987123242066e-254,2.130836546650658,5e-324,-5e-324,0.0
1668678552.000648,60636,1668678552,433439,,-0.00013825909923153383,-2.362014285949791e-254,2.139707918758322,5e-324,-5e-324,0.0
1668678552.0087535,60637,1668678552,8540939,,-7.314982119449125e-05,-1.2496893415073952e-254,2.1445424592770017,5e-324,-5e-324,0.0
1668678552.0171213,60638,1668678552,16826914,,-3.870194707275816e-05,-6.61182897820282e-255,2.1658014721999566,5e-324,-5e-324,0.0
1668678552.0247362,60639,1668678552,24500440,,-2.0476341332948785e-05,-3.498171984428648e-255,2.1770247501687736,5e-324,-5e-324,0.0
1668678552.0322275,60640,1668678552,31986369,,-2.0476341332948785e-05,-3.498171984428648e-255,2.1770247501687736,5e-324,-5e-324,0.0
1668678552.0406952,60641,1668678552,40483630,,-1.0833577793778581e-05,-1.8508051664651033e-255,2.1642683648637093,5e-324,-5e-324,0.0
1668678552.0488029,60642,1668678552,48465588,,-5.731805594830379e-06,-9.792199410039578e-256,2.1575370581897535,5e-324,-5e-324,0.0
1668678552.0564566,60643,1668678552,56254190,,-3.0325711415296e-06,-5.180835401984351e-256,2.138925814890696,5e-324,-5e-324,0.0
1668678552.0649104,60644,1668678552,64666985,,-0.0037695451453773786,-2.7410650394777717e-256,2.1156558900394336,5e-324,-5e-324,0.0
1668678552.0726395,60645,1668678552,72434143,,-0.0037695451453773786,-2.7410650394777717e-256,2.1156558900394336,5e-324,-5e-324,0.0
1668678552.0813172,60646,1668678552,81036234,,-0.005798904887603537,-1.4502366834062127e-256,2.1033349781123043,5e-324,-5e-324,0.0
1668678552.0885687,60647,1668678552,88337439,,-0.0030680718882863376,-7.672880459260285e-257,2.0821851470206325,5e-324,-5e-324,0.0
1668678552.0965555,60648,1668678552,96321892,,-0.0016232487502623877,-4.0595507764857666e-257,2.045226683850701,5e-324,-5e-324,0.0
1668678552.1051373,60649,1668678552,104864449,,-0.0008588248910621645,-2.1478182273746725e-257,2.0256620670364303,5e-324,-5e-324,0.0
1668678552.113022,60650,1668678552,112724626,,-0.0008588248910621645,-2.1478182273746725e-257,2.0256620670364303,5e-324,-5e-324,0.0
1668678552.1214256,60651,1668678552,121125145,,-0.00045438519104894654,-1.1363629602968842e-257,1.9438168666026137,5e-324,-5e-324,0.0
1668678552.1289477,60652,1668678552,128695278,,-0.00024040512098949282,-6.01224424430511e-258,1.9005225487306632,5e-324,-5e-324,0.0
1668678552.136846,60653,1668678552,136583536,,-0.0001271930145094606,-3.180945007547254e-258,1.8049569360607856,5e-324,-5e-324,0.0
1668678552.145161,60654,1668678552,144713811,,-6.729500134363168e-05,-1.6829674128132959e-258,1.7698141772164186,5e-324,-5e-324,0.0
1668678552.1525805,60655,1668678552,152310059,,-6.729500134363168e-05,-1.6829674128132959e-258,1.7698141772164186,5e-324,-5e-324,0.0
1668678552.1605093,60656,1668678552,160224145,,-3.5604291818262954e-05,-8.904207101572795e-259,1.7512241002940434,5e-324,-5e-324,0.0
1668678552.168815,60657,1668678552,168523024,,-1.8837440680131424e-05,-4.7110183776621384e-259,1.711863714160458,5e-324,-5e-324,0.0
1668678552.1769629,60658,1668678552,176607510,,-9.96647182841741e-06,-2.4924952779625063e-259,1.739362163634296,5e-324,-5e-324,0.0
1668678552.184629,60659,1668678552,184395127,,-5.273039071141212e-06,-1.3187239387820827e-259,1.7539102209688098,5e-324,-5e-324,0.0
1668678552.1922536,60660,1668678552,192024817,,-5.273039071141212e-06,-1.3187239387820827e-259,1.7539102209688098,5e-324,-5e-324,0.0
1668678552.200466,60661,1668678552,200241930,,-2.7898479546695275e-06,-6.977075712410194e-260,1.8329238895197615,5e-324,-5e-324,0.0
1668678552.2090588,60662,1668678552,208753020,,-1.4760466412567779e-06,-3.6914159260400336e-260,1.8747346473178395,5e-324,-5e-324,0.0
1668678552.2167642,60663,1668678552,216434099,,-7.809435218570882e-07,-1.9530462475538734e-260,1.9455472829987936,5e-324,-5e-324,0.0
1668678552.2242727,60664,1668678552,224097095,,-7.809435218570882e-07,-1.9530462475538734e-260,1.9455472829987936,5e-324,-5e-324,0.0
1668678552.2333696,60665,1668678552,232991753,,-4.1317988692503447e-07,-1.0333134281013282e-260,1.993185141989248,5e-324,-5e-324,0.0
1668678552.24095,60666,1668678552,240653009,,-2.1860430899460795e-07,-5.467032037934708e-261,2.018364900752578,5e-324,-5e-324,0.0
1668678552.2485042,60667,1668678552,248290693,,-1.1565868868074995e-07,-2.892485328359986e-261,2.0889346930862196,5e-324,-5e-324,0.0
1668678552.2565985,60668,1668678552,256355563,,-6.11924455143315e-08,-1.530349797975282e-261,2.1262754405357054,5e-324,-5e-324,0.0
1668678552.2646036,60669,1668678552,264379071,,-3.2375564955265327e-08,-8.096741169957338e-262,2.146040410224302,5e-324,-5e-324,0.0
1668678552.2724888,60670,1668678552,272164313,,-3.2375564955265327e-08,-8.096741169957338e-262,2.146040410224302,5e-324,-5e-324,0.0
1668678552.2806044,60671,1668678552,280416117,,-1.7129192947961478e-08,-4.2838060723121675e-262,2.156511247770116,5e-324,-5e-324,0.0
1668678552.2884948,60672,1668678552,288235811,,-9.062675862302608e-09,-2.2664667277829374e-262,2.1620450445869954,5e-324,-5e-324,0.0
1668678552.29651,60673,1668678552,296237925,,-4.794860682267972e-09,-1.1991372488471423e-262,2.1408723445572835,5e-324,-5e-324,0.0
1668678552.3051608,60674,1668678552,304759227,,-2.5368543807234766e-09,-6.34436907432248e-263,2.140087170974007,5e-324,-5e-324,0.0
1668678552.3122048,60675,1668678552,311994160,,-2.5368543807234766e-09,-6.34436907432248e-263,2.140087170974007,5e-324,-5e-324,0.0
1668678552.3204503,60676,1668678552,320237724,,-1.34219335564758e-09,-3.3566648846841385e-263,2.139648043672744,5e-324,-5e-324,0.0
1668678552.3288558,60677,1668678552,328618316,,-7.101247188775385e-10,-1.7759369002779545e-263,2.1529428646600963,5e-324,-5e-324,0.0
1668678552.337054,60678,1668678552,336676941,,-3.7571122986046977e-10,-9.396088028208559e-264,2.160076272870829,5e-324,-5e-324,0.0
1668678552.3442006,60679,1668678552,344036224,,-3.7571122986046977e-10,-9.396088028208559e-264,2.160076272870829,5e-324,-5e-324,0.0
1668678552.3528461,60680,1668678552,352534405,,-1.9878047403615267e-10,-4.971261660255291e-264,2.1638495513650664,5e-324,-5e-324,0.0
1668678552.3607488,60681,1668678552,360521859,,-1.0517033752946911e-10,-2.6301842235332922e-264,2.1470677434721854,5e-324,-5e-324,0.0
1668678552.3690104,60682,1668678552,368665456,,-5.564329167486947e-11,-1.3915721043273696e-264,2.1382073863851963,5e-324,-5e-324,0.0
1668678552.3766484,60683,1668678552,376396612,,-2.943963080414226e-11,-7.36249919004045e-265,2.1522674827629125,5e-324,-5e-324,0.0
1668678552.3849945,60684,1668678552,384744847,,-1.557585534206689e-11,-3.895334934839578e-265,2.169740359710942,5e-324,-5e-324,0.0
1668678552.392065,60685,1668678552,391910311,,-1.557585534206689e-11,-3.895334934839578e-265,2.169740359710942,5e-324,-5e-324,0.0
1668678552.4010074,60686,1668678552,400553174,,-8.240839406276047e-12,-2.0609352697936653e-265,2.178966466751956,5e-324,-5e-324,0.0
1668678552.4086525,60687,1668678552,408351040,,-0.027534206643229905,-1.0903951155241062e-265,2.14121245604444,5e-324,-5e-324,0.0
1668678552.4165487,60688,1668678552,416313835,,-0.020817457715964056,-5.769038578673382e-266,2.1307457952333055,5e-324,-5e-324,0.0
1668678552.4244828,60689,1668678552,424255813,,-0.01730907204724144,-3.0522702870165235e-266,2.125193316673834,5e-324,-5e-324,0.0
1668678552.4325132,60690,1668678552,432228476,,-0.01730907204724144,-3.0522702870165235e-266,2.125193316673834,5e-324,-5e-324,0.0
1668678552.440547,60691,1668678552,440319833,,-0.03198576686721964,-1.6148884736954337e-266,2.1268322005912736,5e-324,-5e-324,0.0
1668678552.4486215,60692,1668678552,448383850,,-0.03965113804092903,-8.544016542596084e-267,2.127733064801399,5e-324,-5e-324,0.0
1668678552.4567986,60693,1668678552,456575635,,-0.020978537210016156,-4.52044954616001e-267,2.118544848958224,5e-324,-5e-324,0.0
1668678552.4650242,60694,1668678552,464720405,,-0.011099278487738479,-2.3916695382672167e-267,2.1191289278368,5e-324,-5e-324,0.0
1668678552.472363,60695,1668678552,472142479,,-0.011099278487738479,-2.3916695382672167e-267,2.1191289278368,5e-324,-5e-324,0.0
1668678552.4805279,60696,1668678552,480324291,,-0.005872381935645898,-1.2653792774071256e-267,2.1194333513769843,5e-324,-5e-324,0.0
1668678552.4885578,60697,1668678552,488311658,,-0.0031069469638225727,-6.694840947179726e-268,2.1145743831481587,5e-324,-5e-324,0.0
1668678552.4975047,60698,1668678552,497146760,,-0.0016438166900233414,-3.5420917750349387e-268,2.126238944846263,5e-324,-5e-324,0.0
1668678552.5045156,60699,1668678552,504255669,,-0.0008697069315514727,-1.8740421530186577e-268,2.132430030029047,5e-324,-5e-324,0.0
1668678552.515167,60700,1668678552,514704137,,-0.0008697069315514727,-1.8740421530186577e-268,2.132430030029047,5e-324,-5e-324,0.0
1668678552.5207238,60701,1668678552,520504413,,-0.0034528417286555087,-9.915141149204592e-269,2.1630141452706457,5e-324,-5e-324,0.0
1668678552.5298414,60702,1668678552,529585359,,-0.004750724779136198,-5.2458811478864004e-269,2.179217260115912,5e-324,-5e-324,0.0
1668678552.5370607,60703,1668678552,536875065,,-0.09960686105456236,-2.7754793001567683e-269,2.2963226116986846,5e-324,-5e-324,0.0
1668678552.544525,60704,1668678552,544331515,,-0.22241833021202276,-1.4684445050194109e-269,2.4031232086235503,5e-324,-5e-324,0.0
1668678552.5522163,60705,1668678552,552023834,,-0.22241833021202276,-1.4684445050194109e-269,2.4031232086235503,5e-324,-5e-324,0.0
1668678552.5610187,60706,1668678552,560712930,,-0.28749150880375507,-7.769214002784694e-270,2.4595877767785734,5e-324,-5e-324,0.0
1668678552.5689163,60707,1668678552,568699959,,-0.6881704746340404,-4.110518716556324e-270,2.725965986959652,5e-324,-5e-324,0.0
1668678552.576899,60708,1668678552,576628140,,-1.2525893584414953,-2.1747842333991243e-270,3.058916391623206,5e-324,-5e-324,0.0
1668678552.5849068,60709,1668678552,584640049,,-1.5512083545018052,-1.1506300756620356e-270,3.2351019967034738,5e-324,-5e-324,0.0
1668678552.5926826,60710,1668678552,592442123,,-1.5512083545018052,-1.1506300756620356e-270,3.2351019967034738,5e-324,-5e-324,0.0
1668678552.6008344,60711,1668678552,600578422,,-1.70794507617941,-6.087728385582083e-271,3.346735232628278,5e-324,-5e-324,0.0
1668678552.6086912,60712,1668678552,608503665,,-1.7909123102698663,-3.220881991573047e-271,3.405765295663942,5e-324,-5e-324,0.0
1668678552.6166077,60713,1668678552,616406455,,-1.620437281796923,-1.704097184790486e-271,3.2147863990716843,5e-324,-5e-324,0.0
1668678552.6249175,60714,1668678552,624615523,,-1.4487656009919183,-9.016000036041682e-272,3.0269853970646916,5e-324,-5e-324,0.0
1668678552.6322343,60715,1668678552,632009934,,-1.4487656009919183,-9.016000036041682e-272,3.0269853970646916,5e-324,-5e-324,0.0
1668678552.6403847,60716,1668678552,640178210,,-1.3580418021271385,-4.770165538410756e-272,2.9275630465174,5e-324,-5e-324,0.0
1668678552.6486619,60717,1668678552,648480791,,-1.1084527887207565,-2.5237887281366444e-272,2.7862972947263103,5e-324,-5e-324,0.0
1668678552.657109,60718,1668678552,656808026,,-0.7039490788898992,-1.3352806088133511e-272,2.5098174949859247,5e-324,-5e-324,0.0
1668678552.6649714,60719,1668678552,664714839,,-0.4898939987966565,-7.064673379333751e-273,2.3635538492850663,5e-324,-5e-324,0.0
1668678552.6722834,60720,1668678552,671998012,,-0.4898939987966565,-7.064673379333751e-273,2.3635538492850663,5e-324,-5e-324,0.0
1668678552.6806486,60721,1668678552,680389910,,-0.25919204316685157,-3.737761907665316e-273,2.1292581625871914,5e-324,-5e-324,0.0
1668678552.6890345,60722,1668678552,688791209,,-0.13713275811915407,-1.9775668779341944e-273,2.0053038915473214,5e-324,-5e-324,0.0
1668678552.6963658,60723,1668678552,696156314,,-0.07255389910739152,-1.0462867494802916e-273,1.906941097524891,5e-324,-5e-324,0.0
1668678552.7041485,60724,1668678552,703943328,,-0.07255389910739152,-1.0462867494802916e-273,1.906941097524891,5e-324,-5e-324,0.0
1668678552.7124975,60725,1668678552,712275486,,-0.0383866579210171,-5.535671002346057e-274,1.8583962512049483,5e-324,-5e-324,0.0
1668678552.721109,60726,1668678552,720690015,,-0.020309528839575028,-2.9288006812125094e-274,1.832704705129391,5e-324,-5e-324,0.0
1668678552.7286384,60727,1668678552,728354923,,-0.010745321005392718,-1.5495634452689647e-274,1.7021140364606162,5e-324,-5e-324,0.0
1668678552.7365112,60728,1668678552,736335829,,-0.0056851108866664375,-8.198396313947047e-275,1.703253258762567,5e-324,-5e-324,0.0
1668678552.7442975,60729,1668678552,744091308,,-0.0056851108866664375,-8.198396313947047e-275,1.703253258762567,5e-324,-5e-324,0.0
1668678552.7531695,60730,1668678552,752745078,,-0.00300786600767652,-4.337589553093384e-275,1.7038488165330903,5e-324,-5e-324,0.0
1668678552.761355,60731,1668678552,761112645,,-0.0015913951549045163,-2.294922373915673e-275,1.8637844312821823,5e-324,-5e-324,0.0
1668678552.769301,60732,1668678552,769007166,,-0.0008419718606447746,-1.2141924997358925e-275,1.948409911081288,5e-324,-5e-324,0.0
1668678552.7776427,60733,1668678552,777376066,,-0.09606300616931628,-6.424023065753888e-276,2.098567260193696,5e-324,-5e-324,0.0
1668678552.7859514,60734,1668678552,785451375,,-0.16382840359969308,-3.3988080438904447e-276,2.206560345911683,5e-324,-5e-324,0.0
1668678552.7930562,60735,1668678552,792713051,,-0.16382840359969308,-3.3988080438904447e-276,2.206560345911683,5e-324,-5e-324,0.0
1668678552.8016608,60736,1668678552,801375540,,-0.19968227292431406,-1.7982339105843053e-276,2.263698094141694,5e-324,-5e-324,0.0
1668678552.8092864,60737,1668678552,809020965,,-0.22457278025179445,-9.514056561646629e-277,2.289619161952602,5e-324,-5e-324,0.0
1668678552.8174725,60738,1668678552,817141179,,-0.18893928639438956,-5.033676193371264e-277,2.317729255107148,5e-324,-5e-324,0.0
1668678552.8254066,60739,1668678552,825002754,,-0.17011935669722156,-2.6632063679183457e-277,2.332589123478585,5e-324,-5e-324,0.0
1668678552.8323143,60740,1668678552,832053879,,-0.17011935669722156,-2.6632063679183457e-277,2.332589123478585,5e-324,-5e-324,0.0
1668678552.8406465,60741,1668678552,840345624,,-0.09419070146145063,-1.4090433881029144e-277,2.2839477200949636,5e-324,-5e-324,0.0
1668678552.8488328,60742,1668678552,848470897,,-0.05405077121647518,-7.454935875316339e-278,2.2582009892929995,5e-324,-5e-324,0.0
1668678552.8567836,60743,1668678552,856470463,,-0.0728472685929161,-3.9442411336888795e-278,2.238958506490439,5e-324,-5e-324,0.0
1668678552.864565,60744,1668678552,864354290,,-0.12725330861951656,-2.08681045429156e-278,2.2388580927641204,5e-324,-5e-324,0.0
1668678552.8721788,60745,1668678552,871954286,,-0.12725330861951656,-2.08681045429156e-278,2.2388580927641204,5e-324,-5e-324,0.0
1668678552.8812933,60746,1668678552,880975729,,-0.15606256896681991,-1.1040851014267757e-278,2.2387960388308814,5e-324,-5e-324,0.0
1668678552.8885822,60747,1668678552,888361794,,-0.08256924194159737,-5.841469256039387e-279,2.1635380672484086,5e-324,-5e-324,0.0
1668678552.8964553,60748,1668678552,896252007,,-0.11392543161297324,-3.0905917510486773e-279,2.1893515033245143,5e-324,-5e-324,0.0
1668678552.904532,60749,1668678552,904305835,,-0.13054329887340962,-1.6351635098951765e-279,2.202999062544926,5e-324,-5e-324,0.0
1668678552.9125664,60750,1668678552,912295524,,-0.13054329887340962,-1.6351635098951765e-279,2.202999062544926,5e-324,-5e-324,0.0
1668678552.9205432,60751,1668678552,920288142,,-0.2572315757209617,-8.651287259747173e-280,2.3392985181280603,5e-324,-5e-324,0.0
1668678552.9286435,60752,1668678552,928394394,,-0.32427765846971424,-4.577204102081616e-280,2.4114067297998236,5e-324,-5e-324,0.0
1668678552.9367313,60753,1668678552,936474839,,-0.5859026854706241,-2.421697114323429e-280,2.6924993635290932,5e-324,-5e-324,0.0
1668678552.9448957,60754,1668678552,944604675,,-0.748002872646981,-1.2812662015345392e-280,2.8837850777431773,5e-324,-5e-324,0.0
1668678552.9524386,60755,1668678552,952259259,,-0.748002872646981,-1.2812662015345392e-280,2.8837850777431773,5e-324,-5e-324,0.0
1668678552.9649255,60756,1668678552,964656517,,-0.8338964215577286,-6.778895137154205e-281,2.9849219402171743,5e-324,-5e-324,0.0
1668678552.9692729,60757,1668678552,968901675,,-0.9041340049835067,-3.586562981642356e-281,3.0097867514609327,5e-324,-5e-324,0.0
1668678552.9775362,60758,1668678552,977095107,,-0.9028588183188233,-1.8975708815415314e-281,2.9997020745741163,5e-324,-5e-324,0.0
1668678552.9844043,60759,1668678552,984258795,,-0.9022767986402552,-1.0039626430386679e-281,2.9943144601497047,5e-324,-5e-324,0.0
1668678552.992149,60760,1668678552,991952924,,-0.9022767986402552,-1.0039626430386679e-281,2.9943144601497047,5e-324,-5e-324,0.0
1668678553.000634,60761,1668678553,399454,,-0.7055013770749721,-5.3117435476158115e-282,2.868289420967428,5e-324,-5e-324,0.0
1668678553.0091882,60762,1668678553,8786315,,-0.601305966713497,-2.8103256342528584e-282,2.801641054907342,5e-324,-5e-324,0.0
1668678553.0165875,60763,1668678553,16344188,,-0.44460068108441453,-1.4868809270891355e-282,2.7056587331114716,5e-324,-5e-324,0.0
1668678553.0247025,60764,1668678553,24517833,,-0.3485265315857705,-7.866757020594182e-283,2.654135559754512,5e-324,-5e-324,0.0
1668678553.032211,60765,1668678553,31962946,,-0.3485265315857705,-7.866757020594182e-283,2.654135559754512,5e-324,-5e-324,0.0
1668678553.0409312,60766,1668678553,40591700,,-0.2976239319511578,-4.162126562630789e-283,2.6269023193767067,5e-324,-5e-324,0.0
1668678553.0487385,60767,1668678553,48541222,,-0.1574662176047442,-2.202088799489621e-283,2.437355852818305,5e-324,-5e-324,0.0
1668678553.056604,60768,1668678553,56296493,,-0.08331188128652833,-1.165076315644897e-283,2.1775959483349725,5e-324,-5e-324,0.0
1668678553.0646322,60769,1668678553,64421592,,-0.04407846755373816,-6.164160235460503e-284,2.0401615654689254,5e-324,-5e-324,0.0
1668678553.072631,60770,1668678553,72373775,,-0.04407846755373816,-6.164160235460503e-284,2.0401615654689254,5e-324,-5e-324,0.0
1668678553.0808413,60771,1668678553,80570734,,-0.023320939005132272,-3.26132038718857e-284,1.9574698388286114,5e-324,-5e-324,0.0
1668678553.0886662,60772,1668678553,88387732,,-0.012338591295580922,-1.7254922425126107e-284,1.913692970034434,5e-324,-5e-324,0.0
1668678553.0972254,60773,1668678553,96927936,,-0.006528074839777311,-9.129196538515517e-285,1.937876522652847,5e-324,-5e-324,0.0
1668678553.1047783,60774,1668678553,104375319,,-0.006528074839777311,-9.129196538515517e-285,1.937876522652847,5e-324,-5e-324,0.0
1668678553.112874,60775,1668678553,112495280,,-0.003453859528437127,-4.830055295843186e-285,1.9758334802738473,5e-324,-5e-324,0.0
1668678553.1206431,60776,1668678553,120368496,,-0.0018273604293701491,-2.5554750697366806e-285,1.9959276281340572,5e-324,-5e-324,0.0
1668678553.1283925,60777,1668678553,128196844,,-0.0009668158508863463,-1.352045148979121e-285,2.1010291125113207,5e-324,-5e-324,0.0
1668678553.1369662,60778,1668678553,136647178,,-0.0005115208113854537,-7.15337084100897e-286,2.1753601225831813,5e-324,-5e-324,0.0
1668678553.144618,60779,1668678553,144413464,,-0.0002706343097711495,-3.7846897662873523e-286,2.2147090503895868,5e-324,-5e-324,0.0
1668678553.1522565,60780,1668678553,152065031,,-0.0002706343097711495,-3.7846897662873523e-286,2.2147090503895868,5e-324,-5e-324,0.0
1668678553.1606312,60781,1668678553,160406553,,-0.00014318660745577113,-2.0023953665206398e-286,2.2691656099191198,5e-324,-5e-324,0.0
1668678553.1698294,60782,1668678553,168723977,,-7.575685644599196e-05,-1.0594229518042085e-286,2.297995160834928,5e-324,-5e-324,0.0
1668678553.1765792,60783,1668678553,176341610,,-4.008127156969888e-05,-5.605171733691053e-287,2.361040103068929,5e-324,-5e-324,0.0
1668678553.1846707,60784,1668678553,184460172,,-2.1206111314680177e-05,-2.9655719758255243e-287,2.3472994258544393,5e-324,-5e-324,0.0
1668678553.1922581,60785,1668678553,192037606,,-2.1206111314680177e-05,-2.9655719758255243e-287,2.3472994258544393,5e-324,-5e-324,0.0
1668678553.2008228,60786,1668678553,200517220,,-1.1219682896252612e-05,-1.5690183212299858e-287,2.34002154215291,5e-324,-5e-324,0.0
1668678553.208589,60787,1668678553,208355901,,-5.936085236208329e-06,-8.301327745282824e-288,2.2453535700372536,5e-324,-5e-324,0.0
1668678553.2166789,60788,1668678553,216425862,,-3.1406509664635643e-06,-4.392048289186377e-288,2.166849105551365,5e-324,-5e-324,0.0
1668678553.2244978,60789,1668678553,224261404,,-1.6616487298704872e-06,-2.323735282648785e-288,2.1253332973832415,5e-324,-5e-324,0.0
1668678553.2325573,60790,1668678553,232233865,,-1.6616487298704872e-06,-2.323735282648785e-288,2.1253332973832415,5e-324,-5e-324,0.0
1668678553.2408302,60791,1668678553,240603851,,-8.791414681107436e-07,-1.2294367703382256e-288,1.9476434008775407,5e-324,-5e-324,0.0
1668678553.2488794,60792,1668678553,248434648,,-4.6513424110531136e-07,-6.504677118543115e-289,1.853629646385364,5e-324,-5e-324,0.0
1668678553.2572436,60793,1668678553,256855922,,-2.460922048342745e-07,-3.441480313368079e-289,1.813452664675649,5e-324,-5e-324,0.0
1668678553.2685528,60794,1668678553,268343483,,-1.3020192436549255e-07,-1.8208108613933422e-289,1.7908815955755673,5e-324,-5e-324,0.0
1668678553.2723217,60795,1668678553,272073900,,-1.3020192436549255e-07,-1.8208108613933422e-289,1.7908815955755673,5e-324,-5e-324,0.0
1668678553.2812161,60796,1668678553,280830141,,-6.888694877553624e-08,-9.633506198160767e-290,1.7789440016569111,5e-324,-5e-324,0.0
1668678553.2890437,60797,1668678553,288821807,,-3.6446555876412466e-08,-5.0968743452565424e-290,1.7828033715087206,5e-324,-5e-324,0.0
1668678553.2969215,60798,1668678553,296611994,,-1.9283063901999858e-08,-2.69664310760438e-290,1.869544272306216,5e-324,-5e-324,0.0
1668678553.3046722,60799,1668678553,304413832,,-1.020224118595677e-08,-1.42673402505162e-290,1.9154025865207192,5e-324,-5e-324,0.0
1668678553.3126187,60800,1668678553,312409283,,-1.020224118595677e-08,-1.42673402505162e-290,1.9154025865207192,5e-324,-5e-324,0.0
1668678553.32062,60801,1668678553,320386509,,-5.397779406084828e-09,-7.548533109553153e-291,2.0003697522697204,5e-324,-5e-324,0.0
1668678553.3292427,60802,1668678553,328866960,,-2.8558452976840787e-09,-3.993761353238815e-291,2.0090269865469432,5e-324,-5e-324,0.0
1668678553.3369644,60803,1668678553,336727784,,-1.5109643708504105e-09,-2.1130105035159767e-291,2.01365925987304,5e-324,-5e-324,0.0
1668678553.3448536,60804,1668678553,344417029,,-7.994177177001728e-10,-1.1179469660469368e-291,2.010677262460928,5e-324,-5e-324,0.0
1668678553.3522766,60805,1668678553,352044232,,-7.994177177001728e-10,-1.1179469660469368e-291,2.010677262460928,5e-324,-5e-324,0.0
1668678553.3612905,60806,1668678553,360905047,,-4.2295417397120255e-10,-5.914809305556776e-292,2.0091746801740955,5e-324,-5e-324,0.0
1668678553.368962,60807,1668678553,368746318,,-2.2377566736237427e-10,-3.1293943437055846e-292,1.9620526137923804,5e-324,-5e-324,0.0
1668678553.3768125,60808,1668678553,376575518,,-1.1839473963173476e-10,-1.6556931005731987e-292,1.9464934883705318,5e-324,-5e-324,0.0
1668678553.384887,60809,1668678553,384643054,,-6.264002935478741e-11,-8.75990476815279e-293,1.938225755048114,5e-324,-5e-324,0.0
1668678553.3932743,60810,1668678553,392809231,,-6.264002935478741e-11,-8.75990476815279e-293,1.938225755048114,5e-324,-5e-324,0.0
1668678553.4016109,60811,1668678553,401385441,,-3.3141449440857524e-11,-4.6346712153683624e-293,1.9174344954515097,5e-324,-5e-324,0.0
1668678553.4086723,60812,1668678553,408488203,,-1.753440543298486e-11,-2.4521016886686542e-293,2.0630114901086145,5e-324,-5e-324,0.0
1668678553.417247,60813,1668678553,416850410,,-9.2770647957615e-12,-1.2973525870904243e-293,2.1400895141738583,5e-324,-5e-324,0.0
1668678553.4259162,60814,1668678553,425562829,,-4.90828910929926e-12,-6.864004633282779e-294,2.2579301473354008,5e-324,-5e-324,0.0
1668678553.4328806,60815,1668678553,432573083,,-4.90828910929926e-12,-6.864004633282779e-294,2.2579301473354008,5e-324,-5e-324,0.0
1668678553.4412563,60816,1668678553,440926560,,-2.596866844292447e-12,-3.6315925273168326e-294,2.3202941118770246,5e-324,-5e-324,0.0
1668678553.448642,60817,1668678553,448447588,,-1.3739446183413982e-12,-1.9213950148742755e-294,2.4534317832633055,5e-324,-5e-324,0.0
1668678553.4571412,60818,1668678553,456708527,,-7.26923607353317e-13,-1.0165674632862343e-294,2.4963992901874077,5e-324,-5e-324,0.0
1668678553.4647136,60819,1668678553,464523714,,-3.8459914895656877e-13,-5.378432854317723e-295,2.5191133011700932,5e-324,-5e-324,0.0
1668678553.4722686,60820,1668678553,472046421,,-3.8459914895656877e-13,-5.378432854317723e-295,2.5191133011700932,5e-324,-5e-324,0.0
1668678553.4806402,60821,1668678553,480408855,,-2.0348287479157767e-13,-0.06418478042202394,2.5366218698214356,5e-324,-5e-324,0.0
1668678553.4891424,60822,1668678553,488698773,,-1.0765827341474593e-13,-0.14100243252328395,2.4987637659083397,5e-324,-5e-324,0.0
1668678553.4966004,60823,1668678553,496356922,,-5.695960334016237e-14,-0.18164589908011486,2.4787333051269527,5e-324,-5e-324,0.0
1668678553.5046685,60824,1668678553,504453031,,-3.013606209501268e-14,-0.19904439859555628,2.458437881475417,5e-324,-5e-324,0.0
1668678553.512327,60825,1668678553,512107390,,-3.013606209501268e-14,-0.19904439859555628,2.458437881475417,5e-324,-5e-324,0.0
1668678553.520965,60826,1668678553,520680525,,-1.5944321683049683e-14,-0.2080416888826393,2.4477741559545043,5e-324,-5e-324,0.0
1668678553.5284803,60827,1668678553,528293517,,-8.435786770383656e-15,-0.2929966035294842,2.3623031089993383,5e-324,-5e-324,0.0
1668678553.5370245,60828,1668678553,536774002,,-4.463187575488542e-15,-0.37238366353928976,2.3170373707031677,5e-324,-5e-324,0.0
1668678553.5444412,60829,1668678553,544185531,,-4.463187575488542e-15,-0.37238366353928976,2.3170373707031677,5e-324,-5e-324,0.0
1668678553.5530329,60830,1668678553,552733760,,-2.3613735003272654e-15,-0.41427355869657023,2.2931165132439437,5e-324,-5e-324,0.0
1668678553.5604713,60831,1668678553,560230923,,-1.24935031605466e-15,-0.4396557584613793,2.3418949286883244,5e-324,-5e-324,0.0
1668678553.5686681,60832,1668678553,568437064,,-6.610035269768019e-16,-0.5493440345995031,2.4118737684877383,5e-324,-5e-324,0.0
1668678553.5765855,60833,1668678553,576391776,,-3.497222973101292e-16,-0.607744871403535,2.448737717517056,5e-324,-5e-324,0.0
1668678553.5849483,60834,1668678553,584674041,,-1.8503030656320045e-16,-0.640860369081051,2.4964392640931545,5e-324,-5e-324,0.0
1668678553.592268,60835,1668678553,592035740,,-1.8503030656320045e-16,-0.640860369081051,2.4964392640931545,5e-324,-5e-324,0.0
1668678553.6007524,60836,1668678553,600525151,,-9.789542905956526e-17,-0.6585505096622681,2.521626423746656,5e-324,-5e-324,0.0
1668678553.6085975,60837,1668678553,608390939,,-5.179429904626435e-17,-0.712285043855517,2.502618818080509,5e-324,-5e-324,0.0
1668678553.61704,60838,1668678553,616649600,,-2.7403214220161198e-17,-0.7656242831665154,2.464618176196594,5e-324,-5e-324,0.0
1668678553.6245878,60839,1668678553,624357523,,-1.4498432519094126e-17,-0.7936607452462415,2.4446134897501954,5e-324,-5e-324,0.0
1668678553.6321769,60840,1668678553,631934703,,-1.4498432519094126e-17,-0.7936607452462415,2.4446134897501954,5e-324,-5e-324,0.0
1668678553.6407373,60841,1668678553,640519356,,-7.67079890051998e-18,-0.7744291613233052,2.4001766693597597,5e-324,-5e-324,0.0
1668678553.6490796,60842,1668678553,648837046,,-4.0584494699496654e-18,-0.7300204998119773,2.480055383267139,5e-324,-5e-324,0.0
1668678553.656493,60843,1668678553,656283560,,-2.147235550526321e-18,-0.7069214271568338,2.5221775240799933,5e-324,-5e-324,0.0
1668678553.6644638,60844,1668678553,664271252,,-1.13605467890703e-18,-0.7601656034520214,2.6028368716454953,5e-324,-5e-324,0.0
1668678553.6722138,60845,1668678553,672017237,,-1.13605467890703e-18,-0.7601656034520214,2.6028368716454953,5e-324,-5e-324,0.0
1668678553.6822133,60846,1668678553,681811652,,-6.010613195884372e-19,-0.7883988361680997,2.6454678400456118,5e-324,-5e-324,0.0
1668678553.6890602,60847,1668678553,688752758,,-3.1800820560236315e-19,-0.8325973811253105,2.753105279781964,5e-324,-5e-324,0.0
1668678553.6972408,60848,1668678553,696780770,,-1.6825108443125365e-19,-0.8541301957913352,2.772236934498906,5e-324,-5e-324,0.0
1668678553.7043762,60849,1668678553,704188491,,-8.901791498955737e-20,-0.865544185357823,2.782331688428835,5e-324,-5e-324,0.0
1668678553.7130048,60850,1668678553,712715169,,-8.901791498955737e-20,-0.865544185357823,2.782331688428835,5e-324,-5e-324,0.0
1668678553.7204874,60851,1668678553,720277059,,-4.7097403359238594e-20,-0.8139062667563779,2.7775432450162914,5e-324,-5e-324,0.0
1668678553.7284713,60852,1668678553,728267513,,-2.491819094440743e-20,-0.7706905529773198,2.812651199572743,5e-324,-5e-324,0.0
1668678553.7365446,60853,1668678553,736287814,,-1.3183661850864013e-20,-0.7475019529238164,2.8313433428436525,5e-324,-5e-324,0.0
1668678553.7460077,60854,1668678553,745585114,,-6.975182916998087e-21,-0.7504533754952332,2.841365891789672,5e-324,-5e-324,0.0
1668678553.7531848,60855,1668678553,752857613,,-6.975182916998087e-21,-0.7504533754952332,2.841365891789672,5e-324,-5e-324,0.0
1668678553.7612047,60856,1668678553,760853596,,-3.6904144899918965e-21,-0.7517358107296361,2.8467782613139656,5e-324,-5e-324,0.0
1668678553.7699866,60857,1668678553,769616531,,-1.952516409964405e-21,-0.7737571999119626,2.8593401896196564,5e-324,-5e-324,0.0
1668678553.7771137,60858,1668678553,776805620,,-1.0330331027907542e-21,-0.7211679748651367,2.9365039394658474,5e-324,-5e-324,0.0
1668678553.7845192,60859,1668678553,784280769,,-5.465548898925504e-22,-0.693867392330344,2.97711948998925,5e-324,-5e-324,0.0
1668678553.7922025,60860,1668678553,792005898,,-5.465548898925504e-22,-0.693867392330344,2.97711948998925,5e-324,-5e-324,0.0
1668678553.8005266,60861,1668678553,800321542,,-2.8917006324236396e-22,-0.6183396942400107,3.0265140952562275,5e-324,-5e-324,0.0
1668678553.8103487,60862,1668678553,809368712,,-1.5299346327691234e-22,-0.6004344585328572,3.048566419169378,5e-324,-5e-324,0.0
1668678553.8167915,60863,1668678553,816497194,,-8.094544622983903e-23,-0.590852449226798,3.0602798210616253,5e-324,-5e-324,0.0
1668678553.8241007,60864,1668678553,823922212,,-8.094544622983903e-23,-0.590852449226798,3.0602798210616253,5e-324,-5e-324,0.0
1668678553.832869,60865,1668678553,832657033,,-4.2826439280537055e-23,-0.6207970512096632,3.1714185115393656,5e-324,-5e-324,0.0
1668678553.8414505,60866,1668678553,841021966,,-2.2658518630457794e-23,-0.636477240480873,3.2302797179495553,5e-324,-5e-324,0.0
1668678553.8491051,60867,1668678553,848797115,,-1.1988119375596258e-23,-0.5977226585940814,3.303529831468529,5e-324,-5e-324,0.0
1668678553.8566647,60868,1668678553,856440706,,-6.34264792449244e-24,-0.5859252879578349,3.3236064679058632,5e-324,-5e-324,0.0
1668678553.8651571,60869,1668678553,864936357,,-3.35575426250436e-24,-0.5797928547181481,3.3341912247306995,5e-324,-5e-324,0.0
1668678553.8725722,60870,1668678553,872274947,,-3.35575426250436e-24,-0.5797928547181481,3.3341912247306995,5e-324,-5e-324,0.0
1668678553.8806431,60871,1668678553,880398465,,-1.7754551102909175e-24,-0.5861808753001607,3.278620183648893,5e-324,-5e-324,0.0
1668678553.8891206,60872,1668678553,888880793,,-9.393538984304688e-25,-0.6142727540353842,3.221395404211349,5e-324,-5e-324,0.0
1668678553.8967834,60873,1668678553,896566778,,-4.969913017693453e-25,-0.6291360119293595,3.191128203317513,5e-324,-5e-324,0.0
1668678553.9054604,60874,1668678553,905087134,,-2.629470686682539e-25,-0.6025098006805875,3.1746146961485993,5e-324,-5e-324,0.0
1668678553.912505,60875,1668678553,912284343,,-2.629470686682539e-25,-0.6025098006805875,3.1746146961485993,5e-324,-5e-324,0.0
1668678553.9204786,60876,1668678553,920285781,,-1.3911945878142545e-25,-0.588407177503443,3.1658783504735815,5e-324,-5e-324,0.0
1668678553.9287086,60877,1668678553,928496380,,-7.360501833947012e-26,-0.5974815261584766,3.123839996467849,5e-324,-5e-324,0.0
1668678553.9372072,60878,1668678553,936972239,,-3.894278178055332e-26,-0.6118485260633106,3.1300700485869175,5e-324,-5e-324,0.0
1668678553.9445815,60879,1668678553,944242484,,-3.894278178055332e-26,-0.6118485260633106,3.1300700485869175,5e-324,-5e-324,0.0
1668678553.9529755,60880,1668678553,952719432,,-2.0603761632303845e-26,-0.6194370687771226,3.133366319174126,5e-324,-5e-324,0.0
1668678553.9607635,60881,1668678553,960568387,,-1.0900993046490175e-26,-0.6298627010785451,3.1399640796875694,5e-324,-5e-324,0.0
1668678553.9708037,60882,1668678553,969380841,,-5.767473508978845e-27,-0.6313310174887935,3.143523772759065,5e-324,-5e-324,0.0
1668678553.9775386,60883,1668678553,977259596,,-3.051442243372752e-27,-0.6323456229424693,3.145310154834455,5e-324,-5e-324,0.0
1668678553.985376,60884,1668678553,985108629,,-1.614450374179237e-27,-0.6316266136200198,3.1557103570614773,5e-324,-5e-324,0.0
1668678553.9931707,60885,1668678553,992899725,,-1.614450374179237e-27,-0.6316266136200198,3.1557103570614773,5e-324,-5e-324,0.0
1668678554.0025084,60886,1668678554,2102982,,-8.541698655277759e-28,-0.6312351393763714,3.1612232874653654,5e-324,-5e-324,0.0
1668678554.0086787,60887,1668678554,8454634,,-4.519223203417819e-28,-0.6244048029234524,3.1170201200690837,5e-324,-5e-324,0.0
1668678554.017537,60888,1668678554,17292798,,-2.3910207075369934e-28,-0.6121811579641401,3.1076010099616482,5e-324,-5e-324,0.0
1668678554.0246227,60889,1668678554,24347289,,-2.3910207075369934e-28,-0.6121811579641401,3.1076010099616482,5e-324,-5e-324,0.0
1668678554.0329664,60890,1668678554,32728573,,-1.2650359954664423e-28,-0.6058067557099283,3.1025803840007358,5e-324,-5e-324,0.0
1668678554.0404143,60891,1668678554,40195780,,-6.69302471861178e-29,-0.5620764467915033,3.1413419901571116,5e-324,-5e-324,0.0
1668678554.0485296,60892,1668678554,48317608,,-3.5411308488048964e-29,-0.5259180983642939,3.1615770202458298,5e-324,-5e-324,0.0
1668678554.0567217,60893,1668678554,56485529,,-1.8735337482749596e-29,-0.5070101071345449,3.172212301005339,5e-324,-5e-324,0.0
1668678554.0648067,60894,1668678554,64518960,,-9.912451292529505e-30,-0.4870086926999455,3.121103385673654,5e-324,-5e-324,0.0
1668678554.0723212,60895,1668678554,72145363,,-9.912451292529505e-30,-0.4870086926999455,3.121103385673654,5e-324,-5e-324,0.0
1668678554.0806909,60896,1668678554,80485967,,-5.244458004412191e-30,-0.47636969342869573,3.094080334673942,5e-324,-5e-324,0.0
1668678554.0888107,60897,1668678554,88595947,,-2.7747263465265828e-30,-0.46597281566402976,3.108307160382555,5e-324,-5e-324,0.0
1668678554.0971537,60898,1668678554,96646748,,-1.468046133963025e-30,-0.4700528845279985,3.120491279814557,5e-324,-5e-324,0.0
1668678554.1048317,60899,1668678554,104506728,,-7.767106309930795e-31,-0.47215331132229155,3.12695489338591,5e-324,-5e-324,0.0
1668678554.1123083,60900,1668678554,112074178,,-7.767106309930795e-31,-0.47215331132229155,3.12695489338591,5e-324,-5e-324,0.0
1668678554.1207678,60901,1668678554,120541712,,-4.109403583040682e-31,-0.4817532310004605,3.1257156833810305,5e-324,-5e-324,0.0
1668678554.12924,60902,1668678554,128894848,,-2.1741942410027426e-31,-0.4676693294418943,3.1245088260754432,5e-324,-5e-324,0.0
1668678554.1366634,60903,1668678554,136478620,,-1.1503179237780634e-31,-0.4601590014028476,3.123895123323978,5e-324,-5e-324,0.0
1668678554.144605,60904,1668678554,144384624,,-6.086076859235896e-32,-0.4595234912126325,3.127914935275727,5e-324,-5e-324,0.0
1668678554.1523762,60905,1668678554,152107549,,-6.086076859235896e-32,-0.4595234912126325,3.127914935275727,5e-324,-5e-324,0.0
1668678554.161048,60906,1668678554,160758552,,-3.22000820563351e-32,-0.45913379198837256,3.130058555002324,5e-324,-5e-324,0.0
1668678554.1692035,60907,1668678554,168945454,,-1.7036348840407006e-32,-0.45987303115931966,3.192865337165771,5e-324,-5e-324,0.0
1668678554.176759,60908,1668678554,176505817,,-9.013554105367112e-33,-0.5743047955586436,3.1234202140194194,5e-324,-5e-324,0.0
1668678554.1847947,60909,1668678554,184487755,,-4.7688714507702796e-33,-0.6348595665188441,3.086673640787351,5e-324,-5e-324,0.0
1668678554.1924741,60910,1668678554,192165131,,-4.7688714507702796e-33,-0.6348595665188441,3.086673640787351,5e-324,-5e-324,0.0
1668678554.2005646,60911,1668678554,200331518,,-2.523104055084115e-33,-0.6924177269543407,2.967293075098528,5e-324,-5e-324,0.0
1668678554.208431,60912,1668678554,208231368,,-1.3349183634953387e-33,-0.7421355313763542,2.913854006505691,5e-324,-5e-324,0.0
1668678554.2164533,60913,1668678554,216257045,,-7.062756819744658e-34,-0.7685652558101475,2.8855441838538307,5e-324,-5e-324,0.0
1668678554.2250638,60914,1668678554,224819967,,-3.7367478985185045e-34,-0.8137657408741417,2.8991605539587466,5e-324,-5e-324,0.0
1668678554.2323802,60915,1668678554,232104626,,-3.7367478985185045e-34,-0.8137657408741417,2.8991605539587466,5e-324,-5e-324,0.0
1668678554.2406387,60916,1668678554,240356165,,-1.977030388197236e-34,-0.8375712084056429,2.906403907574914,5e-324,-5e-324,0.0
1668678554.2489448,60917,1668678554,248727671,,0.21792432489975422,-1.007997500501999,2.7319358279244335,5e-324,-5e-324,0.0
1668678554.2571526,60918,1668678554,256626475,,0.6682647672035323,-1.2822563314789988,2.480904080377524,5e-324,-5e-324,0.0
1668678554.2644982,60919,1668678554,264301101,,0.906665833686582,-1.427204492323669,2.348122755119806,5e-324,-5e-324,0.0
1668678554.2724307,60920,1668678554,272169585,,0.906665833686582,-1.427204492323669,2.348122755119806,5e-324,-5e-324,0.0
1668678554.2806053,60921,1668678554,280345029,,1.3665149233845915,-1.6541711153336902,2.142051224488608,5e-324,-5e-324,0.0
1668678554.2890499,60922,1668678554,288483018,,1.6608871807632628,-1.8415133579428056,2.0105514153862165,5e-324,-5e-324,0.0
1668678554.296598,60923,1668678554,296367483,,1.8164688612906916,-1.9407089496776844,1.9410672479961169,5e-324,-5e-324,0.0
1668678554.3051074,60924,1668678554,304505009,,2.0564293762173174,-2.0934571578014123,1.8582686402067332,5e-324,-5e-324,0.0
1668678554.3126216,60925,1668678554,312376812,,2.0564293762173174,-2.0934571578014123,1.8582686402067332,5e-324,-5e-324,0.0
1668678554.3211286,60926,1668678554,320852513,,2.183401662214134,-2.174384948033061,1.8143119110611141,5e-324,-5e-324,0.0
1668678554.328661,60927,1668678554,328409016,,2.505426903178086,-2.399182139446477,1.7743131563350207,5e-324,-5e-324,0.0
1668678554.336819,60928,1668678554,336604498,,2.73333508500206,-2.5697868155364736,1.7397505628886516,5e-324,-5e-324,0.0
1668678554.3451626,60929,1668678554,344907041,,2.853874780979085,-2.660109460626948,1.7214426467562989,5e-324,-5e-324,0.0
1668678554.3524628,60930,1668678554,352221863,,2.853874780979085,-2.660109460626948,1.7214426467562989,5e-324,-5e-324,0.0
1668678554.3607745,60931,1668678554,360498987,,2.898514453667061,-2.7293316701522086,1.792226475711315,5e-324,-5e-324,0.0
1668678554.3687627,60932,1668678554,368565019,,2.878542158628022,-2.812086402523285,1.8589915499845713,5e-324,-5e-324,0.0
1668678554.376487,60933,1668678554,376249022,,2.8678028692853457,-2.855911187072313,1.89448732541948,5e-324,-5e-324,0.0
1668678554.3851645,60934,1668678554,384836082,,2.677701726425868,-2.881991175265747,2.08874988529998,5e-324,-5e-324,0.0
1668678554.3924716,60935,1668678554,392232613,,2.677701726425868,-2.881991175265747,2.08874988529998,5e-324,-5e-324,0.0
1668678554.4006844,60936,1668678554,400465005,,2.5771684263138397,-2.8957861866507306,2.191486700110042,5e-324,-5e-324,0.0
1668678554.408562,60937,1668678554,408346466,,2.5107446382805176,-2.9572102493465717,2.3036956868404834,5e-324,-5e-324,0.0
1668678554.4170258,60938,1668678554,416742822,,2.6550145251614774,-3.08198018212532,2.283612150514722,5e-324,-5e-324,0.0
1668678554.42488,60939,1668678554,424471074,,2.731556861180249,-3.147714277491971,2.273098913559385,5e-324,-5e-324,0.0
1668678554.4323716,60940,1668678554,432119936,,2.731556861180249,-3.147714277491971,2.273098913559385,5e-324,-5e-324,0.0
1668678554.4409778,60941,1668678554,440571427,,2.9907365800017347,-3.1285973515269987,2.1753131580718224,5e-324,-5e-324,0.0
1668678554.448907,60942,1668678554,448612762,,3.0287138778252927,-3.2285046804041095,2.1217861849230504,5e-324,-5e-324,0.0
1668678554.4567897,60943,1668678554,456571716,,3.0489442351267053,-3.281165734729699,2.093563787800298,5e-324,-5e-324,0.0
1668678554.4653144,60944,1668678554,465064463,,3.2967472805818527,-3.49999150343535,2.033429196840827,5e-324,-0.0026175577043147003,0.0
1668678554.472155,60945,1668678554,471940123,,3.2967472805818527,-3.49999150343535,2.033429196840827,5e-324,-0.0026175577043147003,0.0
1668678554.4811206,60946,1668678554,480709496,,3.4277779626328635,-3.615672011033662,2.0018837333894988,5e-324,-0.004013503891853693,0.0
1668678554.4887686,60947,1668678554,488502292,,3.557752450574286,-3.7181493450630376,1.985400285277057,5e-324,-0.017276706846539123,0.0
1668678554.4964561,60948,1668678554,496222090,,3.5501584416229592,-3.7480505281775067,2.004990534542941,5e-324,-0.021841904618962602,0.0
1668678554.504466,60949,1668678554,504284613,,3.5460338572803485,-3.764048152998416,2.0152349595853005,5e-324,-0.024264845830819955,0.0
1668678554.5127764,60950,1668678554,512379697,,3.5460338572803485,-3.764048152998416,2.0152349595853005,5e-324,-0.024264845830819955,0.0
1668678554.5204923,60951,1668678554,520270593,,3.5368808355917705,-3.6280651064363503,2.112054545294309,5e-324,-0.012837991450124717,0.0
1668678554.528477,60952,1668678554,528269988,,3.4907255284455108,-3.5631260813661187,2.196832673773427,5e-324,-0.0067922963789919105,0.0
1668678554.5365498,60953,1668678554,536342107,,3.4661555256391554,-3.529032054754161,2.2415296928157327,5e-324,-0.003593653281301915,0.0
1668678554.5451443,60954,1668678554,544657357,,3.1992995012100613,-3.403626837958618,2.3637277812974826,5e-324,-0.0019013222017453724,0.0
1668678554.5522373,60955,1668678554,552026566,,3.1992995012100613,-3.403626837958618,2.3637277812974826,5e-324,-0.0019013222017453724,0.0
1668678554.5610712,60956,1668678554,560794398,,3.058117712213684,-3.33740539726759,2.4282181370121365,5e-324,-0.0010059473833102265,0.0
1668678554.568466,60957,1668678554,568262231,,2.6978596835830433,-3.1286639952106756,2.5927632549741766,5e-324,-0.000532224436794438,0.0
1668678554.5768993,60958,1668678554,576621243,,2.454290505528042,-2.9654630045938015,2.7120398603633364,5e-324,-0.00028158813852573113,0.0
1668678554.5846536,60959,1668678554,584454732,,2.3254880546058763,-2.8790209536454903,2.7751874730373296,5e-324,-0.00014898203516538526,0.0
1668678554.5922987,60960,1668678554,592082664,,2.3254880546058763,-2.8790209536454903,2.7751874730373296,5e-324,-0.00014898203516538526,0.0
1668678554.601796,60961,1668678554,601262401,,2.432312613743721,-2.825907257083375,2.712969137703321,5e-324,-7.882308863656871e-05,0.0
1668678554.6093814,60962,1668678554,609128582,,2.5841564351170767,-2.8240137281642417,2.618766407314997,5e-324,-4.1703546976729206e-05,0.0
1668678554.6165931,60963,1668678554,616335453,,2.664272438187922,-2.8231977447353196,2.5689600420837424,5e-324,-2.2064421231438426e-05,0.0
1668678554.6242127,60964,1668678554,624017397,,2.664272438187922,-2.8231977447353196,2.5689600420837424,5e-324,-2.2064421231438426e-05,0.0
1668678554.6326,60965,1668678554,632372396,,2.730218339129669,-2.794168895838058,2.5372489774591003,5e-324,-1.1673795625825529e-05,0.0
1668678554.6410549,60966,1668678554,640666160,,2.764925716905955,-2.778931966857525,2.5205396895537087,5e-324,-6.176346203877246e-06,0.0
1668678554.6486285,60967,1668678554,648399439,,2.6696366228784925,-2.700918944844143,2.520640668906375,5e-324,-3.2677677126501207e-06,0.0
1668678554.6565595,60968,1668678554,656324881,,2.599888085735847,-2.6584437006660533,2.5161980407229994,5e-324,-1.7289033793369965e-06,0.0
1668678554.6644878,60969,1668678554,664267147,,2.5629699225120253,-2.6359660596411234,2.513868422619913,5e-324,-9.147244106462991e-07,0.0
1668678554.6725452,60970,1668678554,672220172,,2.5629699225120253,-2.6359660596411234,2.513868422619913,5e-324,-9.147244106462991e-07,0.0
1668678554.6807542,60971,1668678554,680494788,,2.5466775772914665,-2.3657573562725203,2.436682890109159,5e-324,-4.839603863537398e-07,0.0
1668678554.6886554,60972,1668678554,688448904,,2.478581528326198,-2.1389057653494583,2.375514958271778,5e-324,-2.5605270050044307e-07,0.0
1668678554.6965947,60973,1668678554,696411983,,2.4425107439930827,-2.018815817671306,2.3432553998320484,5e-324,-1.3547180158180928e-07,0.0
1668678554.705062,60974,1668678554,704812331,,2.474437031824025,-1.952832526690727,2.1985222537045854,5e-324,-7.167512386298517e-08,0.0
1668678554.712251,60975,1668678554,712044973,,2.474437031824025,-1.952832526690727,2.1985222537045854,5e-324,-7.167512386298517e-08,0.0
1668678554.72078,60976,1668678554,720555744,,2.4912435171318217,-1.917862991388256,2.1221016063695886,5e-324,-3.7921717440746645e-08,0.0
1668678554.7286127,60977,1668678554,728387249,,2.6345854471609336,-2.004380193044758,2.0262742014552777,5e-324,-2.006353914929859e-08,0.0
1668678554.7372546,60978,1668678554,736632863,,2.7047741380283092,-2.0700393281639276,1.994898002446338,5e-324,-1.06151733192048e-08,0.0
1668678554.7442632,60979,1668678554,744090361,,2.7047741380283092,-2.0700393281639276,1.994898002446338,5e-324,-1.06151733192048e-08,0.0
1668678554.7531066,60980,1668678554,752824386,,2.741874554343518,-2.1048755107141144,1.978238663799344,5e-324,-5.6162526341070165e-09,0.0
1668678554.7607136,60981,1668678554,760512417,,2.5582806178478767,-2.5948692332465804,2.3717619600996147,5e-324,-2.9714346343312357e-09,0.0
1668678554.7690868,60982,1668678554,768826612,,2.2651645442976633,-3.222323099248544,2.8058357144751533,5e-324,-0.012804819752354467,0.0
1668678554.7768188,60983,1668678554,776531198,,2.110068475423763,-3.5543400695838003,3.0354529601737243,5e-324,-0.019574633832170382,0.0
1668678554.7845433,60984,1668678554,784305937,,1.8813783191544418,-3.939194032022117,3.1953376603705657,5e-324,-0.055875807508123314,0.0
1668678554.7924137,60985,1668678554,792226518,,1.8813783191544418,-3.939194032022117,3.1953376603705657,5e-324,-0.055875807508123314,0.0
1668678554.801551,60986,1668678554,801253778,,1.7602026134453475,-4.143161479776076,3.279608083242858,5e-324,-0.07509045387513882,0.0
1668678554.808594,60987,1668678554,808374308,,1.5461631826218634,-4.1621817882965395,3.436600986877218,5e-324,-0.0658927809594116,0.0
1668678554.8164885,60988,1668678554,816312606,,1.493003082764893,-4.185032951156011,3.514589601169834,5e-324,-0.06133871553324393,0.0
1668678554.8245773,60989,1668678554,824375409,,1.464624789375446,-4.197371529513445,3.555703698959024,5e-324,-0.05894096195335681,0.0
1668678554.832604,60990,1668678554,832312050,,1.464624789375446,-4.197371529513445,3.555703698959024,5e-324,-0.05894096195335681,0.0
1668678554.840492,60991,1668678554,840300585,,1.6306825789919004,-4.282787869401723,3.422384833659973,5e-324,-0.07561494020463515,0.0
1668678554.8487453,60992,1668678554,848520706,,1.8617720484877582,-4.301963797332643,3.289011596435883,5e-324,-0.08453640879224411,0.0
1668678554.8567648,60993,1668678554,856505188,,1.983913271951888,-4.312156636295864,3.2184787832758657,5e-324,-0.0892727068628288,0.0
1668678554.865878,60994,1668678554,865465272,,1.8195130412669371,-4.137468834569469,3.339175054086084,5e-324,-0.06246820921739817,0.0
1668678554.8724408,60995,1668678554,872212647,,1.8195130412669371,-4.137468834569469,3.339175054086084,5e-324,-0.06246820921739817,0.0
1668678554.8808737,60996,1668678554,880636702,,1.7324064095293055,-4.045106959163034,3.403039046844817,5e-324,-0.048290813872183834,0.0
1668678554.8887458,60997,1668678554,888561005,,1.7518202585451494,-4.082754944266097,3.5275663939951825,5e-324,-0.05253750456877938,0.0
1668678554.8981664,60998,1668678554,897640649,,1.6734578744281263,-4.089920508503198,3.654801928452041,5e-324,-0.05018593354335611,0.0
1668678554.9048295,60999,1668678554,904551275,,1.6734578744281263,-4.089920508503198,3.654801928452041,5e-324,-0.05018593354335611,0.0
1668678554.9125788,61000,1668678554,912356988,,1.632230333951696,-4.0938692961464564,3.7218267188529253,5e-324,-0.0489278601011012,0.0
1668678554.9213102,61001,1668678554,921050006,,1.5004884271130323,-3.9964774066337663,3.788963935004279,5e-324,-0.03700608415092997,0.0
1668678554.9297428,61002,1668678554,929483027,,1.4538891882434672,-3.9408495805490995,3.8100826830926504,5e-324,-0.024699068503865787,0.0
1668678554.9374108,61003,1668678554,937165025,,1.4293604914157951,-3.9114178802865744,3.8211938312113265,5e-324,-0.018172978808903544,0.0
1668678554.9456527,61004,1668678554,945437758,,1.4724746234652435,-3.9148862955412342,3.7798625747204233,5e-324,-0.01392090730534478,0.0
1668678554.9527674,61005,1668678554,952530121,,1.4724746234652435,-3.9148862955412342,3.7798625747204233,5e-324,-0.01392090730534478,0.0
1668678554.9618442,61006,1668678554,961269022,,1.4951616153451175,-3.9166648350791036,3.758119752132493,5e-324,-0.01168059817826098,0.0
1668678554.9697676,61007,1668678554,969418701,,1.4699705404754613,-3.924833558107336,3.746890113297027,5e-324,-0.016011722523832525,0.0
1668678554.9769294,61008,1668678554,976752125,,1.6224393074305026,-4.047002491569284,3.7091142314828014,5e-324,-0.040987023349479325,0.0
1668678554.9849694,61009,1668678554,984712053,,1.6224393074305026,-4.047002491569284,3.7091142314828014,5e-324,-0.040987023349479325,0.0
1668678554.9941854,61010,1668678554,993704255,,1.7030265181935231,-4.111602580011587,3.6892169797850682,5e-324,-0.05421135600273123,0.0
1668678555.001802,61011,1668678555,1580298,,1.7093586367683682,-4.257809524829995,3.7046602635064065,5e-324,-0.08852959011532101,0.0
1668678555.0084944,61012,1668678555,8247635,,1.5988632747980551,-4.312751345378706,3.7647932775155213,5e-324,-0.09898571366887982,0.0
1668678555.016818,61013,1668678555,16601737,,1.54070181602418,-4.341436215679066,3.7968817006249296,5e-324,-0.10450499856888602,0.0
1668678555.0246105,61014,1668678555,24258634,,1.54070181602418,-4.341436215679066,3.7968817006249296,5e-324,-0.10450499856888602,0.0
