Time,header.seq,header.stamp.secs,header.stamp.nsecs,header.frame_id,twist.linear.x,twist.linear.y,twist.linear.z,twist.angular.x,twist.angular.y,twist.angular.z
1668678503.5188968,54577,1668678503,518760210,,-1.9674630135792583e-05,1.663579749971465e-09,-1.6724477441005532e-11,6.437326524736988e-07,-8.098132932828898e-08,-1.6600827412895222e-09
1668678503.5272956,54578,1668678503,527088874,,-1.8274585318724127e-05,1.6252389412706798e-09,-1.647725854183986e-11,6.301930905216005e-07,-7.527528741225906e-08,-1.5878861116300593e-09
1668678503.5347507,54579,1668678503,534515331,,-1.694911454770117e-05,1.5867859918147734e-09,-1.6216984405465325e-11,6.166803114731204e-07,-6.960489434231461e-08,-1.5160591694157223e-09
1668678503.543412,54580,1668678503,542866394,,-1.569494009121366e-05,1.548298580379841e-09,-1.594518658663198e-11,6.031958326495499e-07,-6.397059299372453e-08,-1.4446081846215559e-09
1668678503.5506585,54581,1668678503,550545629,,-1.450890256337017e-05,1.5098491768312599e-09,-1.566333979474885e-11,5.897411556925867e-07,-5.837281810607755e-08,-1.3735393142521267e-09
1668678503.5596082,54582,1668678503,559132229,,-1.3387957805418935e-05,1.471504879087277e-09,-1.5372834913898385e-11,5.763177664963134e-07,-5.2811996295184784e-08,-1.3028586217690707e-09
1668678503.5673258,54583,1668678503,567039749,,-1.2329173786150237e-05,1.4333280617279459e-09,-1.5074868700839623e-11,5.62927135128645e-07,-4.728854605229244e-08,-1.232572081139911e-09
1668678503.5746036,54584,1668678503,574459814,,-1.1329727525883983e-05,1.3953761010682893e-09,-1.4770657220569277e-11,5.495707157838695e-07,-4.180287776874939e-08,-1.1626855560281516e-09
1668678503.582342,54585,1668678503,582197576,,-1.0386902048742802e-05,1.3577020297516358e-09,-1.4461286647999013e-11,5.362499467231985e-07,-3.635539373834841e-08,-1.093204811346808e-09
1668678503.5905836,54586,1668678503,590439149,,-9.498083366306501e-06,1.3203545131037658e-09,-1.4147805338661206e-11,5.229662502213838e-07,-3.094648817679718e-08,-1.024135523197491e-09
1668678503.5984533,54587,1668678503,598207691,,-8.660757496608266e-06,1.2833781594149025e-09,-1.3831140924121986e-11,5.097210324966835e-07,-2.557654723239118e-08,-9.554832696750173e-10
1668678503.60662,54588,1668678503,606426592,,-7.87250752139407e-06,1.2468135896719789e-09,-1.3512208871845135e-11,4.965156836755836e-07,-2.0245949002682085e-08,-8.872535322175794e-10
1668678503.6139712,54589,1668678503,613854735,,-7.131010684309094e-06,1.2106977237054339e-09,-1.3191854999535725e-11,4.833515777475512e-07,-1.4955063551436006e-08,-8.194516845478846e-10
1668678503.6224997,54590,1668678503,622287135,,-6.4340355328279996e-06,1.1750640462714293e-09,-1.2870768406671857e-11,4.702300724974814e-07,-9.704252917318133e-09,-7.520830175776168e-10
1668678503.6308534,54591,1668678503,630680020,,-5.779439105723313e-06,1.1399425806558864e-09,-1.2549685438555588e-11,4.5715250947081684e-07,-4.493871135346437e-09,-6.851527112910252e-10
1668678503.6390953,54592,1668678503,638774706,,-5.16516416824948e-06,1.1053602774048652e-09,-1.2229303609581885e-11,4.441202139488483e-07,6.757357375913841e-10,-6.186658541623073e-10
1668678503.6465673,54593,1668678503,646386319,,-4.589236496762077e-06,1.0713410456578815e-09,-1.191014768911731e-11,4.3113449488026133e-07,5.80422961199139e-09,-5.526274399648363e-10
1668678503.6544795,54594,1668678503,654338129,,-4.049762214028907e-06,1.037906112496962e-09,-1.1592792146965535e-11,4.1819664486879595e-07,1.0891280340450624e-08,-4.870423581988413e-10
1668678503.6621187,54595,1668678503,661900294,,-3.544925176728014e-06,1.0050738626603437e-09,-1.1277703103044938e-11,4.0530794011624967e-07,1.593656570574477e-08,-4.2191541346643907e-10
1668678503.6707108,54596,1668678503,670554789,,-3.0729844157825555e-06,9.728603497956547e-10,-1.0965421444940717e-11,3.924696404104475e-07,2.0939771385402655e-08,-3.5725129882905986e-10
1668678503.6784244,54597,1668678503,678274786,,-2.632271631037328e-06,9.412791387647588e-10,-1.0656245402615979e-11,3.796829890724428e-07,2.5900590944125273e-08,-2.930546235232123e-10
1668678503.6864429,54598,1668678503,686236866,,-2.2211887401283033e-06,9.103417368857163e-10,-1.035061607756156e-11,3.669492129531238e-07,3.0818725796122893e-08,-2.293298952104845e-10
1668678503.6950402,54599,1668678503,694847958,,-1.8382054828216935e-06,8.800574718707653e-10,-1.004878775388076e-11,3.542695223851143e-07,3.569388519155279e-08,-1.660815230886962e-10
1668678503.7024608,54600,1668678503,702182202,,-1.4818570807445154e-06,8.504338735055121e-10,-9.751167925712992e-12,3.4164511118354494e-07,4.052578618612207e-08,-1.0331382302280063e-10
1668678503.7105377,54601,1668678503,710388585,,-1.1507419528352511e-06,8.214764783956097e-10,-9.457962849658645e-12,3.290771565970166e-07,4.531415361879539e-08,-4.103101361465185e-11
1668678503.7183545,54602,1668678503,718238688,,-8.435194866765673e-07,7.931892809857105e-10,-9.169405821912936e-12,3.1656681930496726e-07,5.005872008159347e-08,2.0762777593749606e-11
1668678503.7272341,54603,1668678503,726868607,,-5.589078655888318e-07,7.655746840449376e-10,-8.885679754436376e-12,3.041152433965014e-07,5.475922589545337e-08,8.206352531189125e-11
1668678503.7341943,54604,1668678503,733973780,,-2.9568195157128555e-07,7.3863359084059e-10,-8.607034158919893e-12,2.9172355636794455e-07,5.9415419078004056e-08,1.4286729164336724e-10
1668678503.742375,54605,1668678503,742178034,,-5.26712235788146e-08,7.123656275867263e-10,-8.333547161925598e-12,2.793928690860513e-07,6.402705532282699e-08,2.0317023998406443e-10
1668678503.7505755,54606,1668678503,750385551,,1.7124222889192215e-07,6.867691298005224e-10,-8.065395900196156e-12,2.6712427579585037e-07,6.859389796208475e-08,2.629686257423573e-10
1668678503.7587736,54607,1668678503,758466315,,3.771256577147856e-07,6.61841185140289e-10,-7.802674123398042e-12,2.5491885411415816e-07,7.311571793626273e-08,3.222587995390463e-10
1668678503.7664828,54608,1668678503,766317339,,5.659975534770099e-07,6.375780292827198e-10,-7.545504989917241e-12,2.427776650184179e-07,7.759229376708066e-08,3.8103720349994065e-10
1668678503.7743473,54609,1668678503,773664883,,7.388294891859819e-07,6.139747810222667e-10,-7.293871085560354e-12,2.3070175283240776e-07,8.202341153010256e-08,4.3930037157289067e-10
1668678503.7833111,54610,1668678503,783026127,,8.96547910959098e-07,5.910256918024504e-10,-7.047865253044496e-12,2.186921452494958e-07,8.640886480622896e-08,4.970449394996251e-10
1668678503.7910595,54611,1668678503,790760855,,1.0400358760678443e-06,5.687242935935502e-10,-6.807586005421293e-12,2.0674985331664317e-07,9.074845466495675e-08,5.542676327459551e-10
1668678503.798443,54612,1668678503,798279804,,1.170134739259296e-06,5.470632342020406e-10,-6.573007087320313e-12,1.9487587142729153e-07,9.504198962592008e-08,6.109652624808032e-10
1668678503.8063543,54613,1668678503,806208791,,1.28764578830359e-06,5.260346188725545e-10,-6.34412438161783e-12,1.8307117734904416e-07,9.928928562046271e-08,6.671347497226772e-10
1668678503.8140259,54614,1668678503,813926601,,1.3933318291678315e-06,5.056298868751239e-10,-6.120947342327911e-12,1.7133673222129938e-07,1.0349016595536225e-07,7.22773089796262e-10
1668678503.8231113,54615,1668678503,822813251,,1.4879187218042273e-06,4.858398351299584e-10,-5.903443204385729e-12,1.5967348055432975e-07,1.0764446128387866e-07,7.778773747889571e-10
1668678503.8302488,54616,1668678503,830135069,,1.572096867687038e-06,4.666549960908528e-10,-5.691619110456568e-12,1.4808235026611535e-07,1.1175200956060861e-07,8.324447929507535e-10
1668678503.8386235,54617,1668678503,838400905,,1.6465226494475681e-06,4.4806530123919094e-10,-5.4854334139400725e-12,1.3656425266214248e-07,1.1581265601574883e-07,8.864726212587673e-10
1668678503.8465018,54618,1668678503,846348335,,1.7118198241671624e-06,4.30060401349227e-10,-5.284792780226029e-12,1.2512008247021735e-07,1.1982625310736762e-07,9.39958226920299e-10
1668678503.8547013,54619,1668678503,854449439,,1.7685808707915863e-06,4.126295780648009e-10,-5.089720614606342e-12,1.137507178610038e-07,1.2379266048342257e-07,9.92899059731326e-10
1668678503.8619845,54620,1668678503,861773141,,1.8173682927980053e-06,3.9576188172309077e-10,-4.9001321799191834e-12,1.0245702046153115e-07,1.277117449480655e-07,1.0452926684763316e-09
1668678503.8705618,54621,1668678503,870406227,,1.858715877038935e-06,3.7944603929915996e-10,-4.715932254906576e-12,9.123983536115983e-08,1.31583380422244e-07,1.0971366943714218e-09
1668678503.878319,54622,1668678503,878178147,,1.8931299098017795e-06,3.636706709815514e-10,-4.537098133329039e-12,8.009999116189751e-08,1.3540744789505773e-07,1.148428861658449e-09
1668678503.8864546,54623,1668678503,886278441,,1.92109035107031e-06,3.484241884135595e-10,-4.36351986826631e-12,6.903829998801603e-08,1.3918383539354235e-07,1.1991669813018866e-09
1668678503.8941684,54624,1668678503,894017952,,1.9430519678339014e-06,3.33694838057785e-10,-4.195168112622282e-12,5.805555751372804e-08,1.4291243793024012e-07,1.2493489630662489e-09
1668678503.902485,54625,1668678503,902358102,,1.959445427575167e-06,3.1947079593804847e-10,-4.0318823836304e-12,4.7152542985578095e-08,1.465931574740359e-07,1.2989727870579009e-09
1668678503.910284,54626,1668678503,910158577,,1.9706783530548536e-06,3.0574033701638857e-10,-3.87362795834293e-12,3.6330019276075405e-08,1.50225902892315e-07,1.3480365365336096e-09
1668678503.9184012,54627,1668678503,918237857,,1.977136338934046e-06,2.9249144358159315e-10,-3.720273678660234e-12,2.558873289096904e-08,1.5381058992039274e-07,1.3965383792895359e-09
1668678503.926644,54628,1668678503,926448021,,1.9791839316749653e-06,2.797122662962338e-10,-3.571805002889847e-12,1.4929414019753176e-08,1.5734714111614984e-07,1.444476565145123e-09
1668678503.9346182,54629,1668678503,934463688,,1.977165573639109e-06,2.6739089141097556e-10,-3.4280580528949402e-12,4.3527765572582155e-09,1.6083548580560603e-07,1.4918494276651145e-09
1668678503.9433234,54630,1668678503,942927456,,1.971406512101425e-06,2.5551548253233645e-10,-3.2889676922761232e-12,-6.1404818452682155e-09,1.6427556005248878e-07,1.5386553917366881e-09
1668678503.952315,54631,1668678503,951785918,,1.962213674204386e-06,2.4407424683630255e-10,-3.154402235203703e-12,-1.6549679753610586e-08,1.6766730660415497e-07,1.5848929605505584e-09
1668678503.959879,54632,1668678503,959671552,,1.9498765092285316e-06,2.3305534928071175e-10,-3.0242782868944104e-12,-2.687415189474878e-08,1.71010674847242e-07,1.630560730654447e-09
1668678503.967022,54633,1668678503,966814535,,1.934667798491206e-06,2.2244732646748587e-10,-2.898508987052685e-12,-3.711324911940038e-08,1.743056207643157e-07,1.6756573752445104e-09
1668678503.9744933,54634,1668678503,974354221,,1.9168444343134586e-06,2.122385914115669e-10,-2.77699745476357e-12,-4.726633835469248e-08,1.7755210688196248e-07,1.7201816560140603e-09
1668678503.9820487,54635,1668678503,981846326,,1.8966481687536787e-06,2.0241771709434127e-10,-2.6596307565061993e-12,-5.733280257099893e-08,1.8075010222859543e-07,1.7641324160232405e-09
1668678503.9903934,54636,1668678503,990265829,,1.8743063328840816e-06,1.9297339621945084e-10,-2.546260667451755e-12,-6.73120407219063e-08,1.8389958228510032e-07,1.8075085823548984e-09
1668678503.9982574,54637,1668678503,998150131,,1.8500325279024037e-06,1.8389465059016008e-10,-2.4368433803467665e-12,-7.720346768089885e-08,1.870005289342046e-07,1.8503091565558184e-09
1668678504.0063796,54638,1668678504,6199025,,1.8240272886552479e-06,1.7517044886635912e-10,-2.3312087318525675e-12,-8.700651422499013e-08,1.900529304186625e-07,1.8925332296550396e-09
1668678504.0146074,54639,1668678504,14365144,,1.7964787204490058e-06,1.6678992979960727e-10,-2.2293714469440538e-12,-9.672062694460033e-08,1.930567812835115e-07,1.934179974973393e-09
1668678504.0220919,54640,1668678504,21895611,,1.7675631100397608e-06,1.5874258024464885e-10,-2.1312015333247143e-12,-1.0634526821245059e-07,1.9601208233504002e-07,1.975248644585868e-09
1668678504.030451,54641,1668678504,30266131,,1.7374455117420529e-06,1.5101790617919597e-10,-2.0366001151718476e-12,-1.1587991612197387e-07,1.9891884058797518e-07,2.015738571175769e-09
1668678504.0384338,54642,1668678504,38280728,,1.7062803094527197e-06,1.4360567756553458e-10,-1.945438771926113e-12,-1.2532406442475728e-07,2.0177706921098072e-07,2.0556491596634864e-09
1668678504.0464337,54643,1668678504,46213796,,1.674211755079418e-06,1.3649582511548533e-10,-1.8576508748914507e-12,-1.346772224748705e-07,2.0458678748350573e-07,2.094979897004129e-09
1668678504.0541584,54644,1668678504,53934531,,1.6413744846386354e-06,1.2967845482778304e-10,-1.7731342500972535e-12,-1.439389151728014e-07,2.0734802074209925e-07,2.1337303582637133e-09
1668678504.0627046,54645,1668678504,62464220,,1.6078940123998076e-06,1.2314399823898579e-10,-1.6917677106810145e-12,-1.531086828879908e-07,2.1006080032343128e-07,2.1719001817498537e-09
1668678504.0704083,54646,1668678504,70256728,,1.573887204147469e-06,1.1688285790377134e-10,-1.613446794678995e-12,-1.6218608141349168e-07,2.1272516352105018e-07,2.2094890955709033e-09
1668678504.0786884,54647,1668678504,78404939,,1.539462729846098e-06,1.1088595724822857e-10,-1.5381200685259657e-12,-1.7117068188057175e-07,2.1534115352886378e-07,2.2464968934014945e-09
1668678504.0864997,54648,1668678504,86340201,,1.5047214970303652e-06,1.0514420617425744e-10,-1.4657027539778018e-12,-1.8006207069982125e-07,2.1790881938778743e-07,2.282923454652935e-09
1668678504.0941336,54649,1668678504,94004203,,1.4697570649228822e-06,9.964866642329266e-11,-1.3960862376618053e-12,-1.8885984950592322e-07,2.2042821593596305e-07,2.318768723633655e-09
1668678504.1043353,54650,1668678504,104074993,,1.4346560406022404e-06,9.439078583978381e-11,-1.3292118351390072e-12,-1.975636350766727e-07,2.22899403757166e-07,2.3540327269684417e-09
1668678504.1126058,54651,1668678504,112300853,,1.3994984574425293e-06,8.936217588683317e-11,-1.2649641351754771e-12,-2.061730592555288e-07,2.2532244912149295e-07,2.3887155665765343e-09
1668678504.1190925,54652,1668678504,118787818,,1.3643581366608991e-06,8.455465333719838e-11,-1.2032679255694373e-12,-2.146877688889484e-07,2.276974239376654e-07,2.422817408199834e-09
1668678504.126865,54653,1668678504,126641152,,1.3293030325443029e-06,7.996022387996189e-11,-1.1440028458758348e-12,-2.2310742575512804e-07,2.3002440569798356e-07,2.4563385055556256e-09
1668678504.1345217,54654,1668678504,134367749,,1.2943955619219648e-06,7.557109441113814e-11,-1.087133608257634e-12,-2.3143170647185836e-07,2.3230347741886435e-07,2.489279171707286e-09
1668678504.1423404,54655,1668678504,142039938,,1.259692918623761e-06,7.137971171604824e-11,-1.0325902604185715e-12,-2.39660302434184e-07,2.3453472759508188e-07,2.521639794094462e-09
1668678504.150248,54656,1668678504,150049638,,1.22524737340706e-06,6.737877068306598e-11,-9.803188626606164e-13,-2.477929197315356e-07,2.367182501328376e-07,2.5534208376535377e-09
1668678504.1584666,54657,1668678504,158325084,,1.191106559679566e-06,6.35610576011262e-11,-9.301775428644738e-13,-2.558292790831554e-07,2.388541443122393e-07,2.584622833186604e-09
1668678504.1664522,54658,1668678504,166313010,,1.157313746086065e-06,5.991963450236078e-11,-8.821419980154623e-13,-2.637691157373709e-07,2.409425147158639e-07,2.6152463858633375e-09
1668678504.1744354,54659,1668678504,174151046,,1.123908095983371e-06,5.6447817125850925e-11,-8.361249870122264e-13,-2.716121793985923e-07,2.42983471181474e-07,2.6452921668260592e-09
1668678504.1821718,54660,1668678504,182010603,,1.0909249145273351e-06,5.313901776480191e-11,-7.920361105306388e-13,-2.793582341437178e-07,2.4497712874360014e-07,2.674760911819022e-09
1668678504.1902914,54661,1668678504,190151777,,1.058395883955745e-06,4.998684706466385e-11,-7.498128558152632e-13,-2.8700705834639126e-07,2.4692360757655754e-07,2.7036534294027248e-09
1668678504.1982996,54662,1668678504,198162977,,1.026349287309938e-06,4.6985180301548874e-11,-7.09404672583604e-13,-2.9455844457599017e-07,2.488230329420428e-07,2.7319705889931723e-09
1668678504.206818,54663,1668678504,206506028,,9.948102212257554e-07,4.4128081477613935e-11,-6.707377915282752e-13,-3.020121995171232e-07,2.5067553512574963e-07,2.7597133360385876e-09
1668678504.21403,54664,1668678504,213906643,,9.638007981892089e-07,4.140973348843047e-11,-6.337718270263203e-13,-3.0936814389826506e-07,2.524812493901134e-07,2.786882679181569e-09
1668678504.223266,54665,1668678504,223078365,,9.333403387438058e-07,3.88244560028835e-11,-5.984594585922102e-13,-3.166261123817077e-07,2.5424031591345516e-07,2.813479693988153e-09
1668678504.2311063,54666,1668678504,230966914,,9.0344555387852e-07,3.63668587869372e-11,-5.646545902558543e-13,-3.2378595349145016e-07,2.5595287973346645e-07,2.839505510031832e-09
1668678504.2393308,54667,1668678504,239070320,,8.741307183819408e-07,3.403176375813234e-11,-5.323529371669014e-13,-3.3084752950655446e-07,2.5761909068630647e-07,2.8649613351735415e-09
1668678504.2468703,54668,1668678504,246639653,,8.45407835176986e-07,3.181402377300552e-11,-5.014650945758626e-13,-3.3781071637459093e-07,2.592391033517017e-07,2.889848435163626e-09
1668678504.2543898,54669,1668678504,254140201,,8.172867910257873e-07,2.9708766540772226e-11,-4.720081255675513e-13,-3.4467540362379306e-07,2.6081307699924864e-07,2.9141681376381384e-09
1668678504.26245,54670,1668678504,262213077,,7.897755042985691e-07,2.7711290517906178e-11,-4.4387803658906175e-13,-3.5144149426060186e-07,2.623411755229658e-07,2.937921828607255e-09
1668678504.2705,54671,1668678504,270260660,,7.628800649383675e-07,2.5817023882654422e-11,-4.170476620224218e-13,-3.5810890469190703e-07,2.6382356739211194e-07,2.9611109626446574e-09
1668678504.278591,54672,1668678504,278363567,,7.366048668387189e-07,2.4021514163955637e-11,-3.9149891901239965e-13,-3.6467756461587867e-07,2.652604255863224e-07,2.983737050398243e-09
1668678504.28644,54673,1668678504,286265572,,7.109527332275872e-07,2.2320473451267054e-11,-3.6710915177174206e-13,-3.7114741693138815e-07,2.6665192754597523e-07,3.005801662125218e-09
1668678504.2943816,54674,1668678504,294244437,,6.859250352166667e-07,2.0709819987205285e-11,-3.439024516529161e-13,-3.775184176337335e-07,2.679982551021042e-07,3.0273064293351296e-09
1668678504.302266,54675,1668678504,302069222,,6.615218037924997e-07,1.918560692956194e-11,-3.21771000605894e-13,-3.8379053571925904e-07,2.692995944282501e-07,3.0482530429066986e-09
1668678504.3109498,54676,1668678504,310622116,,6.377418356542885e-07,1.7744011562281014e-11,-3.0070804641793957e-13,-3.899637530927457e-07,2.7055613598204393e-07,3.068643250235226e-09
1668678504.3181763,54677,1668678504,318070591,,6.145827931169206e-07,1.638135274489728e-11,-2.806868891944004e-13,-3.9603806445138286e-07,2.717680744388376e-07,3.0884788603823398e-09
1668678504.3263693,54678,1668678504,326249429,,5.92041298399996e-07,1.5094052215577772e-11,-2.61638519920038e-13,-4.0201347720617163e-07,2.729356086412335e-07,3.1077617338633207e-09
1668678504.3347027,54679,1668678504,334087095,,5.701130223858315e-07,1.3878681113292068e-11,-2.435508152326751e-13,-4.0789001135968817e-07,2.740589415347835e-07,3.1264937848785027e-09
1668678504.3420973,54680,1668678504,341962542,,5.487927683778953e-07,1.2732002780305794e-11,-2.263579035697846e-13,-4.136676994156036e-07,2.751382801152148e-07,3.1446769936095457e-09
1668678504.3505616,54681,1668678504,350401921,,5.280745509379719e-07,1.1650902636444737e-11,-2.1006422916195115e-13,-4.193465862703032e-07,2.761738353660869e-07,3.16231338459966e-09
1668678504.3584104,54682,1668678504,358249123,,5.079516699151657e-07,1.063221416184215e-11,-1.945609823446229e-13,-4.2492672912587585e-07,2.7716582220489544e-07,3.1794050400259777e-09
1668678504.3663247,54683,1668678504,366157226,,4.884167802156436e-07,9.673078934944146e-12,-1.798918026431755e-13,-4.3040819734586094e-07,2.78114459410658e-07,3.1959540919281313e-09
1668678504.3739645,54684,1668678504,373844124,,4.694619572637584e-07,8.77064823065983e-12,-1.6594287055254726e-13,-4.357910723945352e-07,2.7901996958201303e-07,3.211962731591684e-09
1668678504.3827577,54685,1668678504,382308705,,4.510787583589454e-07,7.922191746722014e-12,-1.5271899158181947e-13,-4.410754476974254e-07,2.7988257907180105e-07,3.227433199516085e-09
1668678504.3906946,54686,1668678504,390486357,,4.3325828034227565e-07,7.1251702587228936e-12,-1.4018011564907e-13,-4.4626142854086947e-07,2.807025179218678e-07,3.2423677860350124e-09
1668678504.3991416,54687,1668678504,398900034,,4.1599121338882297e-07,6.377083454200275e-12,-1.2830309587036548e-13,-4.513491319802629e-07,2.8148001981623236e-07,3.2567688306390674e-09
1668678504.4067318,54688,1668678504,406510529,,3.9926789168747934e-07,5.675521572573775e-12,-1.1706322478496788e-13,-4.563386867226487e-07,2.822153220151422e-07,3.270638720791832e-09
1668678504.4144402,54689,1668678504,414252711,,3.830783406104665e-07,5.018185535858656e-12,-1.0645146601441143e-13,-4.6123023301116104e-07,2.829086652940882e-07,3.2839799082075144e-09
1668678504.4222343,54690,1668678504,422095723,,3.6741232061574026e-07,4.402905468918059e-12,-9.642871380489908e-14,-4.660239225257537e-07,2.8356029389264576e-07,3.2967948690317166e-09
1668678504.4304354,54691,1668678504,430256906,,5.469483141478667e-07,3.829264653282821e-12,-8.707449648725199e-14,-4.7071991934857634e-07,2.841704537511102e-07,3.3090861467507487e-09
1668678504.4383037,54692,1668678504,438108651,,1.295285194677479e-06,3.30380107203414e-12,-7.913512500746484e-14,-4.753183999459152e-07,2.847393925829663e-07,3.3208563214399914e-09
1668678504.4464753,54693,1668678504,446365959,,2.9553766916645066e-06,2.862698395013801e-12,-7.487553704401735e-14,-4.798195526264473e-07,2.852673618704593e-07,3.332108021483761e-09
1668678504.4539804,54694,1668678504,453871300,,5.841273796007491e-06,2.6144470599199214e-12,-7.907716405531519e-14,-4.842235787720212e-07,2.857546172665171e-07,3.342843921914172e-09
1668678504.4622471,54695,1668678504,462125163,,1.023978650361397e-05,2.7941327593086022e-12,-1.001664096483011e-13,-4.885306945289283e-07,2.8620141913635676e-07,3.3530667399947088e-09
1668678504.470524,54696,1668678504,470344633,,1.6412067993256317e-05,3.821965991820183e-12,-1.5162367947916534e-13,-4.927411327371399e-07,2.8660803320182027e-07,3.3627792383580566e-09
1668678504.4783177,54697,1668678504,478183675,,-0.00012061838266924544,9.240562810236722e-05,-3.961463539851167e-11,-4.968580975375061e-07,2.869777002801654e-07,3.3719838736826716e-09
1668678504.4864538,54698,1668678504,486282254,,-0.0003204758828818241,0.00022623592943767125,-2.702560869155982e-10,-5.00908639851121e-07,2.873187098543426e-07,3.3806809214033395e-09
1668678504.4945118,54699,1668678504,493831669,,-0.0019449690786265425,-0.0004016724403137934,-2.3704345181960245e-09,-5.055492753155416e-07,2.878661013443697e-07,3.388808964780582e-09
1668678504.5023382,54700,1668678504,502166853,,-0.0034336004824013695,-0.0009791249170283032,-1.8552939302744515e-08,-5.110779971766587e-07,2.887067353021382e-07,3.3963410868420585e-09
1668678504.5103552,54701,1668678504,510171909,,-0.005458309180703543,-0.0017461219014185474,-5.922650231728352e-08,-5.186357142977085e-07,2.902344110944702e-07,3.403164010144788e-09
1668678504.5184286,54702,1668678504,518283718,,-0.007659472160112679,-0.0025743920529367574,-1.2715966178409223e-07,-5.284698799270875e-07,2.9252964498749866e-07,3.4092454918172033e-09
1668678504.5265172,54703,1668678504,526170151,,-0.008637799067453603,-0.002874496518991783,-1.536442809929871e-07,-5.355757602507223e-07,2.9388110317043786e-07,3.4150838875562917e-09
1668678504.5341918,54704,1668678504,534057425,,-0.008737714291533083,-0.002903171841354265,-1.447864905432996e-07,-5.392959276807191e-07,2.940688206678815e-07,3.4207643297839985e-09
1668678504.5426664,54705,1668678504,542539280,,-0.008806851004083441,-0.0029238601838487708,-1.352479675966154e-07,-5.427925703678792e-07,2.9417464162366644e-07,3.4259734077446424e-09
1668678504.5505822,54706,1668678504,550419273,,-0.00843506276384972,-0.0028090881812176654,-1.0816208358051767e-07,-5.443905171428881e-07,2.9362624868868137e-07,3.430897684009171e-09
1668678504.5589943,54707,1668678504,558737502,,-0.007851584646118731,-0.0026300811169744456,-7.555721580765722e-08,-5.451648699188535e-07,2.927910935937258e-07,3.435432476689426e-09
1668678504.5663815,54708,1668678504,566242667,,-0.00717657394691286,-0.0024241676240865243,-4.373377310723053e-08,-5.457056580149473e-07,2.918708298246201e-07,3.4395183125257578e-09
1668678504.5740302,54709,1668678504,573831057,,-0.0064725247277568265,-0.0022107586957028787,-1.549609157701678e-08,-5.462970957519487e-07,2.9096269859118606e-07,3.443125900712274e-09
1668678504.5822213,54710,1668678504,582077799,,-0.005803755855164545,-0.0020098357047704275,7.2583746137378204e-09,-5.471481940286563e-07,2.9013841961180397e-07,3.4462327470896614e-09
1668678504.5912302,54711,1668678504,591029245,,-0.0051361230356500275,-0.001810773203859658,2.616130649609166e-08,-5.481379714975646e-07,2.8935672703438316e-07,3.448854193552342e-09
1668678504.5990665,54712,1668678504,598864586,,-0.004485668714533011,-0.0016185436982950041,4.11387579963489e-08,-5.492994219896143e-07,2.886291277211727e-07,3.4509881887898053e-09
1668678504.6065705,54713,1668678504,606390268,,-0.003859973499123663,-0.001435488245324967,5.2486655050587016e-08,-5.506296303265748e-07,2.8795486077655365e-07,3.4526370954954255e-09
1668678504.6151333,54714,1668678504,614988158,,-0.003262181900402788,-0.001262567438179762,6.064001029329486e-08,-5.521102178018254e-07,2.8732787796072255e-07,3.4538053996641116e-09
1668678504.622558,54715,1668678504,622177124,,-0.0026931307227245865,-0.0011000229302108439,6.606279477761687e-08,-5.537172885092145e-07,2.867402402758181e-07,3.454498561338004e-09
1668678504.6304803,54716,1668678504,630310743,,-0.0021538120909948377,-0.000948143272802934,6.918057804116145e-08,-5.554274903352152e-07,2.8618419951646296e-07,3.4547222769153174e-09
1668678504.6384063,54717,1668678504,638259933,,-0.001641212997286294,-0.0008059703061950856,7.042919466352748e-08,-5.572146019589737e-07,2.8565099469386946e-07,3.4544828230592683e-09
1668678504.6464713,54718,1668678504,646267989,,-0.0011544746747318027,-0.0006732144676310436,7.015502888508804e-08,-5.590578701408482e-07,2.851337455236806e-07,3.45378600545565e-09
1668678504.6543906,54719,1668678504,654206053,,-0.0006924585371773318,-0.0005862472821505602,7.791634163624524e-05,-5.609336197358718e-07,2.8462442394277474e-07,3.452638163759826e-09
1668678504.6622684,54720,1668678504,662066769,,-0.00025390941857580273,-0.00048762168187596334,0.00029803654046178953,-5.628367236910001e-07,2.841216900472408e-07,3.451043459031314e-09
1668678504.6704254,54721,1668678504,670246681,,0.00016235183250689088,-0.0003958223174010803,0.0005001748611819922,-5.647475630291559e-07,2.8361896830271635e-07,3.4490079583028403e-09
1668678504.6787612,54722,1668678504,678431809,,0.0005577587948074583,-0.0003013013517329327,0.000763985760441068,-5.666514980114638e-07,2.831114885908174e-07,3.446537186939727e-09
1668678504.6863606,54723,1668678504,686187361,,0.0009335175677559998,-0.00020878988549703515,0.000968652418672901,-5.685356888645644e-07,2.825950327036263e-07,3.443636537167269e-09
1668678504.694142,54724,1668678504,693992133,,0.001290800705329992,-0.00012060397567821374,0.001048604910286683,-5.703898262721634e-07,2.820662507903914e-07,3.44031111151194e-09
1668678504.7025065,54725,1668678504,702395257,,0.0016307229385982807,-3.914602050563274e-05,0.001120170999002252,-5.722057679540035e-07,2.815225274453774e-07,3.4365658092665174e-09
1668678504.7104702,54726,1668678504,710250459,,0.00195438851366104,3.7313937323551193e-05,0.001127438888450237,-5.739757591864588e-07,2.809613958511438e-07,3.432405499582958e-09
1668678504.7188866,54727,1668678504,718659860,,0.002406700672164413,0.00010838646547352973,0.0011266815522256374,-5.758804710568527e-07,2.8044245515459055e-07,3.4278122579972647e-09
1668678504.7263675,54728,1668678504,726254457,,0.002909190187463512,0.000174017191605191,0.001121032812574643,-5.778878227147443e-07,2.79955989213073e-07,3.4227943092671187e-09
1668678504.7339816,54729,1668678504,733874521,,0.0034293592503816597,0.00023433222837750817,0.0013296388437933702,-5.799788898847076e-07,2.794961657779396e-07,3.41735840580365e-09
1668678504.7422667,54730,1668678504,742094230,,0.003917017346985902,0.0002894225630864611,0.0015191387740764654,-5.820601810061225e-07,2.790320992696689e-07,3.411520236445975e-09
1668678504.7505293,54731,1668678504,750281762,,0.0044098868999452425,0.00033970426167519245,0.0017821380415398236,-5.841978631878226e-07,2.785859152323064e-07,3.405276432361104e-09
1668678504.7584732,54732,1668678504,758322619,,0.00489014430026379,0.0003854054747286284,0.0020692629222957898,-5.863480154541257e-07,2.78143126041712e-07,3.398636847645742e-09
1668678504.7661786,54733,1668678504,766052086,,0.005259889354873983,0.0004267607017733265,0.0023619975107779913,-5.882082597663337e-07,2.7760264841719673e-07,3.391640954197861e-09
1668678504.7738094,54734,1668678504,773696157,,0.005575989295200026,0.00046402180109735193,0.002666945121572279,-5.898880705609749e-07,2.770010197815874e-07,3.3842796655358942e-09
1668678504.7824326,54735,1668678504,782317631,,0.005873405208683164,0.0004974235361194429,0.0029425370526321108,-5.914759478938708e-07,2.763679484039049e-07,3.376546809513714e-09
1668678504.7904751,54736,1668678504,790227944,,0.006137027862833353,0.0005272122388587775,0.003211737684969052,-5.929104362393216e-07,2.756829548649091e-07,3.368453321828113e-09
1668678504.7982526,54737,1668678504,798109412,,0.006329527757980883,0.0005535994794317569,0.0033944086359165696,-5.940421911481732e-07,2.748960451006441e-07,3.360019271494985e-09
1668678504.8063412,54738,1668678504,806137611,,0.006483018767516037,0.0005768045785330158,0.0035247652309457417,-5.94968190189833e-07,2.740398150396974e-07,3.3512372703270454e-09
1668678504.8140237,54739,1668678504,813838232,,0.006578661412255805,0.0005970272668396177,0.0035830914202859025,-5.956083825379955e-07,2.7308751183717527e-07,3.3421192185273396e-09
1668678504.8227925,54740,1668678504,822548921,,0.006672994318479187,0.000614473540432411,0.0036297411726781896,-5.961706711225855e-07,2.7210901256110383e-07,3.332646589249144e-09
1668678504.8305268,54741,1668678504,830339277,,0.006738927897140295,0.0006293146358022997,0.0035306418361205722,-5.96550393281914e-07,2.7106933692881523e-07,3.3228341293767283e-09
1668678504.838597,54742,1668678504,838331291,,0.0067918627720876075,0.0006417353095070836,0.0033610356291623217,-5.968055405811173e-07,2.6998808111904733e-07,3.3126796063209785e-09
1668678504.846863,54743,1668678504,846471390,,0.006839931784823054,0.0006519030028805409,0.0031061057650675285,-5.969676664218916e-07,2.688759777415067e-07,3.3021837920338415e-09
1668678504.8554897,54744,1668678504,854153446,,0.006887422656689706,0.0006599808794501539,0.0028164668427371775,-5.970538813001864e-07,2.67738915348697e-07,3.291349083903161e-09
1668678504.862297,54745,1668678504,862118927,,0.006938730832825934,0.0006661222515968563,0.002544158199938756,-5.970820794904292e-07,2.6658304747394896e-07,3.28017794350155e-09
1668678504.8703218,54746,1668678504,870208960,,0.006991692394576066,0.0006704661101018048,0.0022625680941019883,-5.97044233955035e-07,2.654058260063432e-07,3.268675354689554e-09
1668678504.8784046,54747,1668678504,878207513,,0.007047468674705722,0.0006731468083407484,0.0019851254643233015,-5.969455945177321e-07,2.642091583976425e-07,3.256845067939329e-09
1668678504.8862638,54748,1668678504,886155453,,0.007106647398125161,0.0006742906930704944,0.0017184728842052836,-5.967892100216811e-07,2.6299421269844773e-07,3.2446910731148693e-09
1668678504.894326,54749,1668678504,894170033,,0.007169511092374729,0.0006740168516817725,0.0014656820046431076,-5.965769675125095e-07,2.617617661049103e-07,3.2322174763066425e-09
1668678504.902222,54750,1668678504,902052901,,0.007236179425374162,0.0006724380441790312,0.001245868626831487,-5.96310144541958e-07,2.605123902113429e-07,3.2194284651371197e-09
1668678504.910542,54751,1668678504,910303596,,0.007306773084134422,0.0006696596456154308,0.0010409660339231446,-5.959900756182684e-07,2.592466747322207e-07,3.2063282376371127e-09
1668678504.9186985,54752,1668678504,918428664,,0.007381138445406816,0.0006657817857157523,0.0008586218575907557,-5.956169828410146e-07,2.5796483464363834e-07,3.1929211045944594e-09
1668678504.9263709,54753,1668678504,926219917,,0.007459257264040646,0.0006608987428177067,0.0007050398136363626,-5.951916811989795e-07,2.566672828500612e-07,3.1792113178163994e-09
1668678504.9343648,54754,1668678504,934190204,,0.007568290451161895,0.000655103241688643,0.0005678044128540595,-5.9483313387248e-07,2.5539413393382664e-07,3.165194112017544e-09
1668678504.942128,54755,1668678504,942002964,,0.007693164838190418,0.0006484765418099491,0.0004432465486513828,-5.944800457158668e-07,2.5412495224501753e-07,3.15087913226042e-09
1668678504.950593,54756,1668678504,950378954,,0.007818386234746065,0.0006410949954001967,0.0003276560740858515,-5.940661543409585e-07,2.5283761429504593e-07,3.1362759143199748e-09
1668678504.9585044,54757,1668678504,958320182,,0.007925280662089043,0.0006330295848384958,0.00029215596229667393,-5.935066119730882e-07,2.515037266183004e-07,3.121394724289739e-09
1668678504.9664702,54758,1668678504,966273012,,0.008024277482172826,0.0006243516090398883,0.00029676715405085446,-5.928471937320212e-07,2.501387904867863e-07,3.106236195343781e-09
1668678504.9749775,54759,1668678504,974765759,,0.008120110540278702,0.000615127205501478,0.00041516363570047096,-5.921094585376898e-07,2.487501755177898e-07,3.090802971200679e-09
1668678504.9822655,54760,1668678504,982092506,,0.008216075282914587,0.0006054188608572163,0.0005620303604296694,-5.913091489728956e-07,2.4734329951640443e-07,3.075098202118265e-09
1668678504.9906385,54761,1668678504,990412723,,0.00831555820910158,0.0005952845594390502,0.0006961843226058821,-5.90463123427621e-07,2.459239582465098e-07,3.059125140703056e-09
1668678504.9983773,54762,1668678504,998226357,,0.008416773760666595,0.0005847777449516096,0.0008387993373189384,-5.895637361377038e-07,2.444897075477804e-07,3.0428886372418917e-09
1668678505.0063038,54763,1668678505,6166868,,0.008520565788147336,0.0005739469642710761,0.0008346476773802615,-5.886159661272543e-07,2.430423470273918e-07,3.026392731905747e-09
1668678505.0144913,54764,1668678505,14355744,,0.008627331119545067,0.0005628395658205779,0.0007337376531410548,-5.876227468650208e-07,2.4158298787905477e-07,3.0096416522157332e-09
1668678505.0222242,54765,1668678505,22034399,,0.00873723057414343,0.000551500296041043,0.0005888583228051299,-5.865859178961889e-07,2.401123724745367e-07,2.9926396777346653e-09
1668678505.0303147,54766,1668678505,30207473,,0.008850433358377345,0.0005399704532760551,0.00045426476359378343,-5.855074169767039e-07,2.3863127525776883e-07,2.9753911175156578e-09
1668678505.0383534,54767,1668678505,38175500,,0.008966704649053739,0.0005282877487749547,0.00030269394716629373,-5.843871345719514e-07,2.371397806222894e-07,2.9579003881646804e-09
1668678505.0465388,54768,1668678505,46369015,,0.00908601730958656,0.0005164874381894307,0.0001483673603376849,-5.832260179974402e-07,2.3563832719607344e-07,2.9401718577154456e-09
1668678505.0543692,54769,1668678505,54170227,,0.009208310662282709,0.0005046020701957379,-1.5364840714463653e-06,-5.82024843464053e-07,2.3412729475297007e-07,2.9222098959363896e-09
1668678505.0620356,54770,1668678505,61895518,,0.009333507152397407,0.0004926617258600562,-0.00014354963075809054,-5.807842942470308e-07,2.3260703046926005e-07,2.9040188951473533e-09
1668678505.0705497,54771,1668678505,70340308,,0.009461531577081163,0.00048069416925007884,-0.00027405880312891053,-5.795050595872064e-07,2.310778822222151e-07,2.885603232055667e-09
1668678505.0782986,54772,1668678505,78189215,,0.009592278859089837,0.0004687250993695124,-0.0003958089020614923,-5.781876533453978e-07,2.295401374975822e-07,2.866967319797853e-09
1668678505.0864954,54773,1668678505,86266346,,0.009725661946720018,0.0004567781592126028,-0.0005082660478102007,-5.768326741168752e-07,2.2799411092074874e-07,2.8481155281423476e-09
1668678505.0942636,54774,1668678505,94067458,,0.00986159296277697,0.0004448750921816729,-0.0006114211135130107,-5.754407014599039e-07,2.2644010937947646e-07,2.8290522650215033e-09
1668678505.1025472,54775,1668678505,102377206,,0.009999986065494331,0.00043303584191051555,-0.0007052196306979156,-5.740123109975972e-07,2.2487843703980015e-07,2.8097819192857143e-09
1668678505.1103837,54776,1668678505,110199165,,0.010140752690713059,0.00042127868200374967,-0.0007905258966569904,-5.725480455535671e-07,2.2330938567456486e-07,2.790308876315928e-09
1668678505.1186242,54777,1668678505,118412789,,0.010283808646975116,0.0004096202778217123,-0.0008676966400146062,-5.710484557056939e-07,2.2173324828002935e-07,2.770637538840326e-09
1668678505.126762,54778,1668678505,126563965,,0.010429071329681324,0.0003980757925053399,-0.0009371452037950641,-5.695140832881739e-07,2.2015031353759878e-07,2.7507722905051324e-09
1668678505.1341898,54779,1668678505,134003919,,0.010562489372628669,0.0003866560446253211,-0.0009993038208925833,-5.678587865306139e-07,2.1853165534980751e-07,2.730718783039432e-09
1668678505.142498,54780,1668678505,142330458,,0.010699085889016984,0.00037537677670009375,-0.0010545800276222205,-5.661751147692236e-07,2.1690854894217473e-07,2.7104795699561812e-09
1668678505.1505783,54781,1668678505,150373100,,0.010845298656673327,0.0003642505378068508,-0.0011034329026959942,-5.645053123675412e-07,2.1529533672580252e-07,2.6900586792832915e-09
1668678505.1583962,54782,1668678505,158230458,,0.010997360533279555,0.0003532864378528989,-0.0011462621469855543,-5.628276854395265e-07,2.1368481742471126e-07,2.6694610306965405e-09
1668678505.1665394,54783,1668678505,166400776,,0.011125039431710334,0.00034248665916480144,-0.0011834530478576062,-5.609458963603105e-07,2.1201090361300462e-07,2.6486917346912886e-09
1668678505.1739118,54784,1668678505,173814549,,0.011207375232578552,0.00033185465677771774,-0.0012153744637343538,-5.587171662852782e-07,2.102255122823503e-07,2.627753452333348e-09
1668678505.1823823,54785,1668678505,182274302,,0.011297548479350087,0.0003214098312595495,-0.0012423763881168283,-5.564910027169455e-07,2.084465148060005e-07,2.6066487822384854e-09
1668678505.1903236,54786,1668678505,190194521,,0.01136904710938893,0.0003111520449606048,-0.0012647960594370448,-5.540907519414656e-07,2.0661444406587645e-07,2.5853811105869262e-09
1668678505.1984117,54787,1668678505,198158087,,0.011499478799175136,0.0003011043514702311,-0.0012829506924627167,-5.520409243143837e-07,2.0490623712371425e-07,2.5639585767012196e-09
1668678505.2063074,54788,1668678505,206144422,,0.011660854948107134,0.0002912639375000239,-0.0012971408832660603,-5.501599170616483e-07,2.032608285591612e-07,2.542386714349254e-09
1668678505.2142105,54789,1668678505,213931270,,0.011838381529999876,0.00028163066319872483,-0.0013076515732969992,-5.483522775329727e-07,2.016461633850804e-07,2.5206701899371797e-09
1668678505.2223272,54790,1668678505,222156600,,0.012016868977004222,0.0002722037229562019,-0.0013147524162234847,-5.465150618056292e-07,2.0002763252864857e-07,2.4988122751534725e-09
1668678505.230499,54791,1668678505,230329462,,0.012203642136199329,0.0002629871988580204,-0.0013186989993276194,-5.44701829458021e-07,1.9842339189643987e-07,2.4768185349910432e-09
1668678505.2384264,54792,1668678505,238216852,,0.012394581425876093,0.00025398173502332673,-0.0013197326760280962,-5.428852720808165e-07,1.9682432860515476e-07,2.4546930946223178e-09
1668678505.246588,54793,1668678505,246417238,,0.012587519988728294,0.0002451879353238532,-0.0013180815157069396,-5.41050972572741e-07,1.9522567014097466e-07,2.432440068811381e-09
1668678505.2541516,54794,1668678505,253929136,,0.012781323390838626,0.00023660616720176325,-0.0013139608845711204,-5.391914293516212e-07,1.936249719181331e-07,2.410063613955682e-09
1668678505.2624047,54795,1668678505,262283173,,0.012974824804817991,0.0002282363251383696,-0.0013075740006321256,-5.372984203858401e-07,1.920195426252636e-07,2.3875677476747903e-09
1668678505.2706223,54796,1668678505,270406708,,0.013168620225857302,0.00022007833548720143,-0.0012991125360520453,-5.353769874129875e-07,1.9041116338454518e-07,2.3649568449413128e-09
1668678505.2782903,54797,1668678505,278142349,,0.013362407620579804,0.0002121314838529117,-0.001288757090105602,-5.334253106373114e-07,1.8879929941911094e-07,2.3422350829693794e-09
1668678505.2864742,54798,1668678505,286327062,,0.01355603674477214,0.00020439473160297248,-0.0012766777316770583,-5.314426660679304e-07,1.871837838040018e-07,2.3194066181564388e-09
1668678505.2942753,54799,1668678505,294028969,,0.013749437087071178,0.0001968667267846249,-0.0012630344943556507,-5.294289195586241e-07,1.8556464701895972e-07,2.296475627716621e-09
1668678505.3029227,54800,1668678505,302572230,,0.013942534486753888,0.00018954581003230783,-0.0012479778517890821,-5.273838797211731e-07,1.8394189864632616e-07,2.273446226414011e-09
1668678505.3112268,54801,1668678505,311090867,,0.014135391852900706,0.0001824300814034616,-0.0012316491796777085,-5.253084772060721e-07,1.8231592553333937e-07,2.2503226053405267e-09
1668678505.319238,54802,1668678505,319018813,,0.014328000717832927,0.00017551736663185054,-0.0012141811908881414,-5.232030629544941e-07,1.8068691754678486e-07,2.2271088792602534e-09
1668678505.3271701,54803,1668678505,326931626,,0.01452036328011873,0.00016880447526034726,-0.0011768941589085286,-5.210680806532744e-07,1.7905509445411772e-07,2.2038091664067228e-09
1668678505.3344297,54804,1668678505,334286302,,0.014807740243220287,0.00016231648191426774,-0.0011147716886187055,-5.197389743383045e-07,1.7770263314418082e-07,2.1804880644127334e-09
1668678505.3424394,54805,1668678505,342233653,,0.015087171764714451,0.00015602041315519646,-0.0010553586415532974,-5.18333397724627e-07,1.7633186671721889e-07,2.1570925982927758e-09
1668678505.3503158,54806,1668678505,350188431,,0.015409523075620928,0.00014992830380300786,-0.000985082949584283,-5.173126853304363e-07,1.7509865588374602e-07,2.133663773440375e-09
1668678505.3585508,54807,1668678505,358331495,,0.01580946889776804,9.846357732685022e-05,-0.0008238509387214438,-5.171665942214725e-07,1.741686070364564e-07,2.1102530833871924e-09
1668678505.3662653,54808,1668678505,366088156,,0.01623864251467597,2.674305989759201e-05,-0.0006236901850781745,-5.174081943407505e-07,1.7337758736199818e-07,2.0868335219581535e-09
1668678505.3739662,54809,1668678505,373851766,,0.016788018365536228,-0.0001690970392031339,-0.0002555596074338603,-5.193151916846686e-07,1.7315742463247952e-07,2.063536393842602e-09
1668678505.3825839,54810,1668678505,382408442,,0.017306705571001987,-0.0003491293134113635,8.398987858576919e-05,-5.209965291203737e-07,1.7286986371122404e-07,2.04020370736524e-09
1668678505.3904643,54811,1668678505,390245688,,0.017904336769411545,-0.0005891592644675178,0.0006324712569753284,-5.238599455734854e-07,1.729905602823427e-07,2.016985200387067e-09
1668678505.3984566,54812,1668678505,398237937,,0.01852310136554617,-0.0008486067661114793,0.0012612302853424449,-5.272180915028685e-07,1.7328775222039388e-07,1.9938305451105975e-09
1668678505.4065328,54813,1668678505,406331792,,0.019288069543436683,-0.001261006769192514,0.002132059005193296,-5.3307156676959e-07,1.7443776527262863e-07,1.9709846393878294e-09
1668678505.4143295,54814,1668678505,414164562,,0.02018389731863719,-0.0017861176057528886,0.0031765159365665513,-5.4135904805765e-07,1.7642087004861653e-07,1.9484905147693077e-09
1668678505.4223745,54815,1668678505,422112615,,0.02111311922335473,-0.002344366424690437,0.004262710761400028,-5.507731396295335e-07,1.7879623448295318e-07,1.9262370101746917e-09
1668678505.430456,54816,1668678505,430309397,,0.021975341183677204,-0.002853869040653675,0.005254683829095341,-5.59657235441166e-07,1.8100454734592923e-07,1.904038302025235e-09
1668678505.438311,54817,1668678505,438154663,,0.022901163820080797,-0.0034691168021816847,0.006322956029345622,-5.704388733187931e-07,1.838663539172709e-07,1.8822353328729058e-09
1668678505.4467452,54818,1668678505,446596213,,0.023824670798043693,-0.004108825337459058,0.007381724642741075,-5.819118611620857e-07,1.8697487435084294e-07,1.8607045418339574e-09
1668678505.454559,54819,1668678505,454308443,,0.02474497096386204,-0.004742348705113675,0.008354479312772596,-5.939070870061608e-07,1.9027347017896643e-07,1.8394502032670346e-09
1668678505.462175,54820,1668678505,461932642,,0.02563199373857464,-0.005340264449261755,0.009210086465595685,-6.057593755490263e-07,1.935377719195549e-07,1.8183929431647705e-09
1668678505.470389,54821,1668678505,470270665,,0.026448263515036794,-0.0058804233954166665,0.009979920062302952,-6.166226123804843e-07,1.9648198915490998e-07,1.7974026988998304e-09
1668678505.478359,54822,1668678505,478230528,,0.027218569253233432,-0.0063788045621537125,0.010656761893266255,-6.268645550408839e-07,1.992303111576126e-07,1.7765356755128359e-09
1668678505.4865026,54823,1668678505,486122408,,0.027882056941586658,-0.006774154157623287,0.01119508289132069,-6.349303220634802e-07,2.0125710791841795e-07,1.755502444800161e-09
1668678505.4942992,54824,1668678505,494163948,,0.028450870891542995,-0.0070783402053382904,0.01161574384538585,-6.409271216416593e-07,2.0259790841823354e-07,1.7342803582121036e-09
1668678505.5025225,54825,1668678505,502370044,,0.02894972128646831,-0.007319845206506463,0.01195225495625196,-6.453574774003472e-07,2.034218582517254e-07,1.712927216734883e-09
1668678505.5104997,54826,1668678505,510354927,,0.029403772376817246,-0.0075278643837906065,0.012238592769120512,-6.488011683752513e-07,2.0392439354917184e-07,1.6915325320998598e-09
1668678505.5193887,54827,1668678505,519176636,,0.029763695815203255,-0.007602855175222867,0.012303509910435302,-6.496263146358152e-07,2.0355351045518721e-07,1.66971747539435e-09
1668678505.5275886,54828,1668678505,527400568,,0.03006117731766529,-0.007603233323642808,0.012246582324683687,-6.487504501629065e-07,2.0261826946484963e-07,1.647627388690065e-09
1668678505.534488,54829,1668678505,534245765,,0.030265598065338285,-0.007607791685070056,0.012114841871414338,-6.460456667422318e-07,2.0107469436442954e-07,1.6251899964681016e-09
1668678505.5431728,54830,1668678505,542960884,,0.030447363957477314,-0.007597000295598266,0.011969610198746069,-6.427574091579327e-07,1.9934301792937092e-07,1.6026681717851154e-09
1668678505.5512922,54831,1668678505,551000025,,0.030564082617583276,-0.0075835087897558945,0.011824609502381308,-6.381210535890986e-07,1.9716449941426482e-07,1.5798528874011453e-09
1668678505.5589411,54832,1668678505,558804845,,0.0306417696105377,-0.0075621931865637445,0.011674334038797344,-6.326186902232698e-07,1.9470151150819022e-07,1.5568389216680245e-09
1668678505.5672364,54833,1668678505,567094184,,0.030638559930051497,-0.007537740132754202,0.011513170293544869,-6.254474739703412e-07,1.9168222688704245e-07,1.5333836145270396e-09
1668678505.5745199,54834,1668678505,574367538,,0.030631472199103737,-0.007526053958652187,0.011304654551074295,-6.182589164924939e-07,1.8866423612327703e-07,1.5099154149211813e-09
1668678505.5832705,54835,1668678505,583088023,,0.03061954704682635,-0.007500449944759341,0.011090313213454437,-6.108620641621433e-07,1.8558299614852142e-07,1.4863809072451772e-09
1668678505.5911906,54836,1668678505,591045688,,0.030604508427362356,-0.007475644040171866,0.010851203073790333,-6.03389528136696e-07,1.8248327004859177e-07,1.4628179847986367e-09
1668678505.598911,54837,1668678505,598777816,,0.03060728016738565,-0.007439680735953265,0.010481990139162506,-5.961825551464069e-07,1.7948043120512638e-07,1.439335012287657e-09
1668678505.6076503,54838,1668678505,607493895,,0.03061665605492892,-0.007392913419882675,0.010053773646666478,-5.890192989959991e-07,1.7649962077287418e-07,1.4158709829570348e-09
1668678505.6150362,54839,1668678505,614705094,,0.03068823988691099,-0.00739273462333253,0.0096309289709713,-5.833770529478015e-07,1.7404041911871053e-07,1.3929221109876266e-09
1668678505.6233547,54840,1668678505,623139577,,0.03075047594245183,-0.007377985506566141,0.009222498601727054,-5.774274836712148e-07,1.7148534396053267e-07,1.369908783632745e-09
1668678505.6303463,54841,1668678505,630202678,,0.030838356021036184,-0.0074100771874907306,0.008877027807952131,-5.722683782216176e-07,1.6920548948019982e-07,1.3472116894286401e-09
1668678505.6382844,54842,1668678505,638159285,,0.030934056580355338,-0.007456832253457053,0.008567218932432683,-5.673335945823336e-07,1.6700981557427053e-07,1.3246520338960899e-09
1668678505.6464927,54843,1668678505,646352019,,0.031063946113892592,-0.007544481523377535,0.008320674475403444,-5.633255570961751e-07,1.651359910353773e-07,1.3024998579691527e-09
1668678505.6541758,54844,1668678505,654051559,,0.031264574374779,-0.00767638027967011,0.008099374713013323,-5.610130990139493e-07,1.6384449246951635e-07,1.2810774524529833e-09
1668678505.6620433,54845,1668678505,661922252,,0.031490745391601724,-0.007817650785458445,0.00789135358891251,-5.592633850494129e-07,1.6275307747684598e-07,1.259995739688602e-09
1668678505.670534,54846,1668678505,670418838,,0.031695927579942475,-0.007932350453545883,0.007684201117497395,-5.568886450496081e-07,1.6146037094431562e-07,1.2388005760088916e-09
1668678505.6788065,54847,1668678505,678247703,,0.03181090082332266,-0.008009042963946422,0.007476997176697923,-5.523701671797496e-07,1.5945248129983422e-07,1.2168559077041508e-09
1668678505.686364,54848,1668678505,686231198,,0.031876289442916796,-0.008056899244489256,0.007270687006106243,-5.466037540605042e-07,1.5703130446832747e-07,1.1944775030192645e-09
1668678505.6942558,54849,1668678505,694075104,,0.031913450185332884,-0.008039493860202666,0.007050095091636384,-5.397955070400996e-07,1.5426592127332217e-07,1.1717198877825297e-09
1668678505.7022495,54850,1668678505,702042046,,0.03194516774588898,-0.008007607403927357,0.006833026412428244,-5.327639282465897e-07,1.514326312850641e-07,1.1489140749887383e-09
1668678505.7103605,54851,1668678505,710138703,,0.031935978356188666,-0.00794765269609934,0.006577527807720318,-5.24682966801613e-07,1.4825194027045727e-07,1.1256855031449575e-09
1668678505.71849,54852,1668678505,718293051,,0.03190646209251905,-0.007869015317200087,0.006306956436748909,-5.160548922052491e-07,1.4489319189207525e-07,1.1022358303858226e-09
1668678505.7263331,54853,1668678505,726114257,,0.03190119183772925,-0.007775767213314166,0.005965451769062714,-5.078410065788991e-07,1.4168125185304997e-07,1.0790012425210271e-09
1668678505.7339964,54854,1668678505,733878734,,0.031879906574954056,-0.0076462455971550705,0.005596572708050834,-4.990606112113046e-07,1.3828461944195153e-07,1.055527540372303e-09
1668678505.7426932,54855,1668678505,742259510,,0.03185965904112539,-0.007511867787707434,0.0052458035135489935,-4.902816274886539e-07,1.348951031044255e-07,1.0320772431127168e-09
1668678505.7505302,54856,1668678505,750396374,,0.03183255476400636,-0.007358378438170702,0.004889876577371441,-4.812494811219431e-07,1.3142658924982127e-07,1.0085258600467384e-09
1668678505.7586768,54857,1668678505,758321337,,0.031769639502276535,-0.007108895851610597,0.00434677978480225,-4.7087535039647046e-07,1.2751062844745115e-07,9.843158718658707e-10
1668678505.7669926,54858,1668678505,766686086,,0.03169221654311973,-0.006815508149196817,0.0037292424504182654,-4.599620422382619e-07,1.234181015653986e-07,9.598250874653935e-10
1668678505.7741895,54859,1668678505,774088243,,0.031560541570903114,-0.006524142880201772,0.003039763693748291,-4.4800767713497596e-07,1.1897894818544211e-07,9.347756041444555e-10
1668678505.782432,54860,1668678505,782293764,,0.0314264475489238,-0.006212692958323631,0.0023155761009396036,-4.3595204941431235e-07,1.1451057097705032e-07,9.096432287969414e-10
1668678505.7911248,54861,1668678505,790911244,,0.03130534929031176,-0.005913568802120332,0.001644050632329886,-4.24315094004282e-07,1.1018882463127537e-07,8.847108323717379e-10
1668678505.7983413,54862,1668678505,798105005,,0.0311889623105485,-0.005610557362176395,0.0009783081776903186,-4.128211048183431e-07,1.0592064527597048e-07,8.598393039238594e-10
1668678505.8063712,54863,1668678505,806107009,,0.031014541345480033,-0.005244405137743089,0.000327650145833218,-3.9985721180885387e-07,1.011604061347364e-07,8.341244986387331e-10
1668678505.8145177,54864,1668678505,814303007,,0.03080365515526008,-0.004848654356922714,-0.00030985137573235277,-3.861058969328846e-07,9.613828641313014e-08,8.079186902820723e-10
1668678505.8219962,54865,1668678505,821854763,,0.03058559257336126,-0.004449208493347093,-0.0009163549012742663,-3.723282301779573e-07,9.11114206450861e-08,7.816458036380425e-10
1668678505.830298,54866,1668678505,830166616,,0.030390589963522473,-0.004072521791566545,-0.0014731238625544307,-3.592706128831367e-07,8.633237763523358e-08,7.557492409659972e-10
1668678505.8384862,54867,1668678505,838318272,,0.030242832908106674,-0.00375880466155082,-0.002053004039046063,-3.476099513838771e-07,8.203058565986292e-08,7.306575761090173e-10
1668678505.8465269,54868,1668678505,846299145,,0.030127248633034998,-0.0034843273515594393,-0.0026200059445055284,-3.368793104572155e-07,7.804871300035737e-08,7.0612564406769e-10
1668678505.8544073,54869,1668678505,854281682,,0.03007804029986401,-0.0033154000607855307,-0.0031025754441266424,-3.2808704678499636e-07,7.47284471128238e-08,6.828039245121431e-10
1668678505.8621733,54870,1668678505,861953149,,0.030052881194436862,-0.0032456737271618847,-0.0034990310357387133,-3.203609214886562e-07,7.177550349055963e-08,6.601981669684953e-10
1668678505.8701463,54871,1668678505,870016465,,0.03003832370933256,-0.003175047446913713,-0.00385725848618097,-3.128520208727794e-07,6.89030595312206e-08,6.377977243565702e-10
1668678505.878326,54872,1668678505,878226598,,0.03003390851262742,-0.003103732750421183,-0.004179571965503638,-3.0555160061092237e-07,6.610823479716484e-08,6.15603956699573e-10
1668678505.8864505,54873,1668678505,886240643,,0.03004548313833992,-0.0030808325142525524,-0.004446011322884892,-2.9885202301716506e-07,6.352389900058687e-08,5.938802435934143e-10
1668678505.894263,54874,1668678505,893967089,,0.030018985728161023,-0.003077382824865961,-0.0046629901398595585,-2.9156333701844603e-07,6.07475545975119e-08,5.718547232969051e-10
1668678505.9024487,54875,1668678505,902254302,,0.030004655343112866,-0.003068129942193754,-0.00485362675050174,-2.844907393787931e-07,5.805143504789001e-08,5.500537941793837e-10
1668678505.9108276,54876,1668678505,910686490,,0.02997708728013657,-0.003066189739724967,-0.005009320990581149,-2.7723109108682923e-07,5.52991600059026e-08,5.28209774530719e-10
1668678505.918586,54877,1668678505,918437885,,0.029941189595967286,-0.0030817986599199335,-0.005133136387233101,-2.699377873152035e-07,5.2542535783394254e-08,5.064244232300119e-10
1668678505.926559,54878,1668678505,926394276,,0.029908068262652708,-0.003102576085404919,-0.005232010696168116,-2.6274925337679486e-07,4.9828373306810836e-08,4.847944198860255e-10
1668678505.9344468,54879,1668678505,934274925,,0.02991190392908349,-0.003132249752688134,-0.005321317674247328,-2.5632790456061975e-07,4.738092010598584e-08,4.6379176887878515e-10
1668678505.9424212,54880,1668678505,942324164,,0.029927455403971646,-0.003153395136601055,-0.005393071412797698,-2.500954451345764e-07,4.500474072425577e-08,4.4302372881332985e-10
1668678505.9504783,54881,1668678505,950336034,,0.029972099760865532,-0.003204089940021463,-0.0054035968382543705,-2.4459610416130515e-07,4.288412049145533e-08,4.228904518233101e-10
1668678505.958757,54882,1668678505,958607399,,0.030035250722688547,-0.0032642315473495427,-0.005378698302410558,-2.39513438371323e-07,4.091224034140535e-08,4.0318021837792983e-10
1668678505.9665022,54883,1668678505,966226165,,0.030021554203688787,-0.003275446338786096,-0.005325437315575611,-2.3271109692349877e-07,3.8366040977207486e-08,3.823188918228304e-10
1668678505.9740915,54884,1668678505,973943332,,0.030019911814074547,-0.0032818815371164502,-0.005255149510344105,-2.261328616080349e-07,3.590273122723586e-08,3.6172159711966856e-10
1668678505.9823608,54885,1668678505,982183053,,0.03003193097345011,-0.003281326623286964,-0.005180048570992254,-2.197958275734161e-07,3.352816572120554e-08,3.414079158270411e-10
1668678505.990353,54886,1668678505,990234578,,0.030055765951692976,-0.003275715593095574,-0.0050951299643283285,-2.1367558112125743e-07,3.123415314061628e-08,3.2136609345867484e-10
1668678505.9982374,54887,1668678505,998077329,,0.030239012286272713,-0.0033366623680850293,-0.0050184798187217295,-2.109795244283649e-07,3.010664753047218e-08,3.0409735840564167e-10
1668678506.0065336,54888,1668678506,6369024,,0.030499767139125767,-0.0034246767456107786,-0.004944257382711476,-2.099418710052722e-07,2.9549347967854425e-08,2.883051505864209e-10
1668678506.0140612,54889,1668678506,13909857,,0.030798260205311147,-0.0035515950748775007,-0.004782123955834973,-2.0989159749969883e-07,2.933579665623763e-08,2.7350192249864236e-10
1668678506.0230675,54890,1668678506,22903818,,0.031086873738576704,-0.0036614816596022685,-0.004623366498432337,-2.0958992981011827e-07,2.904702687471332e-08,2.587195041536816e-10
1668678506.0307896,54891,1668678506,30503750,,0.0313926393385097,-0.0037789390008821327,-0.004423748581039407,-2.0970999121955455e-07,2.8910802821408357e-08,2.445009819607158e-10
1668678506.0394602,54892,1668678506,39192252,,0.03170160174038714,-0.003891974410878651,-0.004207766764312922,-2.0990984947379544e-07,2.8811541773676383e-08,2.3057863257625044e-10
1668678506.0465868,54893,1668678506,46267875,,0.03190547023012051,-0.00396844773081933,-0.0040030825821404875,-2.0781233641607678e-07,2.7944463455676846e-08,2.149769945392066e-10
1668678506.0543106,54894,1668678506,54095243,,0.031982790783687334,-0.003996484542333696,-0.003823069663288579,-2.0287934102293905e-07,2.6126272298148887e-08,1.9717894678139558e-10
1668678506.0631464,54895,1668678506,62916711,,0.03206707467108262,-0.004014416406171487,-0.003649737682508094,-1.9804398575300154e-07,2.4348605937246984e-08,1.7960252729487536e-10
1668678506.0704098,54896,1668678506,70274763,,0.03209265841637828,-0.0040047491910412715,-0.0034915754182507828,-1.918662403182711e-07,2.212391352540352e-08,1.6101061456330612e-10
1668678506.0790663,54897,1668678506,78830545,,0.03209866166724556,-0.003916696400530553,-0.0033749127068172817,-1.848433071157318e-07,1.9619825482580094e-08,1.4179780960521526e-10
1668678506.0900967,54898,1668678506,89813055,,0.03210161728257627,-0.0037902207487264055,-0.0032798902252224554,-1.775620576198694e-07,1.703457767248187e-08,1.2245655184317528e-10
1668678506.094527,54899,1668678506,94291828,,0.03212313743793385,-0.0036176952607690333,-0.0032343726518743532,-1.7042039062695235e-07,1.4502716658669479e-08,1.0333344596658023e-10
1668678506.1026363,54900,1668678506,102384536,,0.032194165867251476,-0.003403923113882196,-0.0032048465770997017,-1.6407609427631373e-07,1.2246988682516544e-08,8.502383519459755e-11
1668678506.110405,54901,1668678506,110275897,,0.03227427545632192,-0.0032003215486286793,-0.0031713330721719153,-1.5801216711914005e-07,1.0092675328072717e-08,6.708061883742289e-11
1668678506.11815,54902,1668678506,118055837,,0.03238229943396358,-0.0029812148660976934,-0.0031440414803103876,-1.5245684093238756e-07,8.117144485427288e-09,4.972128958558031e-11
1668678506.1267345,54903,1668678506,126517984,,0.03245733274124158,-0.0027813426043765102,-0.003128518563969112,-1.463767762113809e-07,5.970683413609665e-09,3.2001588878838305e-11
1668678506.134107,54904,1668678506,133911941,,0.03251769731237379,-0.0026003377905499296,-0.003116280777488947,-1.4014574398717302e-07,3.779546809638129e-09,1.425659590381656e-11
