Time,header.seq,header.stamp.secs,header.stamp.nsecs,header.frame_id,pose.position.x,pose.position.y,pose.position.z,pose.orientation.x,pose.orientation.y,pose.orientation.z,pose.orientation.w
1668678503.5188708,54577,1668678503,518760210,,-0.09533108475558878,-0.6129993763069876,0.06373195599973708,0.9955579644175927,0.09353956994435857,-0.004372335255451895,0.009776043358006099
1668678503.5272777,54578,1668678503,527088874,,-0.09533123655245088,-0.6129993762938318,0.06373195599960425,0.9955579644444748,0.09353956994597622,-0.004372334706065464,0.009776040850676257
1668678503.5347457,54579,1668678503,534515331,,-0.09533137744725026,-0.6129993762809829,0.06373195599947341,0.9955579644707013,0.09353956994786682,-0.004372334184388901,0.009776038395083592
1668678503.543393,54580,1668678503,542866394,,-0.09533150802346897,-0.6129993762684421,0.06373195599934481,0.9955579644962743,0.09353956995002749,-0.004372333690269127,0.009776035991132033
1668678503.550658,54581,1668678503,550545629,,-0.09533162883883974,-0.6129993762562088,0.06373195599921856,0.9955579645211958,0.09353956995245595,-0.004372333223550802,0.009776033638719595
1668678503.5596082,54582,1668678503,559132229,,-0.09533174042628115,-0.6129993762442832,0.06373195599909433,0.9955579645454675,0.09353956995515,-0.004372332784075948,0.00977603133773807
1668678503.5673206,54583,1668678503,567039749,,-0.09533184329480768,-0.6129993762326633,0.06373195599897256,0.9955579645690918,0.09353956995810679,-0.004372332371684795,0.009776029088073896
1668678503.5745893,54584,1668678503,574459814,,-0.09533193793041295,-0.6129993762213481,0.06373195599885313,0.9955579645920707,0.0935395699613239,-0.0043723319862150846,0.009776026889607861
1668678503.582332,54585,1668678503,582197576,,-0.09533202479693127,-0.6129993762103355,0.06373195599873623,0.9955579646144063,0.09353956996479904,-0.004372331627502588,0.009776024742215205
1668678503.5905755,54586,1668678503,590439149,,-0.09533210433687297,-0.6129993761996232,0.06373195599862169,0.9955579646361007,0.09353956996852976,-0.0043723312953808284,0.009776022645765143
1668678503.5984445,54587,1668678503,598207691,,-0.09533217697223637,-0.6129993761892081,0.06373195599850978,0.9955579646571564,0.09353956997251354,-0.004372330989681329,0.009776020600121886
1668678503.6066155,54588,1668678503,606426592,,-0.09533224310529652,-0.6129993761790871,0.06373195599840051,0.9955579646775758,0.09353956997674762,-0.00437233071023365,0.009776018605144349
1668678503.6139624,54589,1668678503,613854735,,-0.09533230311936934,-0.612999376169257,0.06373195599829351,0.9955579646973614,0.09353956998122984,-0.004372330456865007,0.009776016660685467
1668678503.622471,54590,1668678503,622287135,,-0.09533235737955417,-0.6129993761597138,0.0637319559981892,0.9955579647165155,0.0935395699859573,-0.004372330229400828,0.009776014766593129
1668678503.6308527,54591,1668678503,630680020,,-0.09533240623345278,-0.6129993761504536,0.06373195599808767,0.9955579647350407,0.0935395699909276,-0.004372330027664862,0.009776012922710537
1668678503.6390772,54592,1668678503,638774706,,-0.0953324500118659,-0.6129993761414722,0.06373195599798845,0.9955579647529397,0.09353956999613829,-0.004372329851478632,0.009776011128874825
1668678503.646567,54593,1668678503,646386319,,-0.09533248902946863,-0.6129993761327655,0.0637319559978919,0.9955579647702152,0.09353957000158648,-0.004372329700662044,0.009776009384918767
1668678503.6544704,54594,1668678503,654338129,,-0.09533252358546335,-0.6129993761243282,0.06373195599779778,0.9955579647868699,0.09353957000727006,-0.004372329575032836,0.009776007690669447
1668678503.6620784,54595,1668678503,661900294,,-0.09533255396421302,-0.6129993761161563,0.06373195599770655,0.9955579648029065,0.09353957001318591,-0.004372329474407464,0.009776006045949536
1668678503.670702,54596,1668678503,670554789,,-0.09533258043585127,-0.6129993761082443,0.0637319559976174,0.9955579648183279,0.09353957001933189,-0.004372329398600108,0.009776004450576138
1668678503.6784155,54597,1668678503,678274786,,-0.09533260325687548,-0.6129993761005877,0.06373195599753101,0.9955579648331371,0.09353957002570513,-0.00437232934742376,0.0097760029043622
1668678503.6864223,54598,1668678503,686236866,,-0.09533262267071703,-0.6129993760931811,0.06373195599744677,0.9955579648473369,0.09353957003230301,-0.004372329320689353,0.009776001407115218
1668678503.695024,54599,1668678503,694847958,,-0.09533263890829394,-0.6129993760860197,0.06373195599736539,0.9955579648609306,0.09353957003912296,-0.004372329318206426,0.009775999958638667
1668678503.7024555,54600,1668678503,702182202,,-0.09533265218854417,-0.6129993760790976,0.06373195599728619,0.995557964873921,0.09353957004616233,-0.004372329339782749,0.009775998558730514
1668678503.7105262,54601,1668678503,710388585,,-0.09533266271894021,-0.61299937607241,0.06373195599720935,0.9955579648863113,0.09353957005341856,-0.004372329385224684,0.009775997207184582
1668678503.7183316,54602,1668678503,718238688,,-0.095332670695986,-0.6129993760659513,0.06373195599713474,0.9955579648981047,0.09353957006088884,-0.004372329454336979,0.009775995903790023
1668678503.7271998,54603,1668678503,726868607,,-0.09533267630569542,-0.6129993760597162,0.0637319559970627,0.9955579649093045,0.09353957006857071,-0.004372329546923053,0.009775994648331857
1668678503.7341897,54604,1668678503,733973780,,-0.09533267972405475,-0.6129993760536995,0.06373195599699262,0.9955579649199139,0.09353957007646137,-0.004372329662784567,0.009775993440589954
1668678503.742375,54605,1668678503,742178034,,-0.09533268111746727,-0.6129993760478956,0.06373195599692492,0.995557964929936,0.09353957008455813,-0.004372329801722066,0.009775992280340332
1668678503.7505682,54606,1668678503,750385551,,-0.0953326806431832,-0.6129993760422987,0.06373195599685934,0.9955579649393745,0.09353957009285838,-0.0043723299635347315,0.009775991167354777
1668678503.75876,54607,1668678503,758466315,,-0.09533267844971166,-0.6129993760369044,0.06373195599679601,0.9955579649482329,0.09353957010135948,-0.00437233014802026,0.009775990101400662
1668678503.766474,54608,1668678503,766317339,,-0.09533267467721873,-0.6129993760317066,0.06373195599673442,0.9955579649565143,0.09353957011005885,-0.004372330354974897,0.009775989082240887
1668678503.7743416,54609,1668678503,773664883,,-0.09533266945791063,-0.6129993760267003,0.06373195599667501,0.9955579649642226,0.09353957011895349,-0.0043723305841941945,0.00977598810963493
1668678503.7832959,54610,1668678503,783026127,,-0.09533266291640119,-0.6129993760218805,0.06373195599661784,0.995557964971361,0.09353957012804084,-0.004372330835471914,0.009775987183337793
1668678503.7910364,54611,1668678503,790760855,,-0.09533265517006595,-0.6129993760172414,0.06373195599656242,0.9955579649779333,0.09353957013731844,-0.004372331108600743,0.00977598630310014
1668678503.7984343,54612,1668678503,798279804,,-0.0953326463293834,-0.6129993760127784,0.06373195599650885,0.9955579649839434,0.09353957014678302,-0.004372331403372414,0.009775985468669422
1668678503.8063467,54613,1668678503,806208791,,-0.09533263649826132,-0.6129993760084862,0.06373195599645719,0.9955579649893944,0.09353957015643245,-0.004372331719577528,0.009775984679788945
1668678503.8140163,54614,1668678503,813926601,,-0.09533262577435077,-0.6129993760043593,0.06373195599640726,0.9955579649942906,0.09353957016626392,-0.004372332057005383,0.009775983936197937
1668678503.8231094,54615,1668678503,822813251,,-0.0953326142493487,-0.6129993760003936,0.06373195599635921,0.9955579649986355,0.0935395701762745,-0.004372332415444548,0.009775983237632657
1668678503.830241,54616,1668678503,830135069,,-0.09533260200928632,-0.6129993759965835,0.06373195599631286,0.9955579650024329,0.09353957018646161,-0.004372332794682154,0.009775982583824705
1668678503.8386219,54617,1668678503,838400905,,-0.0953325891348082,-0.6129993759929246,0.06373195599626798,0.9955579650056867,0.09353957019682256,-0.004372333194504706,0.009775981974502662
1668678503.8464932,54618,1668678503,846348335,,-0.09533257570143827,-0.6129993759894121,0.06373195599622501,0.9955579650084008,0.09353957020735486,-0.004372333614697764,0.009775981409391675
1668678503.8546855,54619,1668678503,854449439,,-0.09533256177983551,-0.6129993759860415,0.06373195599618353,0.9955579650105794,0.09353957021805555,-0.00437233405504581,0.00977598088821326
1668678503.8619807,54620,1668678503,861773141,,-0.09533254743603886,-0.6129993759828078,0.06373195599614347,0.9955579650122259,0.0935395702289218,-0.004372334515332386,0.009775980410685049
1668678503.8705537,54621,1668678503,870406227,,-0.09533253273170213,-0.6129993759797071,0.06373195599610508,0.9955579650133448,0.09353957023995112,-0.004372334995340563,0.009775979976522138
1668678503.878296,54622,1668678503,878178147,,-0.09533251772431901,-0.6129993759767347,0.06373195599606801,0.99555796501394,0.09353957025114082,-0.0043723354948522015,0.009775979585435916
1668678503.8864443,54623,1668678503,886278441,,-0.09533250246743802,-0.6129993759738862,0.06373195599603255,0.9955579650140156,0.09353957026248795,-0.004372336013648777,0.009775979237134526
1668678503.8941593,54624,1668678503,894017952,,-0.09533248701086863,-0.6129993759711575,0.06373195599599817,0.9955579650135756,0.09353957027399026,-0.004372336551510578,0.009775978931322794
1668678503.902476,54625,1668678503,902358102,,-0.09533247140087915,-0.6129993759685451,0.0637319559959653,0.9955579650126243,0.09353957028564465,-0.0043723371082177625,0.009775978667703114
1668678503.9102755,54626,1668678503,910158577,,-0.09533245568038412,-0.6129993759660441,0.06373195599593356,0.9955579650111658,0.09353957029744842,-0.00437233768354935,0.009775978445974116
1668678503.9183908,54627,1668678503,918237857,,-0.09533243988912525,-0.6129993759636513,0.06373195599590338,0.9955579650092043,0.09353957030939905,-0.004372338277283826,0.00977597826583194
1668678503.9266229,54628,1668678503,926448021,,-0.09533242406384414,-0.6129993759613624,0.06373195599587414,0.995557965006744,0.0935395703214939,-0.004372338889199356,0.009775978126969346
1668678503.9346075,54629,1668678503,934463688,,-0.09533240823844628,-0.6129993759591741,0.06373195599584619,0.9955579650037893,0.09353957033373009,-0.004372339519073137,0.00977597802907669
1668678503.9431276,54630,1668678503,942927456,,-0.09533239244415789,-0.6129993759570825,0.06373195599581924,0.9955579650003444,0.09353957034610516,-0.004372340166682075,0.009775977971841116
1668678503.9523017,54631,1668678503,951785918,,-0.09533237670967719,-0.6129993759550838,0.06373195599579344,0.9955579649964137,0.09353957035861617,-0.004372340831802566,0.009775977954947487
1668678503.9598591,54632,1668678503,959671552,,-0.0953323610613164,-0.6129993759531756,0.06373195599576875,0.9955579649920016,0.09353957037126064,-0.004372341514210446,0.009775977978077851
1668678503.9670024,54633,1668678503,966814535,,-0.09533234552313909,-0.6129993759513536,0.0637319559957451,0.9955579649871122,0.09353957038403572,-0.004372342213681273,0.009775978040911702
1668678503.9744828,54634,1668678503,974354221,,-0.09533233011709025,-0.6129993759496147,0.0637319559957224,0.9955579649817503,0.09353957039693887,-0.004372342929990023,0.009775978143125608
1668678503.9820259,54635,1668678503,981846326,,-0.09533231486311979,-0.6129993759479558,0.06373195599570046,0.9955579649759201,0.09353957040996731,-0.004372343662911386,0.009775978284394006
1668678503.9903822,54636,1668678503,990265829,,-0.09533229977930165,-0.6129993759463745,0.06373195599567966,0.9955579649696261,0.09353957042311861,-0.004372344412219828,0.009775978464389334
1668678503.9982479,54637,1668678503,998150131,,-0.09533228488194616,-0.6129993759448671,0.06373195599565946,0.9955579649628727,0.09353957043638994,-0.0043723451776892085,0.009775978682780611
1668678504.006371,54638,1668678504,6199025,,-0.09533227018570697,-0.6129993759434306,0.06373195599564058,0.9955579649556647,0.09353957044977851,-0.0043723459590934875,0.009775978939235664
1668678504.0145845,54639,1668678504,14365144,,-0.09533225570368296,-0.6129993759420629,0.06373195599562241,0.9955579649480064,0.09353957046328183,-0.004372346756206044,0.009775979233419394
1668678504.0220861,54640,1668678504,21895611,,-0.09533224144751554,-0.6129993759407607,0.06373195599560505,0.9955579649399025,0.09353957047689716,-0.004372347568800173,0.009775979564994677
1668678504.0304456,54641,1668678504,30266131,,-0.09533222742748113,-0.6129993759395217,0.06373195599558834,0.9955579649313573,0.0935395704906221,-0.004372348396649122,0.009775979933622413
1668678504.0384238,54642,1668678504,38280728,,-0.09533221365257784,-0.6129993759383432,0.06373195599557249,0.9955579649223757,0.09353957050445394,-0.0043723492395257475,0.009775980338961342
1668678504.0464237,54643,1668678504,46213796,,-0.09533220013060958,-0.6129993759372226,0.06373195599555734,0.9955579649129621,0.0935395705183898,-0.004372350097202862,0.009775980780668067
1668678504.0541372,54644,1668678504,53934531,,-0.09533218686826449,-0.6129993759361582,0.06373195599554277,0.9955579649031213,0.09353957053242748,-0.004372350969453399,0.009775981258397697
1668678504.062679,54645,1668678504,62464220,,-0.09533217387119051,-0.6129993759351465,0.0637319559955288,0.9955579648928579,0.09353957054656394,-0.004372351856049914,0.009775981771802911
1668678504.0703921,54646,1668678504,70256728,,-0.0953321611440655,-0.6129993759341867,0.06373195599551564,0.9955579648821764,0.09353957056079698,-0.004372352756765136,0.009775982320535193
1668678504.0786715,54647,1668678504,78404939,,-0.09533214869066581,-0.6129993759332758,0.0637319559955031,0.9955579648710816,0.09353957057512371,-0.004372353671371789,0.009775982904244014
1668678504.0864887,54648,1668678504,86340201,,-0.09533213651392884,-0.6129993759324114,0.06373195599549109,0.9955579648595783,0.09353957058954185,-0.004372354599642507,0.009775983522576755
1668678504.094124,54649,1668678504,94004203,,-0.09533212461601455,-0.6129993759315921,0.06373195599547975,0.9955579648476712,0.09353957060404862,-0.004372355541349949,0.009775984175179511
1668678504.1043115,54650,1668678504,104074993,,-0.09533211299836208,-0.612999375930816,0.06373195599546884,0.9955579648353649,0.09353957061864146,-0.004372356496267083,0.00977598486169698
1668678504.1125827,54651,1668678504,112300853,,-0.09533210166174408,-0.612999375930081,0.06373195599545849,0.9955579648226642,0.09353957063331803,-0.00437235746416676,0.009775985581772053
1668678504.1190836,54652,1668678504,118787818,,-0.09533209060631775,-0.6129993759293854,0.06373195599544848,0.9955579648095738,0.09353957064807539,-0.004372358444822006,0.009775986335046073
1668678504.1268408,54653,1668678504,126641152,,-0.09533207983167304,-0.6129993759287272,0.06373195599543913,0.9955579647960987,0.09353957066291138,-0.004372359438006226,0.009775987121159494
1668678504.1344907,54654,1668678504,134367749,,-0.09533206933687856,-0.612999375928105,0.06373195599543027,0.9955579647822433,0.09353957067782345,-0.0043723604434927075,0.009775987939751003
1668678504.1423225,54655,1668678504,142039938,,-0.09533205912052475,-0.6129993759275174,0.06373195599542196,0.9955579647680127,0.09353957069280884,-0.0043723614610553544,0.009775988790458132
1668678504.1502388,54656,1668678504,150049638,,-0.09533204918076356,-0.6129993759269623,0.06373195599541381,0.9955579647534116,0.09353957070786523,-0.0043723624904677405,0.009775989672916771
1668678504.1584566,54657,1668678504,158325084,,-0.09533203951534784,-0.6129993759264385,0.06373195599540626,0.9955579647384448,0.0935395707229899,-0.004372363531504267,0.009775990586762224
1668678504.1664402,54658,1668678504,166313010,,-0.09533203012166666,-0.6129993759259448,0.06373195599539905,0.9955579647231172,0.0935395707381806,-0.004372364583939376,0.009775991531628435
1668678504.1744175,54659,1668678504,174151046,,-0.09533202099677922,-0.6129993759254794,0.06373195599539212,0.9955579647074335,0.0935395707534349,-0.004372365647547902,0.009775992507148308
1668678504.1821618,54660,1668678504,182010603,,-0.09533201213744714,-0.612999375925041,0.06373195599538557,0.9955579646913987,0.09353957076875023,-0.004372366722105066,0.009775993512953473
1668678504.1902816,54661,1668678504,190151777,,-0.09533200354016395,-0.6129993759246285,0.06373195599537942,0.9955579646750173,0.09353957078412438,-0.004372367807386389,0.009775994548675117
1668678504.1982777,54662,1668678504,198162977,,-0.0953319952011833,-0.6129993759242408,0.06373195599537357,0.9955579646582946,0.09353957079955456,-0.004372368903168014,0.009775995613943328
1668678504.2067633,54663,1668678504,206506028,,-0.09533198711654527,-0.6129993759238764,0.06373195599536811,0.995557964641235,0.09353957081503843,-0.004372370009226163,0.00977599670838688
1668678504.2140224,54664,1668678504,213906643,,-0.09533197928210128,-0.612999375923534,0.06373195599536302,0.9955579646238436,0.09353957083057361,-0.004372371125337728,0.009775997831634423
1668678504.2232711,54665,1668678504,223078365,,-0.09533197169353662,-0.612999375923213,0.06373195599535787,0.9955579646061253,0.09353957084615798,-0.004372372251279991,0.009775998983313319
1668678504.2310932,54666,1668678504,230966914,,-0.09533196434639293,-0.6129993759229123,0.0637319559953532,0.9955579645880849,0.09353957086178877,-0.004372373386830943,0.009776000163050746
1668678504.2393153,54667,1668678504,239070320,,-0.09533195723608795,-0.6129993759226305,0.06373195599534864,0.9955579645697272,0.09353957087746369,-0.004372374531768991,0.009776001370473091
1668678504.2468548,54668,1668678504,246639653,,-0.09533195035793376,-0.6129993759223671,0.06373195599534462,0.9955579645510573,0.0935395708931805,-0.004372375685872989,0.009776002605206037
1668678504.25438,54669,1668678504,254140201,,-0.09533194370715518,-0.6129993759221211,0.06373195599534064,0.9955579645320798,0.0935395709089369,-0.004372376848922623,0.009776003866874987
1668678504.2624269,54670,1668678504,262213077,,-0.09533193727890601,-0.6129993759218915,0.06373195599533697,0.9955579645127997,0.0935395709247304,-0.004372378020697888,0.009776005155104378
1668678504.2704852,54671,1668678504,270260660,,-0.0953319310682837,-0.6129993759216773,0.06373195599533366,0.9955579644932218,0.09353957094055881,-0.004372379200979652,0.00977600646951861
1668678504.2785578,54672,1668678504,278363567,,-0.09533192507034394,-0.6129993759214778,0.06373195599533026,0.9955579644733509,0.0935395709564198,-0.00437238038954916,0.009776007809741576
1668678504.2864308,54673,1668678504,286265572,,-0.09533191928011357,-0.6129993759212924,0.06373195599532733,0.995557964453192,0.0935395709723111,-0.0043723815861887345,0.009776009175397013
1668678504.2943707,54674,1668678504,294244437,,-0.09533191369260254,-0.6129993759211203,0.06373195599532434,0.99555796443275,0.09353957098823035,-0.004372382790681056,0.009776010566108332
1668678504.302252,54675,1668678504,302069222,,-0.09533190830281518,-0.6129993759209608,0.06373195599532168,0.9955579644120298,0.09353957100417536,-0.00437238400280953,0.009776011981498516
1668678504.3109343,54676,1668678504,310622116,,-0.09533190310576058,-0.6129993759208131,0.06373195599531925,0.995557964391036,0.09353957102014375,-0.00437238522235858,0.009776013421190853
1668678504.3181677,54677,1668678504,318070591,,-0.09533189809646213,-0.6129993759206765,0.06373195599531688,0.9955579643697737,0.09353957103613343,-0.004372386449113093,0.00977601488480785
1668678504.3263454,54678,1668678504,326249429,,-0.09533189326996576,-0.6129993759205505,0.06373195599531477,0.9955579643482477,0.09353957105214229,-0.004372387682858965,0.009776016371972555
1668678504.3346841,54679,1668678504,334087095,,-0.09533188862134842,-0.6129993759204347,0.0637319559953127,0.9955579643264628,0.09353957106816779,-0.0043723889233827,0.00977601788230764
1668678504.34209,54680,1668678504,341962542,,-0.09533188414572531,-0.6129993759203286,0.06373195599531094,0.9955579643044239,0.09353957108420806,-0.004372390170471743,0.009776019415435953
1668678504.3505511,54681,1668678504,350401921,,-0.09533187983825596,-0.6129993759202309,0.06373195599530902,0.9955579642821357,0.09353957110026084,-0.0043723914239142,0.009776020970979892
1668678504.358402,54682,1668678504,358249123,,-0.09533187569415096,-0.6129993759201419,0.06373195599530754,0.9955579642596032,0.09353957111632401,-0.0043723926834995765,0.009776022548563173
1668678504.3663132,54683,1668678504,366157226,,-0.09533187170867713,-0.6129993759200606,0.06373195599530586,0.9955579642368312,0.09353957113239529,-0.004372393949017617,0.009776024147808333
1668678504.3739552,54684,1668678504,373844124,,-0.09533186787716214,-0.6129993759199867,0.06373195599530443,0.9955579642138244,0.09353957114847258,-0.004372395220259267,0.009776025768339136
1668678504.3827028,54685,1668678504,382308705,,-0.0953318641949994,-0.6129993759199199,0.06373195599530307,0.9955579641905876,0.09353957116455387,-0.004372396497016596,0.009776027409779398
1668678504.3906815,54686,1668678504,390486357,,-0.09533186065765109,-0.6129993759198598,0.06373195599530183,0.9955579641671259,0.09353957118063709,-0.004372397779082185,0.009776029071752772
1668678504.3991416,54687,1668678504,398900034,,-0.095331857260653,-0.6129993759198057,0.06373195599530071,0.9955579641434437,0.09353957119672023,-0.004372399066249843,0.009776030753883549
1668678504.4067185,54688,1668678504,406510529,,-0.09533185399961672,-0.6129993759197574,0.06373195599529975,0.995557964119546,0.09353957121280071,-0.004372400358314442,0.009776032455796595
1668678504.4144318,54689,1668678504,414252711,,-0.09533185087023166,-0.6129993759197147,0.06373195599529884,0.9955579640954374,0.09353957122887728,-0.004372401655071594,0.009776034177116946
1668678504.4222217,54690,1668678504,422095723,,-0.09533184786826908,-0.612999375919677,0.06373195599529802,0.995557964071123,0.09353957124494729,-0.004372402956318251,0.009776035917470524
1668678504.4304252,54691,1668678504,430256906,,-0.09533184421082642,-0.6129993759196438,0.06373195599529728,0.9955579640466071,0.09353957126100906,-0.004372404261852137,0.009776037676483391
1668678504.4382868,54692,1668678504,438108651,,-0.09533183684189239,-0.6129993759196155,0.06373195599529656,0.9955579640218948,0.09353957127706052,-0.004372405571472005,0.009776039453782057
1668678504.4464629,54693,1668678504,446365959,,-0.09533181983924488,-0.612999375919591,0.063731955995296,0.9955579639969907,0.09353957129309964,-0.004372406884977793,0.009776041248994246
1668678504.4539707,54694,1668678504,453871300,,-0.09533178465264291,-0.6129993759195694,0.06373195599529537,0.9955579639718994,0.09353957130912459,-0.004372408202170651,0.00977604306174791
1668678504.4622269,54695,1668678504,462125163,,-0.09533172032840156,-0.6129993759195486,0.06373195599529458,0.9955579639466257,0.0935395713251333,-0.004372409522852536,0.009776044891671859
1668678504.470514,54696,1668678504,470344633,,-0.0953316137209833,-0.6129993759195245,0.06373195599529378,0.9955579639211742,0.09353957134112396,-0.004372410846826846,0.009776046738395931
1668678504.4783103,54697,1668678504,478183675,,-0.09533203054656558,-0.6129990062972162,0.06373195599521082,0.9955579638955497,0.0935395713570946,-0.00437241217390119,0.00977604860155191
1668678504.4864447,54698,1668678504,486282254,,-0.09533379492534455,-0.6129977317322928,0.06373195599433265,0.9955579638697561,0.09353957137304336,-0.004372413503908186,0.009776050480816492
1668678504.4945066,54699,1668678504,493831669,,-0.09534285668019582,-0.612998433529312,0.06373195599018583,0.9955579638437885,0.0935395713889675,-0.004372414837048899,0.009776052376657521
1668678504.5023208,54700,1668678504,502166853,,-0.09536437089361072,-0.6130039568345269,0.06373195593135988,0.995557963817614,0.09353957140486176,-0.004372416174581045,0.009776054291871875
1668678504.5103326,54701,1668678504,510171909,,-0.09539993838137412,-0.6130148580847175,0.06373195568190675,0.9955579637911772,0.09353957142071823,-0.004372417518617258,0.009776056231234537
1668678504.5184052,54702,1668678504,518283718,,-0.09545240926051471,-0.6130321405641919,0.06373195503973265,0.9955579637643831,0.09353957143652508,-0.004372418872810585,0.009776058202931686
1668678504.5264964,54703,1668678504,526170151,,-0.09551759821753295,-0.6130539363492918,0.06373195396669455,0.9955579637372021,0.09353957145227644,-0.0043724202382672255,0.009776060209520042
1668678504.5341797,54704,1668678504,534057425,,-0.09558710025735101,-0.6130770470477455,0.06373195277826955,0.9955579637097688,0.09353957146798397,-0.004372421609778805,0.00977606223951915
1668678504.5426557,54705,1668678504,542539280,,-0.09565727850891284,-0.6131003551933635,0.06373195166196409,0.9955579636821887,0.09353957148365567,-0.004372422983261185,0.009776064283913616
1668678504.5505693,54706,1668678504,550419273,,-0.09572624621541044,-0.6131232868940044,0.06373195066824176,0.9955579636544977,0.09353957149929283,-0.004372424357333154,0.009776066339685268
1668678504.5588965,54707,1668678504,558737502,,-0.09579139288124097,-0.6131450434336155,0.06373194990355827,0.9955579636267651,0.09353957151490053,-0.004372425729303917,0.009776068400905091
1668678504.5663707,54708,1668678504,566242667,,-0.09585150559699084,-0.6131652602816982,0.06373194939451136,0.9955579635990195,0.09353957153047958,-0.004372427098068478,0.00977607046516754
1668678504.5740123,54709,1668678504,573831057,,-0.09590610206888145,-0.6131837998478008,0.06373194912729517,0.9955579635712671,0.09353957154602827,-0.004372428463367379,0.009776072531944133
1668678504.5822108,54710,1668678504,582077799,,-0.09595520725726922,-0.6132006821064647,0.06373194906837903,0.9955579635435029,0.09353957156154423,-0.004372429825391236,0.009776074601704736
1668678504.5912142,54711,1668678504,591029245,,-0.09599896683178978,-0.6132159644362268,0.06373194917881096,0.9955579635157175,0.09353957157702407,-0.004372431184499654,0.00977607667529272
1668678504.5990388,54712,1668678504,598864586,,-0.09603745404954925,-0.6132296816130396,0.06373194942791706,0.9955579634879039,0.09353957159246515,-0.004372432540933883,0.009776078753287213
1668678504.6065629,54713,1668678504,606390268,,-0.09607083666104436,-0.6132418976649672,0.06373194978544676,0.9955579634600551,0.09353957160786489,-0.004372433894971996,0.009776080836347267
1668678504.615124,54714,1668678504,614988158,,-0.09609932531775545,-0.6132526898257531,0.06373195022387321,0.995557963432164,0.09353957162322066,-0.004372435246878998,0.009776082925100424
1668678504.6224728,54715,1668678504,622177124,,-0.09612314659660912,-0.6132621401377907,0.06373195071919308,0.9955579634042241,0.09353957163852918,-0.0043724365968857,0.009776085020096153
1668678504.630471,54716,1668678504,630310743,,-0.09614253439022827,-0.6132703327643211,0.06373195125096996,0.9955579633762308,0.09353957165378836,-0.004372437945182546,0.00977608712179253
1668678504.6383805,54717,1668678504,638259933,,-0.09615771450781407,-0.6132773491899689,0.0637319518021654,0.9955579633481797,0.0935395716689958,-0.0043724392919188716,0.009776089230553805
1668678504.646446,54718,1668678504,646267989,,-0.09616889727128333,-0.6132832659087901,0.06373195235894547,0.9955579633200681,0.09353957168414913,-0.00437244063720248,0.00977609134665051
1668678504.6543803,54719,1668678504,654206053,,-0.09617628501313093,-0.6132883037435896,0.06373226430049687,0.9955579632918939,0.09353957169924637,-0.004372441981103851,0.009776093470268234
1668678504.6622574,54720,1668678504,662066769,,-0.09618007049171837,-0.6132925992148508,0.06373376810694553,0.9955579632636561,0.09353957171428533,-0.004372443323664825,0.00977609560152776
1668678504.670421,54721,1668678504,670246681,,-0.09618043672652805,-0.6132961329923321,0.06373696094938013,0.9955579632353537,0.09353957172926432,-0.004372444664910474,0.009776097740509408
1668678504.6787517,54722,1668678504,678431809,,-0.09617755628699623,-0.6132989214955021,0.0637420175895452,0.9955579632069873,0.09353957174418093,-0.004372446004835556,0.009776099887224941
1668678504.6863487,54723,1668678504,686187361,,-0.09617159118239012,-0.6133009618726214,0.06374894814201408,0.995557963178557,0.09353957175903405,-0.004372447343411426,0.00977610204163179
1668678504.694125,54724,1668678504,693992133,,-0.09616269390719766,-0.6133022794600747,0.06375701717332613,0.9955579631500645,0.09353957177382148,-0.0043724486805891685,0.009776104203641374
1668678504.7024987,54725,1668678504,702395257,,-0.09615100780907547,-0.6133029184747159,0.06376569227969538,0.9955579631215112,0.09353957178854196,-0.004372450016304101,0.009776106373127726
1668678504.7104654,54726,1668678504,710250459,,-0.0961366673577698,-0.6133029258178758,0.06377468272279212,0.9955579630928993,0.0935395718031938,-0.0043724513504783,0.009776108549934642
1668678504.7188618,54727,1668678504,718659860,,-0.0961192229928656,-0.6133023430415819,0.06378369920908236,0.9955579630642284,0.09353957181777509,-0.004372452683124145,0.00977611073411124
1668678504.7263577,54728,1668678504,726254457,,-0.09609795941871693,-0.6133012134614846,0.06379269007169842,0.995557963035493,0.0935395718322833,-0.004372454014444326,0.009776112926139346
1668678504.733969,54729,1668678504,733874521,,-0.09607260521058902,-0.61329958011424,0.06380249276465698,0.995557963006689,0.09353957184671663,-0.004372455344596848,0.009776115126391946
1668678504.7422612,54730,1668678504,742094230,,-0.09604321969270666,-0.6132974851496573,0.06381388788210118,0.9955579629778143,0.09353957186107328,-0.0043724566736679064,0.009776117335074887
1668678504.750526,54731,1668678504,750281762,,-0.0960099120641086,-0.6132949687084873,0.06382709299742947,0.9955579629488683,0.09353957187535102,-0.004372458001673611,0.009776119552233257
1668678504.7584612,54732,1668678504,758322619,,-0.09597271192770673,-0.613292068343852,0.06384249861003159,0.9955579629198494,0.09353957188954834,-0.004372459328681892,0.009776121778029168
1668678504.7661712,54733,1668678504,766052086,,-0.09593211178442194,-0.6132888197469646,0.06386022365979077,0.9955579628907617,0.09353957190366424,-0.004372460654541287,0.009776124012126864
1668678504.7738,54734,1668678504,773696157,,-0.09588876826339203,-0.6132852566840186,0.06388033943787463,0.9955579628616168,0.09353957191769802,-0.004372461978815687,0.009776126253547091
1668678504.7824225,54735,1668678504,782317631,,-0.09584297067926253,-0.6132814109697196,0.06390277737383948,0.9955579628324216,0.093539571931649,-0.004372463301244224,0.009776128501707176
1668678504.79047,54736,1668678504,790227944,,-0.09579492894236145,-0.6132773124922554,0.06392739447948322,0.9955579628031813,0.09353957194551624,-0.00437246462163288,0.009776130756174478
1668678504.7982438,54737,1668678504,798109412,,-0.09574506271547051,-0.6132729892944125,0.06395381907026403,0.995557962773905,0.09353957195929928,-0.004372465939633415,0.009776133016167289
1668678504.8063369,54738,1668678504,806137611,,-0.09569381252498198,-0.6132684677170663,0.06398149577047745,0.9955579627446053,0.09353957197299771,-0.004372467254782304,0.009776135280642927
1668678504.8140118,54739,1668678504,813838232,,-0.09564156579982229,-0.6132637724120056,0.06400992720075122,0.9955579627152925,0.09353957198661127,-0.00437246856668159,0.00977613754870626
1668678504.822788,54740,1668678504,822548921,,-0.0955885591724055,-0.6132589264299597,0.06403877853454568,0.9955579626859766,0.09353957200013963,-0.004372469874960671,0.009776139819522548
1668678504.8305216,54741,1668678504,830339277,,-0.09553491147513284,-0.6132539512781676,0.06406742006935698,0.9955579626566629,0.09353957201358176,-0.004372471179426989,0.00977614209265775
1668678504.8385563,54742,1668678504,838331291,,-0.0954807883025799,-0.6132488670704328,0.06409498678124274,0.9955579626273585,0.09353957202693697,-0.004372472479802379,0.009776144367482583
1668678504.8468447,54743,1668678504,846471390,,-0.09542626111263014,-0.6132436925016121,0.06412085534782673,0.9955579625980691,0.09353957204020451,-0.004372473775893199,0.009776146643558073
1668678504.8554845,54744,1668678504,854153446,,-0.09537135168324387,-0.6132384449498559,0.06414454563809596,0.9955579625687982,0.09353957205338334,-0.004372475067551917,0.009776148920547244
1668678504.8622909,54745,1668678504,862118927,,-0.09531604705917646,-0.6132331405259184,0.06416598813727438,0.9955579625395496,0.09353957206647291,-0.00437247635466165,0.0097761511981809
1668678504.870312,54746,1668678504,870208960,,-0.09526032535700123,-0.6132277941633436,0.0641852150404376,0.995557962510326,0.09353957207947154,-0.004372477637121512,0.009776153476224821
1668678504.878387,54747,1668678504,878207513,,-0.09520416870456776,-0.6132224197060097,0.06420220581181417,0.9955579624811302,0.09353957209237852,-0.004372478914825152,0.009776155754430879
1668678504.8862545,54748,1668678504,886155453,,-0.09514755223324782,-0.6132170299541051,0.06421702020168979,0.995557962451965,0.09353957210519291,-0.004372480187674515,0.009776158032568575
1668678504.8943157,54749,1668678504,894170033,,-0.09509044759329525,-0.6132116367256754,0.06422975681723223,0.9955579624228332,0.09353957211791375,-0.004372481455576865,0.00977616031041762
1668678504.902195,54750,1668678504,902052901,,-0.0950328248263153,-0.6132062509117132,0.06424060301578638,0.9955579623937374,0.09353957213053979,-0.004372482718442766,0.00977616258776392
1668678504.9105291,54751,1668678504,910303596,,-0.09497465301204697,-0.6132008825293701,0.06424975035029058,0.99555796236468,0.0935395721430702,-0.0043724839761853885,0.009776164864398355
1668678504.9186764,54752,1668678504,918428664,,-0.09491590136230652,-0.613195540774658,0.06425734869784215,0.9955579623356635,0.09353957215550414,-0.004372485228720555,0.009776167140115685
1668678504.926358,54753,1668678504,926219917,,-0.09485653977632419,-0.6131902340658253,0.06426360334092802,0.9955579623066905,0.09353957216784076,-0.004372486475964854,0.009776169414711976
1668678504.9343586,54754,1668678504,934190204,,-0.0947964295814587,-0.6131849700783805,0.06426869471468849,0.9955579622777615,0.09353957218007898,-0.00437248771790454,0.009776171688138253
1668678504.9421182,54755,1668678504,942002964,,-0.0947353837559752,-0.6131797557839205,0.06427273891564404,0.9955579622488745,0.09353957219221706,-0.004372488954626894,0.00977617396057205
1668678504.9505851,54756,1668678504,950378954,,-0.09467333754763131,-0.6131745975234216,0.06427582252329411,0.9955579622200303,0.09353957220425442,-0.004372490186112358,0.009776176231948513
1668678504.9584985,54757,1668678504,958320182,,-0.09461036287691134,-0.6131695010473547,0.06427830177076686,0.995557962191233,0.09353957221619029,-0.004372491412218056,0.009776178501924292
1668678504.9664621,54758,1668678504,966273012,,-0.09454656464161143,-0.6131644715433165,0.06428065746369413,0.9955579621624887,0.0935395722280241,-0.004372492632730674,0.009776180769995963
1668678504.9749722,54759,1668678504,974765759,,-0.0944819870869841,-0.6131595136481913,0.06428350519075436,0.9955579621338014,0.09353957223975554,-0.004372493847502003,0.00977618303580528
1668678504.9822598,54760,1668678504,982092506,,-0.09441664234145075,-0.6131546314849097,0.06428741397133979,0.9955579621051744,0.09353957225138386,-0.004372495056418014,0.009776185299070409
1668678504.9906168,54761,1668678504,990412723,,-0.09435051580538052,-0.6131498286937984,0.06429244683415887,0.9955579620766105,0.09353957226290802,-0.004372496259392426,0.009776187559570687
1668678504.998368,54762,1668678504,998226357,,-0.0942835864756517,-0.6131451084684955,0.06429858677296825,0.9955579620481118,0.09353957227432784,-0.0043724974563545205,0.00977618981711908
1668678505.0062933,54763,1668678505,6166868,,-0.09421583711496875,-0.6131404735926449,0.06430528056118542,0.9955579620196807,0.09353957228564198,-0.00437249864722833,0.009776192071515668
1668678505.0144582,54764,1668678505,14355744,,-0.09414724552438343,-0.6131359264692657,0.06431155410001838,0.9955579619913194,0.09353957229685027,-0.004372499831945635,0.009776194322576506
1668678505.0222065,54765,1668678505,22034399,,-0.09407778727459941,-0.6131314691336243,0.0643168444800678,0.9955579619630297,0.0935395723079518,-0.004372501010443005,0.009776196570127947
1668678505.030304,54766,1668678505,30207473,,-0.09400743661601989,-0.6131271032762347,0.06432101696868515,0.9955579619348139,0.09353957231894572,-0.0043725021826608625,0.009776198814003144
1668678505.0383358,54767,1668678505,38175500,,-0.09393616806128581,-0.6131228302707566,0.06432404479909773,0.9955579619066738,0.09353957232983173,-0.004372503348542139,0.009776201054040333
1668678505.0465293,54768,1668678505,46369015,,-0.0938639571709312,-0.6131186511992155,0.0643258490395971,0.9955579618786112,0.09353957234060911,-0.0043725045080306646,0.009776203290078441
1668678505.0543566,54769,1668678505,54170227,,-0.09379077985668567,-0.613114566872224,0.06432643635830704,0.9955579618506281,0.09353957235127701,-0.00437250566107243,0.009776205521959725
1668678505.0620184,54770,1668678505,61895518,,-0.09371661258318323,-0.6131105778497977,0.06432585600913023,0.995557961822726,0.09353957236183524,-0.004372506807615104,0.009776207749529718
1668678505.0705388,54771,1668678505,70340308,,-0.0936414324260674,-0.6131066844605083,0.06432418557091885,0.9955579617949071,0.09353957237228287,-0.0043725079476078345,0.009776209972636047
1668678505.078292,54772,1668678505,78189215,,-0.09356521718214283,-0.6131028868191838,0.06432150609579934,0.9955579617671726,0.09353957238261962,-0.004372509081001401,0.00977621219112877
1668678505.0864851,54773,1668678505,86266346,,-0.09348794541671415,-0.6130991848432426,0.06431788979192858,0.9955579617395248,0.09353957239284463,-0.00437251020774814,0.009776214404860584
1668678505.0942533,54774,1668678505,94067458,,-0.09340959639480764,-0.613095578268574,0.06431341103946829,0.995557961711965,0.09353957240295771,-0.004372511327801636,0.00977621661368551
1668678505.1025288,54775,1668678505,102377206,,-0.09333015007632742,-0.6130920666643258,0.06430814447296199,0.995557961684495,0.09353957241295838,-0.004372512441117012,0.009776218817460592
1668678505.1103823,54776,1668678505,110199165,,-0.09324958711881706,-0.6130886494468191,0.06430216148759722,0.9955579616571163,0.0935395724228459,-0.004372513547650701,0.00977622101604452
1668678505.1186194,54777,1668678505,118412789,,-0.0931678888708412,-0.6130853258926164,0.06429552859447513,0.9955579616298306,0.09353957243261991,-0.004372514647360503,0.009776223209298199
1668678505.1267493,54778,1668678505,126563965,,-0.093085037348153,-0.6130820951509781,0.06428830922440508,0.9955579616026393,0.09353957244227988,-0.0043725157402057895,0.009776225397084613
1668678505.1341822,54779,1668678505,134003919,,-0.093001071103034,-0.6130789562633248,0.06428056342581172,0.9955579615755458,0.09353957245182562,-0.00437251682609767,0.009776227579157463
1668678505.1424925,54780,1668678505,142330458,,-0.09291602479945069,-0.613075908172902,0.06427234788820646,0.9955579615485534,0.093539572461257,-0.004372517904901878,0.009776229755168116
1668678505.1505663,54781,1668678505,150373100,,-0.09282984725819571,-0.6130729497075493,0.0642637158345816,0.995557961521663,0.09353957247057343,-0.004372518976614462,0.009776231925059541
1668678505.1583781,54782,1668678505,158230458,,-0.09274247661798998,-0.613070079605594,0.06425471705275769,0.9955579614948743,0.09353957247977471,-0.0043725200412679886,0.009776234088855569
1668678505.1665275,54783,1668678505,166400776,,-0.09265398701571403,-0.6130672965523116,0.06424539819046705,0.9955579614681906,0.09353957248886033,-0.004372521098758346,0.009776236246272522
1668678505.1738927,54784,1668678505,173814549,,-0.0925646573566578,-0.6130645992128158,0.06423580287891423,0.9955579614416231,0.09353957249783092,-0.004372522148675998,0.009776238396338769
1668678505.1823742,54785,1668678505,182274302,,-0.09247463766094476,-0.6130619861829261,0.06422597187426822,0.9955579614151822,0.09353957250668718,-0.004372523190647652,0.009776240538165063
1668678505.190306,54786,1668678505,190194521,,-0.09238397127849673,-0.6130594559578226,0.0642159431833638,0.9955579613888703,0.09353957251542871,-0.00437252422459897,0.009776242671532482
1668678505.1984007,54787,1668678505,198158087,,-0.09229249717191067,-0.6130570069725085,0.06420575219573262,0.9955579613626875,0.0935395725240552,-0.004372525250554143,0.009776244796441909
1668678505.2062986,54788,1668678505,206144422,,-0.09219985583240242,-0.6130546375494318,0.06419543182914554,0.9955579613366204,0.09353957253256526,-0.004372526269032912,0.009776246914007495
1668678505.2141736,54789,1668678505,213931270,,-0.09210585888108186,-0.6130523460266658,0.06418501265929319,0.9955579613106632,0.09353957254095749,-0.004372527280294096,0.0097762490247549
1668678505.2223065,54790,1668678505,222156600,,-0.09201043787346942,-0.6130501307457027,0.0641745230434839,0.9955579612848139,0.09353957254923158,-0.0043725282844290225,0.009776251128832604
1668678505.230491,54791,1668678505,230329462,,-0.09191355582290171,-0.6130479900419402,0.06416398923817339,0.9955579612590728,0.09353957255738751,-0.004372529281441778,0.00977625322619316
1668678505.2384017,54792,1668678505,238216852,,-0.0918151629222012,-0.6130459222282499,0.06415343551199841,0.9955579612334394,0.09353957256542447,-0.004372530271383267,0.009776255316891788
1668678505.2465777,54793,1668678505,246417238,,-0.09171523450985622,-0.6130439256130861,0.064142884255914,0.995557961207914,0.09353957257334267,-0.004372531254264659,0.009776257400895048
1668678505.2541516,54794,1668678505,253929136,,-0.09161375912947296,-0.6130419985013226,0.0641323560871378,0.9955579611824973,0.09353957258114172,-0.004372532230076973,0.00977625947812286
1668678505.2623892,54795,1668678505,262283173,,-0.09151073452970608,-0.6130401391967529,0.06412186994855053,0.9955579611571904,0.09353957258882169,-0.004372533198798119,0.00977626154846478
1668678505.2706044,54796,1668678505,270406708,,-0.09140616074245224,-0.6130383460044786,0.06411144320348112,0.995557961131995,0.09353957259638242,-0.004372534160399931,0.009776263611796286
1668678505.2782836,54797,1668678505,278142349,,-0.0913000366238056,-0.6130366172324472,0.06410109172616911,0.9955579611069122,0.09353957260382371,-0.004372535114859471,0.009776265668003289
1668678505.2864654,54798,1668678505,286327062,,-0.0911923628389634,-0.6130349511956653,0.06409082998818139,0.9955579610819432,0.09353957261114555,-0.004372536062151356,0.009776267716966009
1668678505.2942657,54799,1668678505,294028969,,-0.0910831409361411,-0.6130333462187285,0.06408067114067656,0.995557961057089,0.09353957261834812,-0.004372537002249539,0.009776269758562512
1668678505.302899,54800,1668678505,302572230,,-0.09097237304224305,-0.6130318006382739,0.06407062709278383,0.9955579610323516,0.09353957262543107,-0.0043725379351282345,0.00977627179267059
1668678505.3112166,54801,1668678505,311090867,,-0.09086006132917271,-0.6130303128052257,0.06406070858623644,0.995557961007732,0.0935395726323947,-0.004372538860762178,0.009776273819168372
1668678505.3192227,54802,1668678505,319018813,,-0.090746207751072,-0.6130288810867778,0.06405092526641283,0.9955579609832312,0.09353957263923919,-0.0043725397791275385,0.009776275837936825
1668678505.3271654,54803,1668678505,326931626,,-0.09063081428680675,-0.613027503870538,0.06404136096772894,0.995557960958851,0.09353957264596412,-0.0043725406902017944,0.009776277848858532
1668678505.3344178,54804,1668678505,334286302,,-0.09051350185872772,-0.6130261794946548,0.06403219430898677,0.9955579609345796,0.09353957265256888,-0.00437254159444023,0.00977627985288814
1668678505.3424344,54805,1668678505,342233653,,-0.09039392219701653,-0.6130249062542589,0.06402351379219091,0.995557960910394,0.09353957265905126,-0.004372542492751199,0.009776281851995059
1668678505.3503072,54806,1668678505,350188431,,-0.09027193540120539,-0.6130236825856609,0.06401535203129047,0.9955579608862907,0.09353957266541114,-0.004372543385297236,0.009776283846473477
1668678505.3585324,54807,1668678505,358331495,,-0.09014705942726284,-0.6130226891737339,0.06400811630422003,0.995557960862245,0.09353957267164602,-0.004372544273048798,0.009776285838429008
1668678505.3662465,54808,1668678505,366088156,,-0.09001886698182442,-0.6130221885181152,0.06400232614902454,0.9955579608382247,0.0935395726777534,-0.0043725451572610785,0.009776287830603475
1668678505.3739543,54809,1668678505,373851766,,-0.08988676038017145,-0.6130227581554579,0.06399880916004154,0.9955579608141931,0.09353957268373052,-0.004372546039360512,0.009776289826119486
1668678505.382565,54810,1668678505,382408442,,-0.08975038152816446,-0.6130248312822258,0.06399812288851102,0.9955579607901034,0.09353957268957322,-0.004372546921162482,0.009776291828970508
1668678505.3904603,54811,1668678505,390245688,,-0.08960953743033657,-0.6130285847057286,0.06400098874194211,0.9955579607659446,0.093539572695281,-0.00437254780311716,0.009776293840082538
1668678505.398433,54812,1668678505,398237937,,-0.08946382776851557,-0.613034336072011,0.0640085635525221,0.9955579607416736,0.09353957270085027,-0.004372548686898911,0.009776295863126129
1668678505.4065177,54813,1668678505,406331792,,-0.08931258325999707,-0.6130427749391693,0.06402213669952245,0.9955579607172381,0.09353957270627762,-0.004372549574533658,0.009776297902555794
1668678505.4143195,54814,1668678505,414164562,,-0.08915469565324693,-0.6130549639806964,0.06404337096599289,0.9955579606925266,0.0935395727115537,-0.004372550470310984,0.009776299967896005
1668678505.4223557,54815,1668678505,422112615,,-0.08898950790677639,-0.6130714865505327,0.06407312781534708,0.9955579606674487,0.09353957271667186,-0.004372551377712075,0.009776302066849726
1668678505.4304469,54816,1668678505,430309397,,-0.08881715439507605,-0.6130922801405406,0.06411119732199645,0.9955579606419783,0.09353957272163055,-0.0043725522977763965,0.0097763042016387
1668678505.438304,54817,1668678505,438154663,,-0.08863764881246705,-0.6131175728498499,0.06415750777607655,0.9955579606161029,0.0935395727264301,-0.004372553231021818,0.009776306373311366
1668678505.4467323,54818,1668678505,446596213,,-0.08845074597401872,-0.6131478854526474,0.06421232636888224,0.9955579605897547,0.09353957273106561,-0.004372554180071512,0.009776308587631887
1668678505.454544,54819,1668678505,454308443,,-0.08825646794328135,-0.6131832910263231,0.06427527104139859,0.9955579605629046,0.09353957273553637,-0.004372555146069086,0.009776310847040769
1668678505.4621463,54820,1668678505,461932642,,-0.08805496062732592,-0.6132236223578026,0.06434552915895186,0.995557960535539,0.09353957273984227,-0.004372556129586842,0.009776313152693452
1668678505.4703667,54821,1668678505,470270665,,-0.0878466401241377,-0.6132685059581731,0.06442228904128616,0.9955579605076765,0.09353957274398661,-0.004372557129952142,0.009776315502951691
1668678505.4783432,54822,1668678505,478230528,,-0.08763197330488615,-0.6133175436919229,0.0645048356306117,0.995557960479356,0.09353957274797398,-0.004372558145730836,0.009776317894468766
1668678505.4864924,54823,1668678505,486122408,,-0.08741157123061938,-0.6133701562425423,0.06459224289370706,0.9955579604506284,0.09353957275180934,-0.004372559175023371,0.009776320322855947
1668678505.4942899,54824,1668678505,494163948,,-0.08718623986927865,-0.6134255668323532,0.06468348610709922,0.9955579604215895,0.0935395727555025,-0.004372560214205399,0.009776322779861634
1668678505.502492,54825,1668678505,502370044,,-0.08695663779183914,-0.6134831601076974,0.06477775802565751,0.995557960392325,0.09353957275906083,-0.004372561260060871,0.009776325258154727
1668678505.5104885,54826,1668678505,510354927,,-0.08672322407670378,-0.6135425514316936,0.06487452134956684,0.9955579603628963,0.09353957276249066,-0.004372562310279115,0.009776327752440191
1668678505.5193627,54827,1668678505,519176636,,-0.08648655431257798,-0.6136030746186534,0.0649726897449143,0.9955579603333723,0.09353957276579794,-0.004372563362278537,0.009776330256820839
1668678505.527579,54828,1668678505,527400568,,-0.0862472548413967,-0.6136638991744477,0.06507089012739471,0.9955579603038566,0.09353957276899182,-0.004372564412129906,0.009776332762384148
1668678505.534491,54829,1668678505,534245765,,-0.08600594774767675,-0.6137247433753075,0.06516833584798523,0.9955579602744279,0.0935395727720786,-0.004372565456878752,0.009776335262410877
1668678505.5431607,54830,1668678505,542960884,,-0.08576309589037866,-0.6137855626204797,0.06526467368355639,0.9955579602451493,0.09353957277506425,-0.004372566494134602,0.009776337751453817
1668678505.5512733,54831,1668678505,551000025,,-0.08551905008797422,-0.6138462846846952,0.06535985058854032,0.9955579602160587,0.09353957277795141,-0.004372567522492905,0.009776340226280471
1668678505.5589323,54832,1668678505,558804845,,-0.08527422665260517,-0.6139068674878863,0.06545384638974121,0.9955579601872094,0.09353957278074487,-0.004372568539948711,0.009776342682316322
1668678505.567224,54833,1668678505,567094184,,-0.08502910529811947,-0.6139672671492774,0.06554659643463835,0.995557960158652,0.09353957278344854,-0.004372569544585815,0.009776345115191397
1668678505.5745,54834,1668678505,574367538,,-0.08478402513865063,-0.6140275222341635,0.06563786776731162,0.9955579601304373,0.09353957278606634,-0.0043725705345149,0.009776347520599898
1668678505.5832553,54835,1668678505,583088023,,-0.0845390210175831,-0.6140876281519752,0.06572744767362186,0.9955579601025684,0.09353957278859891,-0.004372571509625514,0.009776349898227451
1668678505.591181,54836,1668678505,591045688,,-0.08429412474954553,-0.6141475324197744,0.0658152137772192,0.9955579600750527,0.09353957279104663,-0.004372572469664443,0.009776352247440341
1668678505.5989027,54837,1668678505,598777816,,-0.08404927752516325,-0.6142071935764529,0.06590054660891317,0.9955579600478882,0.09353957279340977,-0.004372573414726104,0.009776354568383798
1668678505.6076393,54838,1668678505,607493895,,-0.08380438169578468,-0.6142665237980266,0.06598268973108479,0.9955579600210663,0.09353957279568821,-0.004372574345168222,0.009776356861792807
1668678505.6150367,54839,1668678505,614705094,,-0.0835591620763886,-0.6143256662971405,0.06606142860251503,0.9955579599945626,0.09353957279788074,-0.0043725752619423386,0.009776359129732211
1668678505.6233191,54840,1668678505,623139577,,-0.0833134071672678,-0.6143847490865052,0.06613684237122737,0.995557959968336,0.09353957279998491,-0.004372576166643933,0.009776361375707214
1668678505.6303382,54841,1668678505,630202678,,-0.08306705184584308,-0.6144439012969569,0.06620924052218286,0.9955579599423835,0.09353957280200098,-0.004372577059406426,0.009776363599942191
1668678505.638274,54842,1668678505,638159285,,-0.08281996222069345,-0.6145033689171037,0.06627901754824529,0.995557959916678,0.0935395728039279,-0.004372577941295934,0.00977636580475094
1668678505.6464808,54843,1668678505,646352019,,-0.08257197028219702,-0.6145633742081775,0.06634656915033765,0.9955579598911986,0.09353957280576455,-0.004372578813134105,0.009776367991896543
1668678505.654167,54844,1668678505,654051559,,-0.08232265632215335,-0.6146242577620531,0.06641224937095198,0.9955579598658915,0.09353957280750867,-0.0043725796769884615,0.00977637016593154
1668678505.6620326,54845,1668678505,661922252,,-0.08207163517907823,-0.6146862340207726,0.06647621230691764,0.9955579598406973,0.09353957280915738,-0.004372580535160318,0.009776372331926977
1668678505.6705248,54846,1668678505,670418838,,-0.08181888859922118,-0.6147492341432179,0.06653851455014885,0.9955579598156082,0.09353957281071096,-0.004372581387975686,0.009776374490521614
1668678505.6787913,54847,1668678505,678247703,,-0.08156486135626789,-0.6148129997592386,0.06659915936910484,0.9955579597906753,0.09353957281217333,-0.004372582233529645,0.009776376637354844
1668678505.6863532,54848,1668678505,686231198,,-0.08131011263569393,-0.6148772635288456,0.0666581501323135,0.9955579597659812,0.09353957281355046,-0.004372583068688648,0.009776378765318297
1668678505.6942468,54849,1668678505,694075104,,-0.08105495365368542,-0.6149416490700742,0.06671543329017358,0.9955579597415791,0.09353957281484565,-0.004372583891460601,0.0097763808698686
1668678505.7022293,54850,1668678505,702042046,,-0.08079951914531909,-0.6150058374406547,0.06677096580489061,0.9955579597175035,0.09353957281606169,-0.004372584700556068,0.009776382948042972
1668678505.7103055,54851,1668678505,710138703,,-0.0805439944921006,-0.6150696584025459,0.06682460805497847,0.9955579596937768,0.09353957281720035,-0.004372585495147982,0.009776384997917753
1668678505.718484,54852,1668678505,718293051,,-0.08028862464212852,-0.6151329249765197,0.06687614602618569,0.9955579596704387,0.09353957281826386,-0.004372586273750281,0.009776387016095324
1668678505.726297,54853,1668678505,726114257,,-0.08003339392268438,-0.6151955040137164,0.06692523570054851,0.9955579596474993,0.09353957281925351,-0.004372587036001949,0.009776389001702863
1668678505.7339861,54854,1668678505,733878734,,-0.07977826939027947,-0.6152571919543727,0.06697148384124824,0.9955579596249542,0.09353957282016932,-0.00437258778207959,0.009776390955072727
1668678505.742572,54855,1668678505,742259510,,-0.07952331098790869,-0.615317824306755,0.06701485338462009,0.9955579596028206,0.09353957282101251,-0.004372588511362801,0.009776392874751594
1668678505.7505212,54856,1668678505,750396374,,-0.07926854197646445,-0.615377305187389,0.06705539614170153,0.9955579595811019,0.09353957282178373,-0.0043725892237347005,0.009776394760416238
1668678505.7586377,54857,1668678505,758321337,,-0.07901413294568456,-0.6154351741173785,0.06709234281845855,0.9955579595598263,0.09353957282248475,-0.004372589918161519,0.00977639660968967
1668678505.7669861,54858,1668678505,766686086,,-0.0787602852296207,-0.6154908715532182,0.0671246469588425,0.9955579595390417,0.09353957282311816,-0.004372590592822555,0.00977639841843487
1668678505.7741778,54859,1668678505,774088243,,-0.07850727390867837,-0.6155442299407194,0.06715172303298955,0.99555795951878,0.0935395728236858,-0.004372591246526066,0.00977640018392903
1668678505.782423,54860,1668678505,782293764,,-0.07825532565408849,-0.6155951770812451,0.06717314443474455,0.9955579594990741,0.0935395728241893,-0.004372591878044066,0.009776401903371324
1668678505.7911208,54861,1668678505,790911244,,-0.0780043981910918,-0.6156436819621209,0.0671889829722872,0.9955579594799204,0.09353957282462876,-0.004372592487521616,0.009776403577039692
1668678505.7983332,54862,1668678505,798105005,,-0.07775442067482002,-0.6156897783237261,0.06719947242940172,0.9955579594613043,0.09353957282500336,-0.004372593075540599,0.009776405206190898
1668678505.8063653,54863,1668678505,806107009,,-0.07750560634413191,-0.6157331980020812,0.06720469627392865,0.9955579594432435,0.09353957282531403,-0.004372593641441276,0.009776406789298678
1668678505.8144896,54864,1668678505,814303007,,-0.07725833322746245,-0.615773570058609,0.06720476747083579,0.9955579594257938,0.0935395728255638,-0.004372594183109054,0.009776408321580192
1668678505.8219874,54865,1668678505,821854763,,-0.07701277591442902,-0.6158107613419243,0.06719986263923318,0.9955579594089796,0.0935395728257532,-0.004372594699645486,0.009776409800982391
1668678505.8302834,54866,1668678505,830166616,,-0.07676887089141263,-0.6158448481291997,0.06719030471138597,0.9955579593927905,0.09353957282588227,-0.004372595191451864,0.009776411228364404
1668678505.8384733,54867,1668678505,838318272,,-0.07652633696705083,-0.6158761733546192,0.06717620018252526,0.9955579593771837,0.09353957282594874,-0.004372595660172593,0.009776412607369389
1668678505.8465047,54868,1668678505,846299145,,-0.0762848564460629,-0.6159051458408213,0.0671575081205894,0.995557959362103,0.09353957282595059,-0.004372596107960648,0.009776413942774214
1668678505.8543983,54869,1668678505,854281682,,-0.0760440351801647,-0.6159323447624097,0.0671346177742415,0.9955579593474913,0.0935395728258857,-0.004372596537016015,0.009776415239455405
1668678505.8621678,54870,1668678505,861953149,,-0.07580351146042338,-0.6159585890837893,0.06710821133177788,0.9955579593332737,0.09353957282575141,-0.004372596950194064,0.00977641650375302
1668678505.8701384,54871,1668678505,870016465,,-0.07556314660649048,-0.6159842720036411,0.0670787861565512,0.9955579593194149,0.09353957282554715,-0.004372597348867672,0.009776417738678588
1668678505.8783185,54872,1668678505,878226598,,-0.07532285764253319,-0.6160093871670632,0.0670466388173614,0.995557959305905,0.09353957282527271,-0.00437259773343327,0.009776418945055524
1668678505.8863442,54873,1668678505,886240643,,-0.07508254007627635,-0.6160341254765047,0.06701213647106855,0.9955579592927284,0.09353957282492817,-0.004372598104503487,0.009776420124188744
1668678505.894259,54874,1668678505,893967089,,-0.074842282214843,-0.6160587583499926,0.06697570045549107,0.9955579592798759,0.09353957282451393,-0.004372598462457102,0.009776421276860523
1668678505.9024394,54875,1668678505,902254302,,-0.07460218765909404,-0.6160833404201728,0.0669376339786969,0.9955579592673617,0.09353957282403093,-0.004372598806772595,0.00977642240183513
1668678505.910818,54876,1668678505,910686490,,-0.0743622607014027,-0.616107877702511,0.06689818218072227,0.9955579592551819,0.09353957282348002,-0.0043725991376187216,0.009776423499424057
1668678505.9185743,54877,1668678505,918437885,,-0.0741225876186851,-0.6161324696475923,0.06685761234722816,0.9955579592433428,0.09353957282286174,-0.004372599454790522,0.009776424569102498
1668678505.9265451,54878,1668678505,926394276,,-0.07388319061467351,-0.616157207136035,0.06681615175666467,0.9955579592318432,0.09353957282217683,-0.004372599758337617,0.00977642561091666
1668678505.934438,54879,1668678505,934274925,,-0.07364391075925343,-0.6161821464559065,0.06677393844192421,0.9955579592206685,0.09353957282142525,-0.004372600048848756,0.009776426626119338
1668678505.9424107,54880,1668678505,942324164,,-0.07340455334776619,-0.6162072890585532,0.06673108088448712,0.9955579592097925,0.09353957282060685,-0.004372600327340061,0.00977642761691906
1668678505.9504592,54881,1668678505,950336034,,-0.07316495517200815,-0.6162327190322441,0.06668789421599981,0.9955579591991983,0.09353957281972185,-0.004372600594478239,0.009776428584740182
1668678505.9587479,54882,1668678505,958607399,,-0.07292492582037838,-0.6162585923592849,0.06664476504253126,0.9955579591888574,0.09353957281876998,-0.004372600851372282,0.009776429531996478
1668678505.9664857,54883,1668678505,966226165,,-0.07268469861244145,-0.6162847510487811,0.06660194850497235,0.9955579591787829,0.0935395728177528,-0.00437260109754374,0.009776430457545268
1668678505.9740813,54884,1668678505,973943332,,-0.07244453275550976,-0.6163109803449962,0.06655962616279673,0.9955579591690229,0.09353957281667184,-0.004372601331180898,0.009776431357259913
1668678505.9823527,54885,1668678505,982183053,,-0.07220432538585396,-0.6163372331727063,0.06651788537498654,0.9955579591595672,0.09353957281552801,-0.004372601552707383,0.009776432232023475
1668678505.9903433,54886,1668678505,990234578,,-0.07196397459525569,-0.616363461344639,0.06647678466518711,0.9955579591504049,0.09353957281432157,-0.004372601762552516,0.009776433082731248
1668678505.9982316,54887,1668678505,998077329,,-0.07172279553081576,-0.6163899109840058,0.06643633023411509,0.9955579591414776,0.09353957281305168,-0.0043726019629585795,0.009776433914334854
1668678506.0065227,54888,1668678506,6369024,,-0.0714798404835912,-0.6164169565300627,0.0663964792947578,0.9955579591326569,0.09353957281171595,-0.004372602158832189,0.009776434737747258
1668678506.0140493,54889,1668678506,13909857,,-0.07123464847278708,-0.6164448618236507,0.06635757378543447,0.9955579591238776,0.0935395728103137,-0.004372602352676849,0.009776435558488917
1668678506.0230582,54890,1668678506,22903818,,-0.07098710802454394,-0.6164737143334974,0.06631995183762854,0.9955579591151132,0.09353957280884556,-0.00437260254551888,0.009776436378769125
1668678506.0307717,54891,1668678506,30503750,,-0.07073719006639209,-0.6165034762300763,0.06628376339272563,0.9955579591063651,0.09353957280731291,-0.004372602737351075,0.009776437198479758
