Time,header.seq,header.stamp.secs,header.stamp.nsecs,header.frame_id,wrench.force.x,wrench.force.y,wrench.force.z,wrench.torque.x,wrench.torque.y,wrench.torque.z
1668678503.5189683,54577,1668678503,518760210,,-5.088332707990167e-181,-5e-324,5e-324,5e-324,-5e-324,0.0
1668678503.5273354,54578,1668678503,527088874,,-2.692123916880468e-181,-5e-324,5e-324,5e-324,-5e-324,0.0
1668678503.5348215,54579,1668678503,534515331,,-2.692123916880468e-181,-5e-324,5e-324,5e-324,-5e-324,0.0
1668678503.5434682,54580,1668678503,542866394,,-1.4243430215282688e-181,-5e-324,5e-324,5e-324,-5e-324,0.0
1668678503.5507522,54581,1668678503,550545629,,-7.535882840516202e-182,-5e-324,5e-324,5e-324,-5e-324,0.0
1668678503.5596313,54582,1668678503,559132229,,-3.987068376622748e-182,-5e-324,5e-324,5e-324,-5e-324,0.0
1668678503.5673947,54583,1668678503,567039749,,-2.109469398117161e-182,-5e-324,5e-324,5e-324,-5e-324,0.0
1668678503.5746713,54584,1668678503,574459814,,-2.109469398117161e-182,-5e-324,5e-324,5e-324,-5e-324,0.0
1668678503.5823796,54585,1668678503,582197576,,-1.1160734457636863e-182,-5e-324,5e-324,5e-324,-5e-324,0.0
1668678503.590618,54586,1668678503,590439149,,-5.904896925504703e-183,-5e-324,5e-324,5e-324,-5e-324,0.0
1668678503.598582,54587,1668678503,598207691,,-3.124149923392917e-183,-5e-324,5e-324,5e-324,-5e-324,0.0
1668678503.6066484,54588,1668678503,606426592,,-1.6529183941685376e-183,-5e-324,5e-324,5e-324,-5e-324,0.0
1668678503.6140537,54589,1668678503,613854735,,-1.6529183941685376e-183,-5e-324,5e-324,5e-324,-5e-324,0.0
1668678503.6225367,54590,1668678503,622287135,,-8.745224412321145e-184,-5e-324,5e-324,5e-324,-5e-324,0.0
1668678503.6310399,54591,1668678503,630680020,,-4.6269041648803653e-184,-5e-324,5e-324,5e-324,-5e-324,0.0
1668678503.6391585,54592,1668678503,638774706,,-2.44799231461976e-184,-5e-324,5e-324,5e-324,-5e-324,0.0
1668678503.6466095,54593,1668678503,646386319,,-1.295178408475283e-184,-5e-324,5e-324,5e-324,-5e-324,0.0
1668678503.6545389,54594,1668678503,654338129,,-6.852501536717964e-185,-5e-324,5e-324,5e-324,-5e-324,0.0
1668678503.6621683,54595,1668678503,661900294,,-6.852501536717964e-185,-5e-324,5e-324,5e-324,-5e-324,0.0
1668678503.6707914,54596,1668678503,670554789,,-3.625506494198029e-185,-5e-324,5e-324,5e-324,-5e-324,0.0
1668678503.6785045,54597,1668678503,678274786,,-1.918175029810734e-185,-5e-324,5e-324,5e-324,-5e-324,0.0
1668678503.6864789,54598,1668678503,686236866,,-1.0148638406461609e-185,-5e-324,5e-324,5e-324,-5e-324,0.0
1668678503.6950989,54599,1668678503,694847958,,-5.36941936499247e-186,-5e-324,5e-324,5e-324,-5e-324,0.0
1668678503.7025461,54600,1668678503,702182202,,-5.36941936499247e-186,-5e-324,5e-324,5e-324,-5e-324,0.0
1668678503.7106068,54601,1668678503,710388585,,-2.840840629300551e-186,-5e-324,5e-324,5e-324,-5e-324,0.0
1668678503.7184534,54602,1668678503,718238688,,-1.5030257337882695e-186,-5e-324,5e-324,5e-324,-5e-324,0.0
1668678503.7272954,54603,1668678503,726868607,,-7.952175610027022e-187,-5e-324,5e-324,5e-324,-5e-324,0.0
1668678503.7342615,54604,1668678503,733973780,,-7.952175610027022e-187,-5e-324,5e-324,5e-324,-5e-324,0.0
1668678503.7424147,54605,1668678503,742178034,,-4.207319642713238e-187,-5e-324,5e-324,5e-324,-5e-324,0.0
1668678503.7506304,54606,1668678503,750385551,,-2.2259994552485112e-187,-5e-324,5e-324,5e-324,-5e-324,0.0
1668678503.7588184,54607,1668678503,758466315,,-1.177726912988055e-187,-5e-324,5e-324,5e-324,-5e-324,0.0
1668678503.766535,54608,1668678503,766317339,,-6.23109173861646e-188,-5e-324,5e-324,5e-324,-5e-324,0.0
1668678503.7744176,54609,1668678503,773664883,,-6.23109173861646e-188,-5e-324,5e-324,5e-324,-5e-324,0.0
1668678503.7833538,54610,1668678503,783026127,,-3.296732360182389e-188,-5e-324,5e-324,5e-324,-5e-324,0.0
1668678503.7910995,54611,1668678503,790760855,,-1.7442279315706165e-188,-5e-324,5e-324,5e-324,-5e-324,0.0
1668678503.798482,54612,1668678503,798279804,,-9.228322911547472e-189,-5e-324,5e-324,5e-324,-5e-324,0.0
1668678503.8063903,54613,1668678503,806208791,,-4.882500860028462e-189,-5e-324,5e-324,5e-324,-5e-324,0.0
1668678503.814188,54614,1668678503,813926601,,-4.882500860028462e-189,-5e-324,5e-324,5e-324,-5e-324,0.0
1668678503.8231628,54615,1668678503,822813251,,-2.5832228538891915e-189,-5e-324,5e-324,5e-324,-5e-324,0.0
1668678503.8303323,54616,1668678503,830135069,,-1.3667258858028178e-189,-5e-324,5e-324,5e-324,-5e-324,0.0
1668678503.8386774,54617,1668678503,838400905,,-7.231043361633339e-190,-5e-324,5e-324,5e-324,-5e-324,0.0
1668678503.8465643,54618,1668678503,846348335,,-3.8257845732619244e-190,-5e-324,5e-324,5e-324,-5e-324,0.0
1668678503.8547542,54619,1668678503,854449439,,-2.024137716925932e-190,-5e-324,5e-324,5e-324,-5e-324,0.0
1668678503.8620648,54620,1668678503,861773141,,-2.024137716925932e-190,-5e-324,5e-324,5e-324,-5e-324,0.0
1668678503.8706987,54621,1668678503,870406227,,-1.0709263469032297e-190,-5e-324,5e-324,5e-324,-5e-324,0.0
1668678503.8783648,54622,1668678503,878178147,,-5.666033644357331e-191,-5e-324,5e-324,5e-324,-5e-324,0.0
1668678503.8865566,54623,1668678503,886278441,,-2.9977726621278257e-191,-5e-324,5e-324,5e-324,-5e-324,0.0
1668678503.894257,54624,1668678503,894017952,,-2.9977726621278257e-191,-5e-324,5e-324,5e-324,-5e-324,0.0
1668678503.9025538,54625,1668678503,902358102,,-1.5860549897635242e-191,-5e-324,5e-324,5e-324,-5e-324,0.0
1668678503.9103923,54626,1668678503,910158577,,-8.391464977761907e-192,-5e-324,5e-324,5e-324,-5e-324,0.0
1668678503.9185002,54627,1668678503,918237857,,-4.43973789858973e-192,-5e-324,5e-324,5e-324,-5e-324,0.0
1668678503.9266884,54628,1668678503,926448021,,-2.348966796669055e-192,-5e-324,5e-324,5e-324,-5e-324,0.0
1668678503.9347308,54629,1668678503,934463688,,-1.2427862044753466e-192,-5e-324,5e-324,5e-324,-5e-324,0.0
1668678503.9434345,54630,1668678503,942927456,,-1.2427862044753466e-192,-5e-324,5e-324,5e-324,-5e-324,0.0
1668678503.952401,54631,1668678503,951785918,,-6.575306012091939e-193,-5e-324,5e-324,5e-324,-5e-324,0.0
1668678503.9600885,54632,1668678503,959671552,,-3.4788484935672664e-193,-5e-324,5e-324,5e-324,-5e-324,0.0
1668678503.9670813,54633,1668678503,966814535,,-1.840581536272082e-193,-5e-324,5e-324,5e-324,-5e-324,0.0
1668678503.9745805,54634,1668678503,974354221,,-9.738108451488943e-194,-5e-324,5e-324,5e-324,-5e-324,0.0
1668678503.982131,54635,1668678503,981846326,,-9.738108451488943e-194,-5e-324,5e-324,5e-324,-5e-324,0.0
1668678503.9904706,54636,1668678503,990265829,,-5.15221707618728e-194,-5e-324,5e-324,5e-324,-5e-324,0.0
1668678503.9983513,54637,1668678503,998150131,,-2.7259237183887656e-194,-5e-324,5e-324,5e-324,-5e-324,0.0
1668678504.0064344,54638,1668678504,6199025,,-1.4422257464301635e-194,-5e-324,5e-324,5e-324,-5e-324,0.0
1668678504.0146644,54639,1668678504,14365144,,-7.630496369485694e-195,-5e-324,5e-324,5e-324,-5e-324,0.0
1668678504.0221386,54640,1668678504,21895611,,-7.630496369485694e-195,-5e-324,5e-324,5e-324,-5e-324,0.0
1668678504.0304956,54641,1668678504,30266131,,-4.037126295162402e-195,-5e-324,5e-324,5e-324,-5e-324,0.0
1668678504.0385306,54642,1668678504,38280728,,-2.1359539319445662e-195,-5e-324,5e-324,5e-324,-5e-324,0.0
1668678504.0464995,54643,1668678504,46213796,,-1.1300858248740826e-195,-5e-324,5e-324,5e-324,-5e-324,0.0
1668678504.0542445,54644,1668678504,53934531,,-1.1300858248740826e-195,-5e-324,5e-324,5e-324,-5e-324,0.0
1668678504.062772,54645,1668678504,62464220,,-5.979033313788154e-196,-5e-324,5e-324,5e-324,-5e-324,0.0
1668678504.0704768,54646,1668678504,70256728,,-3.163373841218811e-196,-5e-324,5e-324,5e-324,-5e-324,0.0
1668678504.0787363,54647,1668678504,78404939,,-1.6736708986435355e-196,-5e-324,5e-324,5e-324,-5e-324,0.0
1668678504.0865893,54648,1668678504,86340201,,-8.855021308158127e-197,-5e-324,5e-324,5e-324,-5e-324,0.0
1668678504.0942152,54649,1668678504,94004203,,-8.855021308158127e-197,-5e-324,5e-324,5e-324,-5e-324,0.0
1668678504.104401,54650,1668678504,104074993,,-4.6849952658843964e-197,-5e-324,5e-324,5e-324,-5e-324,0.0
1668678504.1127932,54651,1668678504,112300853,,-2.4787270270188323e-197,-5e-324,5e-324,5e-324,-5e-324,0.0
1668678504.119183,54652,1668678504,118787818,,-1.3114394627491233e-197,-5e-324,5e-324,5e-324,-5e-324,0.0
1668678504.1269426,54653,1668678504,126641152,,-6.938535166271224e-198,-5e-324,5e-324,5e-324,-5e-324,0.0
1668678504.1346111,54654,1668678504,134367749,,-3.671024978359386e-198,-5e-324,5e-324,5e-324,-5e-324,0.0
1668678504.1423965,54655,1668678504,142039938,,-3.671024978359386e-198,-5e-324,5e-324,5e-324,-5e-324,0.0
1668678504.1502995,54656,1668678504,150049638,,-1.9422578496464944e-198,-5e-324,5e-324,5e-324,-5e-324,0.0
1668678504.1585116,54657,1668678504,158325084,,-1.0276055261817718e-198,-5e-324,5e-324,5e-324,-5e-324,0.0
1668678504.1665454,54658,1668678504,166313010,,-5.436832795560647e-199,-5e-324,5e-324,5e-324,-5e-324,0.0
1668678504.1744885,54659,1668678504,174151046,,-2.876507579393372e-199,-5e-324,5e-324,5e-324,-5e-324,0.0
1668678504.1822286,54660,1668678504,182010603,,-2.876507579393372e-199,-5e-324,5e-324,5e-324,-5e-324,0.0
1668678504.1903336,54661,1668678504,190151777,,-1.5218963255709737e-199,-5e-324,5e-324,5e-324,-5e-324,0.0
1668678504.198335,54662,1668678504,198162977,,-8.052015723438105e-200,-5e-324,5e-324,5e-324,-5e-324,0.0
1668678504.2068906,54663,1668678504,206506028,,-4.2601428310939756e-200,-5e-324,5e-324,5e-324,-5e-324,0.0
1668678504.214124,54664,1668678504,213906643,,-4.2601428310939756e-200,-5e-324,5e-324,5e-324,-5e-324,0.0
1668678504.2233593,54665,1668678504,223078365,,-2.2539470319827056e-200,-5e-324,5e-324,5e-324,-5e-324,0.0
1668678504.2311761,54666,1668678504,230966914,,-1.192513355632977e-200,-5e-324,5e-324,5e-324,-5e-324,0.0
1668678504.2393749,54667,1668678504,239070320,,-6.309323525282978e-201,-5e-324,5e-324,5e-324,-5e-324,0.0
1668678504.2469275,54668,1668678504,246639653,,-3.338123062408779e-201,-5e-324,5e-324,5e-324,-5e-324,0.0
1668678504.2544568,54669,1668678504,254140201,,-3.338123062408779e-201,-5e-324,5e-324,5e-324,-5e-324,0.0
1668678504.262487,54670,1668678504,262213077,,-1.7661268335872177e-201,-5e-324,5e-324,5e-324,-5e-324,0.0
1668678504.2705772,54671,1668678504,270260660,,-9.344185142371603e-202,-5e-324,5e-324,5e-324,-5e-324,0.0
1668678504.2786462,54672,1668678504,278363567,,-4.943800995173904e-202,-5e-324,5e-324,5e-324,-5e-324,0.0
1668678504.2865188,54673,1668678504,286265572,,-2.615655395038458e-202,-5e-324,5e-324,5e-324,-5e-324,0.0
1668678504.2944484,54674,1668678504,294244437,,-1.3838852235906247e-202,-5e-324,5e-324,5e-324,-5e-324,0.0
1668678504.3023348,54675,1668678504,302069222,,-1.3838852235906247e-202,-5e-324,5e-324,5e-324,-5e-324,0.0
1668678504.311024,54676,1668678504,310622116,,-7.321829609914325e-203,-5e-324,5e-324,5e-324,-5e-324,0.0
1668678504.318256,54677,1668678504,318070591,,-3.873817562523278e-203,-5e-324,5e-324,5e-324,-5e-324,0.0
1668678504.3264391,54678,1668678504,326249429,,-2.0495509056088767e-203,-5e-324,5e-324,5e-324,-5e-324,0.0
1668678504.3347561,54679,1668678504,334087095,,-1.0843719010726965e-203,-5e-324,5e-324,5e-324,-5e-324,0.0
1668678504.3421912,54680,1668678504,341962542,,-1.0843719010726965e-203,-5e-324,5e-324,5e-324,-5e-324,0.0
1668678504.350645,54681,1668678504,350401921,,-5.7371710876665975e-204,-5e-324,5e-324,5e-324,-5e-324,0.0
1668678504.3584578,54682,1668678504,358249123,,-3.0354099047196627e-204,-5e-324,5e-324,5e-324,-5e-324,0.0
1668678504.3663838,54683,1668678504,366157226,,-1.6059680195832546e-204,-5e-324,5e-324,5e-324,-5e-324,0.0
1668678504.374055,54684,1668678504,373844124,,-1.6059680195832546e-204,-5e-324,5e-324,5e-324,-5e-324,0.0
1668678504.3828278,54685,1668678504,382308705,,-8.496820399491839e-205,-5e-324,5e-324,5e-324,-5e-324,0.0
1668678504.3907442,54686,1668678504,390486357,,-4.4954791142077255e-205,-5e-324,5e-324,5e-324,-5e-324,0.0
1668678504.3992193,54687,1668678504,398900034,,-2.3784582368584036e-205,-5e-324,5e-324,5e-324,-5e-324,0.0
1668678504.4068666,54688,1668678504,406510529,,-1.2583894710133862e-205,-5e-324,5e-324,5e-324,-5e-324,0.0
1668678504.41449,54689,1668678504,414252711,,-6.657859432709572e-206,-5e-324,5e-324,5e-324,-5e-324,0.0
1668678504.422363,54690,1668678504,422095723,,-6.657859432709572e-206,-5e-324,5e-324,5e-324,-5e-324,0.0
1668678504.4305239,54691,1668678504,430256906,,-3.522525676412648e-206,-5e-324,5e-324,5e-324,-5e-324,0.0
1668678504.4383533,54692,1668678504,438108651,,-1.8636901644432255e-206,-5e-324,5e-324,5e-324,-5e-324,0.0
1668678504.4465656,54693,1668678504,446365959,,-9.86037107493757e-207,-5e-324,5e-324,5e-324,-5e-324,0.0
1668678504.4540648,54694,1668678504,453871300,,-9.86037107493757e-207,-5e-324,5e-324,5e-324,-5e-324,0.0
1668678504.4623299,54695,1668678504,462125163,,-5.216903517034543e-207,-5e-324,5e-324,5e-324,-5e-324,0.0
1668678504.470699,54696,1668678504,470344633,,-0.18151707814125054,0.1155069114220511,5e-324,5e-324,-5e-324,0.0
1668678504.4784224,54697,1668678504,478183675,,-0.2775337966733108,0.17664132287561024,5e-324,5e-324,-5e-324,0.0
1668678504.486495,54698,1668678504,486282254,,-2.0829774391064424,-0.7617906013324226,5e-324,5e-324,-5e-324,0.0
1668678504.494565,54699,1668678504,493831669,,-2.0829774391064424,-0.7617906013324226,5e-324,5e-324,-5e-324,0.0
1668678504.5023887,54700,1668678504,502166853,,-2.913602784803062,-1.0582981194444654,5e-324,5e-324,-5e-324,0.0
1668678504.5104015,54701,1668678504,510171909,,-3.3531133092582888,-1.2150965238528038,5e-324,5e-324,-5e-324,0.0
1668678504.5185273,54702,1668678504,518283718,,-2.0670399977093266,-0.6428806056737854,5e-324,5e-324,-5e-324,0.0
1668678504.5265937,54703,1668678504,526170151,,-1.093624991589795,-0.34013386182772054,5e-324,5e-324,-5e-324,0.0
1668678504.5342739,54704,1668678504,534057425,,-1.093624991589795,-0.34013386182772054,5e-324,5e-324,-5e-324,0.0
1668678504.5427814,54705,1668678504,542539280,,-0.5786127136171493,-0.1799572781334511,5e-324,5e-324,-5e-324,0.0
1668678504.5506506,54706,1668678504,550419273,,-0.30613114635640815,-0.09521140229667356,5e-324,5e-324,-5e-324,0.0
1668678504.559337,54707,1668678504,558737502,,-0.16196719595673773,-0.05037424004922167,5e-324,5e-324,-5e-324,0.0
1668678504.5664346,54708,1668678504,566242667,,-0.0856932490480616,-0.026651892518394976,5e-324,5e-324,-5e-324,0.0
1668678504.5740855,54709,1668678504,573831057,,-0.0856932490480616,-0.026651892518394976,5e-324,5e-324,-5e-324,0.0
1668678504.582267,54710,1668678504,582077799,,-0.045338396389689624,-0.014100924879819666,5e-324,5e-324,-5e-324,0.0
1668678504.5913038,54711,1668678504,591029245,,-0.023987539392230788,-0.007460486429962968,5e-324,5e-324,-5e-324,0.0
1668678504.599114,54712,1668678504,598864586,,-0.01269127476737743,-0.003947177808975988,5e-324,5e-324,-5e-324,0.0
1668678504.606676,54713,1668678504,606390268,,-0.006714671838047663,-0.0020883641840160577,5e-324,5e-324,-5e-324,0.0
1668678504.6152418,54714,1668678504,614988158,,-0.0035525838593113432,-0.0011049071453440532,5e-324,5e-324,-5e-324,0.0
1668678504.622611,54715,1668678504,622177124,,-0.0035525838593113432,-0.0011049071453440532,5e-324,5e-324,-5e-324,0.0
1668678504.6305287,54716,1668678504,630310743,,-0.001879593281971778,-0.0005845818507979918,5e-324,5e-324,-5e-324,0.0
1668678504.6385021,54717,1668678504,638259933,,-0.0009944510940603879,-0.0003092892843732977,5e-324,5e-324,-5e-324,0.0
1668678504.6465213,54718,1668678504,646267989,,-0.0005261420052749215,-0.04610087464524075,0.09730929087669223,5e-324,-5e-324,0.0
1668678504.654465,54719,1668678504,654206053,,-0.00027837005898844673,-0.024390949716529584,0.2830318757578345,5e-324,-5e-324,0.0
1668678504.6623151,54720,1668678504,662066769,,-0.00027837005898844673,-0.024390949716529584,0.2830318757578345,5e-324,-5e-324,0.0
1668678504.6704874,54721,1668678504,670246681,,-0.00014727942069696758,-0.012904710217590012,0.38132131550981163,5e-324,-5e-324,0.0
1668678504.6788363,54722,1668678504,678431809,,-7.792227310529333e-05,-0.0068275957982527734,0.33533263907838073,5e-324,-5e-324,0.0
1668678504.6864488,54723,1668678504,686187361,,-4.1226945469788494e-05,-0.003612329420677576,0.20204491371264952,5e-324,-5e-324,0.0
1668678504.694172,54724,1668678504,693992133,,-4.1226945469788494e-05,-0.003612329420677576,0.20204491371264952,5e-324,-5e-324,0.0
1668678504.7025878,54725,1668678504,702395257,,-2.1812261950729138e-05,-0.00191120333263315,0.1315034373878175,5e-324,-5e-324,0.0
1668678504.710529,54726,1668678504,710250459,,0.17983491984132854,-0.0010111752703835385,0.12497064452842604,5e-324,-5e-324,0.0
1668678504.718954,54727,1668678504,718659860,,0.274941816816787,-0.0005349903958290572,0.12156031737445194,5e-324,-5e-324,0.0
1668678504.726453,54728,1668678504,726254457,,0.335134227646424,-0.00028305154606952574,0.39158607056785244,5e-324,-5e-324,0.0
1668678504.7340794,54729,1668678504,733874521,,0.335134227646424,-0.00028305154606952574,0.39158607056785244,5e-324,-5e-324,0.0
1668678504.742321,54730,1668678504,742094230,,0.37979351527655136,-0.00014975629162125858,0.5059234733223975,5e-324,-5e-324,0.0
1668678504.7505977,54731,1668678504,750281762,,0.4034190389204523,-7.92327305452793e-05,0.5664511648310498,5e-324,-5e-324,0.0
1668678504.758556,54732,1668678504,758322619,,0.3041211604997425,-4.192027941996442e-05,0.6069234999059282,5e-324,-5e-324,0.0
1668678504.7662148,54733,1668678504,766052086,,0.2654207652890207,-2.2179089557485826e-05,0.6569260572025073,5e-324,-5e-324,0.0
1668678504.7738984,54734,1668678504,773696157,,0.2654207652890207,-2.2179089557485826e-05,0.6569260572025073,5e-324,-5e-324,0.0
1668678504.78256,54735,1668678504,782317631,,0.24493752196376792,-1.1734464092448416e-05,0.6834114433858895,5e-324,-5e-324,0.0
1668678504.7905324,54736,1668678504,790227944,,0.17462246444791532,-6.208444543229048e-06,0.6097557906912597,5e-324,-5e-324,0.0
1668678504.7983022,54737,1668678504,798109412,,0.13741667977558633,-3.284750231683406e-06,0.570773848636627,5e-324,-5e-324,0.0
1668678504.806389,54738,1668678504,806137611,,0.07270411575509644,-1.7378884532859923e-06,0.5023010325235403,5e-324,-5e-324,0.0
1668678504.8140776,54739,1668678504,813838232,,0.07270411575509644,-1.7378884532859923e-06,0.5023010325235403,5e-324,-5e-324,0.0
1668678504.822843,54740,1668678504,822548921,,0.03846613421575015,-9.194782138783573e-07,0.3336716534594532,5e-324,-5e-324,0.0
1668678504.8305776,54741,1668678504,830339277,,0.020351577983401634,-4.864755181486933e-07,0.24445537347879867,5e-324,-5e-324,0.0
1668678504.8386471,54742,1668678504,838331291,,0.010767568274248032,-2.5738340091802155e-07,0.12933591321943347,5e-324,-5e-324,0.0
1668678504.8469527,54743,1668678504,846471390,,0.00569688142291235,-1.3617584564220265e-07,0.06842876149644388,5e-324,-5e-324,0.0
1668678504.8556151,54744,1668678504,854153446,,0.00569688142291235,-1.3617584564220265e-07,0.06842876149644388,5e-324,-5e-324,0.0
1668678504.8623517,54745,1668678504,862118927,,0.0030140935371956437,-7.204761795138202e-08,0.03620413915501412,5e-324,-5e-324,0.0
1668678504.8704042,54746,1668678504,870208960,,0.001594690002573417,-3.811879579662834e-08,0.01915480659435497,5e-324,-5e-324,0.0
1668678504.878503,54747,1668678504,878207513,,0.0008437150914280126,-2.0167808933885486e-08,0.010134383090733692,5e-324,-5e-324,0.0
1668678504.8863528,54748,1668678504,886155453,,0.00044639093137514483,-1.0670340148302585e-08,0.005361877193790979,5e-324,-5e-324,0.0
1668678504.8944,54749,1668678504,894170033,,0.00023617553560255467,-5.645440179135153e-09,0.025230370168202048,5e-324,-5e-324,0.0
1668678504.9022632,54750,1668678504,902052901,,0.00023617553560255467,-5.645440179135153e-09,0.025230370168202048,5e-324,-5e-324,0.0
1668678504.910602,54751,1668678504,910303596,,0.0001249552347430581,-2.986877116683438e-09,0.03575763236698417,5e-324,-5e-324,0.0
1668678504.9187484,54752,1668678504,918428664,,6.611104172943755e-05,-1.580290398459926e-09,0.055818223682257015,5e-324,-5e-324,0.0
1668678504.9264157,54753,1668678504,926219917,,0.034042374259323445,-8.360965804437238e-10,0.06282155446569805,5e-324,-5e-324,0.0
1668678504.9344134,54754,1668678504,934190204,,0.052018408787657164,-4.423601462813136e-10,0.06651443695444909,5e-324,-5e-324,0.0
1668678504.9422417,54755,1668678504,942002964,,0.052018408787657164,-4.423601462813136e-10,0.06651443695444909,5e-324,-5e-324,0.0
1668678504.950645,54756,1668678504,950378954,,0.02853831132561669,-2.340429366595122e-10,0.15602078535812827,5e-324,-5e-324,0.0
1668678504.9585538,54757,1668678504,958320182,,0.016069049168110704,-1.238269239683591e-10,0.20337511985716855,5e-324,-5e-324,0.0
1668678504.9665222,54758,1668678504,966273012,,0.008501777314810487,-6.551407753771494e-11,0.3467971650950508,5e-324,-5e-324,0.0
1668678504.9750328,54759,1668678504,974765759,,0.004498101708100284,-3.4662044554336694e-11,0.39510301141825865,5e-324,-5e-324,0.0
1668678504.982356,54760,1668678504,982092506,,0.004498101708100284,-3.4662044554336694e-11,0.39510301141825865,5e-324,-5e-324,0.0
1668678504.990678,54761,1668678504,990412723,,0.002379845793087055,-1.833891856288705e-11,0.4206460366817935,5e-324,-5e-324,0.0
1668678504.9984574,54762,1668678504,998226357,,0.0012591235962216894,-9.702714839252767e-12,0.25333786650427376,5e-324,-5e-324,0.0
1668678505.0063503,54763,1668678505,6166868,,0.0006661743526271604,-5.133491101398686e-12,0.13403544316130528,5e-324,-5e-324,0.0
1668678505.0145643,54764,1668678505,14355744,,0.00035245806641215544,-2.7160162206899393e-12,0.07091517849797802,5e-324,-5e-324,0.0
1668678505.0223074,54765,1668678505,22034399,,0.00035245806641215544,-2.7160162206899393e-12,0.07091517849797802,5e-324,-5e-324,0.0
1668678505.030392,54766,1668678505,30207473,,0.0001864777412836271,-1.4369839092622507e-12,0.03751964721262544,5e-324,-5e-324,0.0
1668678505.0384293,54767,1668678505,38175500,,9.86612346490592e-05,-7.602762972284739e-13,0.019850812714234514,5e-324,-5e-324,0.0
1668678505.0465841,54768,1668678505,46369015,,5.2199469789112986e-05,-4.0224531701555023e-13,0.01050262448318049,5e-324,-5e-324,0.0
1668678505.054403,54769,1668678505,54170227,,2.761758106876176e-05,-2.1281907071254769e-13,0.00555670554262019,5e-324,-5e-324,0.0
1668678505.0620842,54770,1668678505,61895518,,2.761758106876176e-05,-2.1281907071254769e-13,0.00555670554262019,5e-324,-5e-324,0.0
1668678505.0705914,54771,1668678505,70340308,,1.4611849261516972e-05,-1.1259784749017091e-13,0.0029399295896786674,5e-324,-5e-324,0.0
1668678505.0784125,54772,1668678505,78189215,,7.730805182021926e-06,-5.957302236576435e-14,0.0015554515037686518,5e-324,-5e-324,0.0
1668678505.086541,54773,1668678505,86266346,,4.090197461849011e-06,-3.151876410516338e-14,0.0008229548724806714,5e-324,-5e-324,0.0
1668678505.0943103,54774,1668678505,94067458,,4.090197461849011e-06,-3.151876410516338e-14,0.0008229548724806714,5e-324,-5e-324,0.0
1668678505.1029823,54775,1668678505,102377206,,2.1640327084973286e-06,-1.6675878632067608e-14,0.0004354071602353272,5e-324,-5e-324,0.0
1668678505.1105058,54776,1668678505,110199165,,1.1449416824314577e-06,-8.82283731759309e-15,0.00023036426604138556,5e-324,-5e-324,0.0
1668678505.1186748,54777,1668678505,118412789,,6.057632359352091e-07,-4.667967430694937e-15,0.00012188062098038176,5e-324,-5e-324,0.0
1668678505.12679,54778,1668678505,126563965,,-0.01746345996804055,-2.469717977297249e-15,6.448433181861093e-05,5e-324,-5e-324,0.0
1668678505.1342463,54779,1668678505,134003919,,-0.01746345996804055,-2.469717977297249e-15,6.448433181861093e-05,5e-324,-5e-324,0.0
1668678505.142558,54780,1668678505,142330458,,-0.00923952912466223,-1.306672974467853e-15,3.411722894620006e-05,5e-324,-5e-324,0.0
1668678505.1506405,54781,1668678505,150373100,,-0.0048884298187021995,-6.913316734541341e-16,1.8050668715024064e-05,5e-324,-5e-324,0.0
1668678505.1584382,54782,1668678505,158230458,,-0.03784987348693836,-3.6576824657717897e-16,9.55020824151191e-06,5e-324,-5e-324,0.0
1668678505.1666439,54783,1668678505,166400776,,-0.09957928947405244,-1.9351986223298642e-16,5.0528032449195835e-06,5e-324,-5e-324,0.0
1668678505.173987,54784,1668678505,173814549,,-0.09957928947405244,-1.9351986223298642e-16,5.0528032449195835e-06,5e-324,-5e-324,0.0
1668678505.1824872,54785,1668678505,182274302,,-0.1321970150869719,-1.0238706456650254e-16,2.6733260664301545e-06,5e-324,-5e-324,0.0
1668678505.1904075,54786,1668678505,190194521,,-0.06994250700175184,-5.4170723715812266e-17,1.4143974960118722e-06,5e-324,-5e-324,0.0
1668678505.1984758,54787,1668678505,198158087,,-0.03700502830923759,-2.866052777583899e-17,7.483263272093342e-07,5e-324,-5e-324,0.0
1668678505.2063558,54788,1668678505,206144422,,-0.019578539272736922,-1.5163649219437442e-17,3.959228530689587e-07,5e-324,-5e-324,0.0
1668678505.2142134,54789,1668678505,213931270,,-0.019578539272736922,-1.5163649219437442e-17,3.959228530689587e-07,5e-324,-5e-324,0.0
1668678505.2223735,54790,1668678505,222156600,,-0.010358570647503432,-8.022750294360717e-18,2.0947399534483328e-07,5e-324,-5e-324,0.0
1668678505.23059,54791,1668678505,230329462,,-0.005480489854967611,-4.244659142019696e-18,1.1082804234613018e-07,5e-324,-5e-324,0.0
1668678505.2384784,54792,1668678505,238216852,,-0.0028996055606998225,-2.2457549557033868e-18,5.863665773909431e-08,5e-324,-5e-324,0.0
1668678505.2466323,54793,1668678505,246417238,,-0.0015341169548959998,-1.1881791098699529e-18,3.1023354360745356e-08,5e-324,-5e-324,0.0
1668678505.2541947,54794,1668678505,253929136,,-0.0015341169548959998,-1.1881791098699529e-18,3.1023354360745356e-08,5e-324,-5e-324,0.0
1668678505.2624998,54795,1668678505,262283173,,-0.0008116672361227477,-6.286391992795033e-19,1.641376833029644e-08,5e-324,-5e-324,0.0
1668678505.270678,54796,1668678505,270406708,,-0.00042943512233055377,-3.325990497459837e-19,8.684160573607607e-09,5e-324,-5e-324,0.0
1668678505.2784038,54797,1668678505,278142349,,-0.0002272045933158362,-1.7597077627153653e-19,4.594596642929391e-09,5e-324,-5e-324,0.0
1668678505.2865574,54798,1668678505,286327062,,-0.00012020890825990476,-9.310223262891655e-20,2.4308991217153767e-09,5e-324,-5e-324,0.0
1668678505.2943895,54799,1668678505,294028969,,-0.00012020890825990476,-9.310223262891655e-20,2.4308991217153767e-09,5e-324,-5e-324,0.0
1668678505.3029885,54800,1668678505,302572230,,-6.359986571640767e-05,-4.9258325184140004e-20,1.2861347794371342e-09,5e-324,-5e-324,0.0
1668678505.311368,54801,1668678505,311090867,,-3.364927755935925e-05,-2.6061486727364184e-20,6.804653702415061e-10,5e-324,-5e-324,0.0
1668678505.3192751,54802,1668678505,319018813,,-1.7803086020898482e-05,-1.3788554277912515e-20,0.023506171803698784,5e-324,-5e-324,0.0
1668678505.3272462,54803,1668678505,326931626,,0.11906160067027341,-7.295218076538658e-21,0.0553330623108982,5e-324,-5e-324,0.0
1668678505.3344753,54804,1668678505,334286302,,0.11906160067027341,-7.295218076538658e-21,0.0553330623108982,5e-324,-5e-324,0.0
1668678505.3424885,54805,1668678505,342233653,,0.18208374217555023,-3.859737990770237e-21,0.07217803426752553,5e-324,-5e-324,0.0
1668678505.3503878,54806,1668678505,350188431,,0.2930048254593568,-0.056974977712340474,0.1903882554832163,5e-324,-5e-324,0.0
1668678505.3586516,54807,1668678505,358331495,,0.3516554631874907,-0.0871491946057317,0.25294298673351084,5e-324,-5e-324,0.0
1668678505.3663056,54808,1668678505,366088156,,0.5274711847942757,-0.24936265546653458,0.4811378334909665,5e-324,-5e-324,0.0
1668678505.3740423,54809,1668678505,373851766,,0.5274711847942757,-0.24936265546653458,0.4811378334909665,5e-324,-5e-324,0.0
1668678505.3826277,54810,1668678505,382408442,,0.6622717637635702,-0.34304534675566,0.7760480124181568,5e-324,-5e-324,0.0
1668678505.3906233,54811,1668678505,390245688,,0.733623023934125,-0.39250741457609095,0.9321225659190457,5e-324,-5e-324,0.0
1668678505.398496,54812,1668678505,398237937,,0.9644016455808395,-0.6115162251728464,1.2999077486021209,5e-324,-5e-324,0.0
1668678505.4065816,54813,1668678505,406331792,,1.191861780500017,-0.7963655403214973,1.6081887471538092,5e-324,-5e-324,0.0
1668678505.4144278,54814,1668678505,414164562,,1.3121837971321044,-0.8941392321500017,1.7713293033551274,5e-324,-5e-324,0.0
1668678505.4224365,54815,1668678505,422112615,,1.3121837971321044,-0.8941392321500017,1.7713293033551274,5e-324,-5e-324,0.0
1668678505.4305363,54816,1668678505,430309397,,1.4703922620037,-1.0837886168398423,1.9776033951380945,5e-324,-5e-324,0.0
1668678505.4383438,54817,1668678505,438154663,,1.5543482947609806,-1.1837491467229326,2.0868019578328134,5e-324,-5e-324,0.0
1668678505.4468112,54818,1668678505,446596213,,1.6388010850722894,-1.2493731232912204,2.102044528725379,5e-324,-5e-324,0.0
1668678505.4546485,54819,1668678505,454308443,,1.6871841664288199,-1.2791315413127156,2.072283682509813,5e-324,-5e-324,0.0
1668678505.462417,54820,1668678505,461932642,,1.6871841664288199,-1.2791315413127156,2.072283682509813,5e-324,-5e-324,0.0
1668678505.4704747,54821,1668678505,470270665,,1.7127319247233768,-1.2947350839830853,2.056690846353228,5e-324,-5e-324,0.0
1668678505.4784067,54822,1668678505,478230528,,1.659174075164486,-1.2308004994728452,1.9766870667828713,5e-324,-5e-324,0.0
1668678505.486578,54823,1668678505,486122408,,1.6114224431546995,-1.172501694095224,1.9104055614781297,5e-324,-5e-324,0.0
1668678505.4945157,54824,1668678505,494163948,,1.5861311072217164,-1.1415747074574463,1.8754230477759521,5e-324,-5e-324,0.0
1668678505.5026374,54825,1668678505,502370044,,1.5861311072217164,-1.1415747074574463,1.8754230477759521,5e-324,-5e-324,0.0
1668678505.5105422,54826,1668678505,510354927,,1.5208182379463098,-1.014231807453504,1.6571536083808651,5e-324,-5e-324,0.0
1668678505.519503,54827,1668678505,519176636,,1.486186102907572,-0.9470195291833051,1.5416240513457358,5e-324,-5e-324,0.0
1668678505.5277333,54828,1668678505,527400568,,1.4073201431538278,-0.9709354538522127,1.4726922461922594,5e-324,-5e-324,0.0
1668678505.534513,54829,1668678505,534245765,,1.4073201431538278,-0.9709354538522127,1.4726922461922594,5e-324,-5e-324,0.0
1668678505.5432422,54830,1668678505,542960884,,1.3520739433091549,-0.9851807099243555,1.4881500682049031,5e-324,-5e-324,0.0
1668678505.5513792,54831,1668678505,551000025,,1.3227572296689316,-0.9927367038127043,1.4963928392515027,5e-324,-5e-324,0.0
1668678505.5590317,54832,1668678505,558804845,,1.2369892794308457,-1.00529323810444,1.496726890156282,5e-324,-5e-324,0.0
1668678505.5672839,54833,1668678505,567094184,,1.2390268642569247,-1.0374045016799887,1.4500133834001063,5e-324,-5e-324,0.0
1668678505.5745978,54834,1668678505,574367538,,1.2390268642569247,-1.0374045016799887,1.4500133834001063,5e-324,-5e-324,0.0
1668678505.583368,54835,1668678505,583088023,,1.2402094990915686,-1.0543578718818212,1.4252316400973806,5e-324,-5e-324,0.0
1668678505.5912316,54836,1668678505,591045688,,1.2667685763354888,-1.0563617035727835,1.2657627241988414,5e-324,-5e-324,0.0
1668678505.5990098,54837,1668678505,598777816,,1.2806230765098086,-1.057637065940475,1.1813961004105158,5e-324,-5e-324,0.0
1668678505.6076977,54838,1668678505,607493895,,1.3641447776826352,-1.1295409355909332,1.1706016478334922,5e-324,-5e-324,0.0
1668678505.615071,54839,1668678505,614705094,,1.3641447776826352,-1.1295409355909332,1.1706016478334922,5e-324,-5e-324,0.0
1668678505.6234396,54840,1668678505,623139577,,1.4066036427451147,-1.2048754666961543,1.2316897191099292,5e-324,-5e-324,0.0
1668678505.6303892,54841,1668678505,630202678,,1.4291118073347129,-1.2446672049203666,1.2640287639254462,5e-324,-5e-324,0.0
1668678505.6383703,54842,1668678505,638159285,,1.4851109187245832,-1.3188399991473854,1.333625043629032,5e-324,-5e-324,0.0
1668678505.6465402,54843,1668678505,646352019,,1.5900407166449955,-1.401477893096236,1.3613428744777538,5e-324,-5e-324,0.0
1668678505.6542723,54844,1668678505,654051559,,1.645539435193705,-1.4451740642893438,1.3760541521536531,5e-324,-5e-324,0.0
1668678505.6621346,54845,1668678505,661922252,,1.645539435193705,-1.4451740642893438,1.3760541521536531,5e-324,-5e-324,0.0
1668678505.6706126,54846,1668678505,670418838,,1.5570137154369386,-1.4284826992813708,1.3744787480347749,5e-324,-5e-324,0.0
1668678505.6788547,54847,1668678505,678247703,,1.5101824748797916,-1.4197216017306622,1.3735682484307092,5e-324,-5e-324,0.0
1668678505.6864483,54848,1668678505,686231198,,1.484893967908841,-1.3627075707078808,1.353270124162831,5e-324,-5e-324,0.0
1668678505.694313,54849,1668678505,694075104,,1.484893967908841,-1.3627075707078808,1.353270124162831,5e-324,-5e-324,0.0
1668678505.7023008,54850,1668678505,702042046,,1.4396748568486593,-1.3441764069404218,1.3006464004058444,5e-324,-5e-324,0.0
1668678505.7104228,54851,1668678505,710138703,,1.4156584928709308,-1.334480132771985,1.2727902238164082,5e-324,-5e-324,0.0
1668678505.7185538,54852,1668678505,718293051,,1.4448273543984822,-1.3278576382076663,1.1729584951391632,5e-324,-5e-324,0.0
1668678505.7264543,54853,1668678505,726114257,,1.4256234888769839,-1.29246238786686,1.1197217447858026,5e-324,-5e-324,0.0
1668678505.7340744,54854,1668678505,733878734,,1.4256234888769839,-1.29246238786686,1.1197217447858026,5e-324,-5e-324,0.0
1668678505.74275,54855,1668678505,742259510,,1.4153767731418667,-1.2738203631228013,1.0915634064481172,5e-324,-5e-324,0.0
1668678505.7505856,54856,1668678505,750396374,,1.3678248372216588,-1.1567530333773524,0.8345186912704378,5e-324,-5e-324,0.0
1668678505.7587492,54857,1668678505,758321337,,1.342709620812506,-1.094747002074354,0.698546457176815,5e-324,-5e-324,0.0
1668678505.7670941,54858,1668678505,766686086,,1.2658072595266874,-1.0850686368357851,0.5568212171464239,5e-324,-5e-324,0.0
1668678505.7743223,54859,1668678505,774088243,,1.2475817254204726,-1.0472850410138825,0.452826295383779,5e-324,-5e-324,0.0
1668678505.7825096,54860,1668678505,782293764,,1.2475817254204726,-1.0472850410138825,0.452826295383779,5e-324,-5e-324,0.0
1668678505.7911804,54861,1668678505,790911244,,1.237784451249021,-1.0274854289122395,0.3977760786322343,5e-324,-5e-324,0.0
1668678505.7983775,54862,1668678505,798105005,,1.1493410371815191,-0.9324392442864062,0.3532804574773744,5e-324,-5e-324,0.0
1668678505.8065317,54863,1668678505,806107009,,1.0812254661436822,-0.8721994427362796,0.3062615372501034,5e-324,-5e-324,0.0
1668678505.8145695,54864,1668678505,814303007,,1.0451365352081197,-0.8404617445698032,0.28127291034832846,5e-324,-5e-324,0.0
1668678505.8220491,54865,1668678505,821854763,,1.0451365352081197,-0.8404617445698032,0.28127291034832846,5e-324,-5e-324,0.0
1668678505.8303943,54866,1668678505,830166616,,1.0766965045586567,-0.8920614701124656,0.1937569124500258,5e-324,-5e-324,0.0
1668678505.8385732,54867,1668678505,838318272,,1.09329876630651,-0.9194309452376082,0.14751490620915475,5e-324,-5e-324,0.0
1668678505.8466103,54868,1668678505,846299145,,1.1550647782270986,-1.0329018160942267,0.1905947463211482,5e-324,-5e-324,0.0
1668678505.8545184,54869,1668678505,854281682,,1.169926468429987,-1.1484075002811325,0.24292858408065254,5e-324,-5e-324,0.0
1668678505.8622196,54870,1668678505,861953149,,1.169926468429987,-1.1484075002811325,0.24292858408065254,5e-324,-5e-324,0.0
1668678505.8702588,54871,1668678505,870016465,,1.169926468429987,-1.1484075002811325,0.24292858408065254,5e-324,-5e-324,0.0
1668678505.8784268,54872,1668678505,878226598,,1.1777560979085049,-1.209540719294074,0.27063527313241353,5e-324,-5e-324,0.0
1668678505.886513,54873,1668678505,886240643,,1.1192004705205925,-1.2391548862224606,0.29518580937196537,5e-324,-5e-324,0.0
1668678505.894343,54874,1668678505,893967089,,1.1192004705205925,-1.2391548862224606,0.29518580937196537,5e-324,-5e-324,0.0
1668678505.9025083,54875,1668678505,902254302,,1.0881667510407116,-1.2549326817141804,0.3080692944719573,5e-324,-5e-324,0.0
1668678505.9109216,54876,1668678505,910686490,,1.0614509401364156,-1.2842266383540308,0.32019137498453765,5e-324,-5e-324,0.0
1668678505.918675,54877,1668678505,918437885,,1.0472812065377268,-1.2998260417669976,0.32648336818232637,5e-324,-5e-324,0.0
1668678505.9266732,54878,1668678505,926394276,,1.0755933621830114,-1.3206740725973423,0.3157769938952931,5e-324,-5e-324,0.0
1668678505.93448,54879,1668678505,934274925,,1.0755933621830114,-1.3206740725973423,0.3157769938952931,5e-324,-5e-324,0.0
1668678505.9425094,54880,1668678505,942324164,,1.0980530363868426,-1.3674845164092022,0.37193267206243324,5e-324,-5e-324,0.0
1668678505.9505723,54881,1668678505,950336034,,1.109844448859127,-1.3922077536044029,0.40185148039089136,5e-324,-5e-324,0.0
1668678505.9588304,54882,1668678505,958607399,,1.0040368031297604,-1.3449789120429845,0.42649906596547127,5e-324,-5e-324,0.0
1668678505.966546,54883,1668678505,966226165,,1.0012700827502647,-1.3481948785663112,0.4399119493591751,5e-324,-5e-324,0.0
1668678505.974141,54884,1668678505,973943332,,1.0012700827502647,-1.3481948785663112,0.4399119493591751,5e-324,-5e-324,0.0
1668678505.9823997,54885,1668678505,982183053,,0.9999112653023194,-1.3499183978675746,0.44682858969382194,5e-324,-5e-324,0.0
1668678505.9905186,54886,1668678505,990234578,,1.1837915732339142,-1.440755148563842,0.432320276637023,5e-324,-5e-324,0.0
1668678505.9982796,54887,1668678505,998077329,,1.2810890927934824,-1.4888947088362046,0.4244830589296863,5e-324,-5e-324,0.0
1668678506.0066843,54888,1668678506,6369024,,1.3365386265359471,-1.5546775067454384,0.5295173949922335,5e-324,-5e-324,0.0
1668678506.0141525,54889,1668678506,13909857,,1.3365386265359471,-1.5546775067454384,0.5295173949922335,5e-324,-5e-324,0.0
1668678506.023112,54890,1668678506,22903818,,1.369621052010236,-1.5840327589171777,0.5848742108050227,5e-324,-5e-324,0.0
1668678506.0308578,54891,1668678506,30503750,,1.387289253879911,-1.5994285643735733,0.6141362474648209,5e-324,-5e-324,0.0
1668678506.0395033,54892,1668678506,39192252,,1.2702711495085064,-1.57441155471232,0.610967698768946,5e-324,-5e-324,0.0
1668678506.046646,54893,1668678506,46267875,,1.1161440044093716,-1.5311120383259897,0.5904701329404388,5e-324,-5e-324,0.0
1668678506.0543714,54894,1668678506,54095243,,1.1161440044093716,-1.5311120383259897,0.5904701329404388,5e-324,-5e-324,0.0
1668678506.0632532,54895,1668678506,62916711,,1.034550917170396,-1.5082402987691856,0.5796259030042489,5e-324,-5e-324,0.0
1668678506.0704563,54896,1668678506,70274763,,0.9957389462683888,-1.4191696746334657,0.5347569678789109,5e-324,-5e-324,0.0
1668678506.0791156,54897,1668678506,78830545,,0.9752206176955912,-1.372103058200008,0.5109047906312645,5e-324,-5e-324,0.0
1668678506.0901496,54898,1668678506,89813055,,0.9810070032791769,-1.311415795233684,0.4503179283018245,5e-324,-5e-324,0.0
1668678506.0946422,54899,1668678506,94291828,,1.0269358147545646,-1.251779847607855,0.4268469614924538,5e-324,-5e-324,0.0
1668678506.1026826,54900,1668678506,102384536,,1.0269358147545646,-1.251779847607855,0.4268469614924538,5e-324,-5e-324,0.0
1668678506.110485,54901,1668678506,110275897,,1.051171994229767,-1.2202043620649978,0.4145601209822971,5e-324,-5e-324,0.0
1668678506.1182632,54902,1668678506,118055837,,1.0018531661755203,-1.229933193741623,0.3947941612923672,5e-324,-5e-324,0.0
1668678506.1268096,54903,1668678506,126517984,,0.9719453106395237,-1.2406235408003312,0.3845083149219323,5e-324,-5e-324,0.0
1668678506.1342473,54904,1668678506,133911941,,0.9719453106395237,-1.2406235408003312,0.3845083149219323,5e-324,-5e-324,0.0
1668678506.1423805,54905,1668678506,142180868,,0.9561001637506543,-1.246354456388708,0.37897386104836556,5e-324,-5e-324,0.0
1668678506.1504028,54906,1668678506,150205399,,0.9528792380057811,-1.2232251603546846,0.4415200158473428,5e-324,-5e-324,0.0
1668678506.1586058,54907,1668678506,158285732,,0.951283997271672,-1.210957163421679,0.47451616090806603,5e-324,-5e-324,0.0
1668678506.166559,54908,1668678506,166291827,,0.9996428928880257,-1.138535317407165,0.4432701168903455,5e-324,-5e-324,0.0
1668678506.174677,54909,1668678506,174378412,,0.9996428928880257,-1.138535317407165,0.4432701168903455,5e-324,-5e-324,0.0
1668678506.1825824,54910,1668678506,182326643,,1.0311064934240797,-0.9325476645846994,0.3620336152909357,5e-324,-5e-324,0.0
1668678506.1904733,54911,1668678506,190228992,,1.047714975289499,-0.8236132003439594,0.3190496819089926,5e-324,-5e-324,0.0
1668678506.1987195,54912,1668678506,198453360,,1.1057855423054939,-0.6695688639202849,0.336377655952123,5e-324,-5e-324,0.0
1668678506.2064023,54913,1668678506,206211671,,1.1322358869301206,-0.564615364288958,0.3592414126329483,5e-324,-5e-324,0.0
1668678506.2143764,54914,1668678506,214152717,,1.1461952408266671,-0.5091343078970318,0.37134302372714106,5e-324,-5e-324,0.0
1668678506.2225564,54915,1668678506,222221918,,1.1461952408266671,-0.5091343078970318,0.37134302372714106,5e-324,-5e-324,0.0
1668678506.2303379,54916,1668678506,230098586,,1.2371910118318645,-0.5095484250083648,0.5002637843180446,5e-324,-5e-324,0.0
1668678506.2387257,54917,1668678506,238416462,,1.2854183900381044,-0.5095852976271176,0.568521342611114,5e-324,-5e-324,0.0
1668678506.2469401,54918,1668678506,246674180,,1.3418525534106678,-0.5166408775157065,0.6892920875510192,5e-324,-5e-324,0.0
1668678506.2549345,54919,1668678506,254402337,,1.3418525534106678,-0.5166408775157065,0.6892920875510192,5e-324,-5e-324,0.0
1668678506.2626114,54920,1668678506,262330378,,1.528039396994817,-0.5792594262520776,0.8806097201272266,5e-324,-5e-324,0.0
1668678506.2704742,54921,1668678506,270266541,,1.626627869754514,-0.6122633561602931,0.9818249381235343,5e-324,-5e-324,0.0
1668678506.2786243,54922,1668678506,278228488,,1.6961357607063312,-0.6384298736619264,1.157931815703697,5e-324,-5e-324,0.0
1668678506.2866135,54923,1668678506,286234294,,1.7858786991014162,-0.6745361548248681,1.3123356690243888,5e-324,-5e-324,0.0
1668678506.2945986,54924,1668678506,294313298,,1.8332633064746187,-0.693814287282175,1.3940184274120424,5e-324,-5e-324,0.0
1668678506.3022122,54925,1668678506,302018210,,1.8332633064746187,-0.693814287282175,1.3940184274120424,5e-324,-5e-324,0.0
1668678506.3104837,54926,1668678506,310173100,,1.9431424544889415,-0.7914550946602061,1.5420050251227198,5e-324,-5e-324,0.0
1668678506.318513,54927,1668678506,318284058,,2.0013709313586476,-0.8429447724508096,1.620314430175498,5e-324,-5e-324,0.0
1668678506.326452,54928,1668678506,326131292,,2.0792259739193844,-0.8588079367182697,1.7837918332442078,5e-324,-5e-324,0.0
1668678506.3345525,54929,1668678506,334331869,,2.430711749927368,-0.915121000457016,1.7938258016892643,5e-324,-5e-324,0.0
1668678506.3422697,54930,1668678506,341931802,,2.430711749927368,-0.915121000457016,1.7938258016892643,5e-324,-5e-324,0.0
1668678506.3506799,54931,1668678506,350243007,,2.6165799813154305,-0.9451003767038388,1.799133474831442,5e-324,-5e-324,0.0
1668678506.358338,54932,1668678506,358076853,,2.5660090715825827,-1.8475722425193752,1.29815802580327,5e-324,-5e-324,0.0
1668678506.3663201,54933,1668678506,366154314,,2.6769327073635676,-2.717995600815202,0.6868266030771644,5e-324,-5e-324,0.0
1668678506.3744783,54934,1668678506,374249489,,2.7355274048774287,-3.178571220894554,0.36338471381603993,5e-324,-5e-324,0.0
1668678506.382354,54935,1668678506,382033276,,2.7355274048774287,-3.178571220894554,0.36338471381603993,5e-324,-5e-324,0.0
1668678506.3906817,54936,1668678506,390456023,,2.272100731522694,-4.447672810350965,0.19225878794378864,5e-324,-0.1105366806237745,0.0
1668678506.398729,54937,1668678506,398515906,,2.0268280651433033,-5.11916113021787,0.10171985814551099,5e-324,-0.16902267949977473,0.0
1668678506.4066677,54938,1668678506,406434823,,1.7425682853623397,-5.701844949457586,0.053817719604931896,5e-324,-0.23770723456406578,0.0
1668678506.4146924,54939,1668678506,414405922,,1.7425682853623397,-5.701844949457586,0.053817719604931896,5e-324,-0.23770723456406578,0.0
1668678506.422298,54940,1668678506,422095444,,1.5807908644815676,-6.265661099234494,0.028473761134544896,5e-324,-0.31941698277506747,0.0
1668678506.430298,54941,1668678506,430082924,,1.4951607499148918,-6.563984736496203,0.015064835134204039,5e-324,-0.36265040900503576,0.0
1668678506.4384413,54942,1668678506,438221035,,1.5669471039782437,-6.81677068970155,0.007970469954719447,5e-324,-0.40020047546461557,0.0
1668678506.4464188,54943,1668678506,446136710,,1.6227327948491446,-6.935837448969067,0.0042169987745068,5e-324,-0.4159764101691761,0.0
1668678506.4541438,54944,1668678506,453908798,,1.6227327948491446,-6.935837448969067,0.0042169987745068,5e-324,-0.4159764101691761,0.0
1668678506.4629357,54945,1668678506,462711498,,1.652387488698995,-6.998816730865665,0.0022311204690837836,5e-324,-0.4243201684174126,0.0
1668678506.4704697,54946,1668678506,470257428,,1.5871936898401748,-6.9007062732584785,0.0011804363277641298,5e-324,-0.3993931540744229,0.0
1668678506.4786532,54947,1668678506,478237879,,1.5527403878621198,-6.848783282893633,0.0006245426650930599,5e-324,-0.3862021749884693,0.0
1668678506.4866312,54948,1668678506,486372851,,1.5285843501790277,-6.764760258325927,0.00033043166441712636,5e-324,-0.3661381242770487,0.0
1668678506.4944043,54949,1668678506,494192172,,1.3207342664222173,-6.758996616583461,0.00017482406079207303,5e-324,-0.3583696263220284,0.0
1668678506.5020561,54950,1668678506,501848169,,1.3207342664222173,-6.758996616583461,0.00017482406079207303,5e-324,-0.3583696263220284,0.0
1668678506.5110395,54951,1668678506,510714356,,1.2108120239240159,-6.755923555336066,9.249553091633531e-05,5e-324,-0.35425653342457697,0.0
1668678506.5183089,54952,1668678506,518121817,,1.0183550181914685,-6.881272080114175,4.893733277177524e-05,5e-324,-0.374109495848601,0.0
1668678506.5262516,54953,1668678506,526042626,,0.8924469692591663,-6.994639937834999,2.589165676535966e-05,5e-324,-0.39400766948006954,0.0
1668678506.5342443,54954,1668678506,534036139,,0.8924469692591663,-6.994639937834999,2.589165676535966e-05,5e-324,-0.39400766948006954,0.0
1668678506.5430717,54955,1668678506,542809405,,0.8256941749387305,-7.05465420374135,1.369870101383697e-05,5e-324,-0.40453905780990823,0.0
1668678506.5505655,54956,1668678506,550338591,,0.8795917675101789,-7.127713549298268,7.247678708515868e-06,5e-324,-0.41635207058046136,0.0
1668678506.5587132,54957,1668678506,558535555,,0.9081000523924331,-7.1663705794108115,3.834585966130306e-06,5e-324,-0.4226023381290197,0.0
1668678506.5665007,54958,1668678506,566295964,,0.9327702589411443,-7.23762979006216,2.0287943385744386e-06,5e-324,-0.43142110840822745,0.0
1668678506.5747237,54959,1668678506,574367285,,0.7286004666372775,-7.292828404557328,1.0733900620789538e-06,5e-324,-0.4375012720910394,0.0
1668678506.5820427,54960,1668678506,581832838,,0.7286004666372775,-7.292828404557328,1.0733900620789538e-06,5e-324,-0.4375012720910394,0.0
1668678506.590627,54961,1668678506,590425243,,0.6206301624895731,-7.322011976385333,5.679068614611012e-07,5e-324,-0.44071620016752805,0.0
1668678506.5985205,54962,1668678506,598333367,,0.7358967201594918,-7.346962896814512,3.0046691756204784e-07,5e-324,-0.4491312331784285,0.0
1668678506.6066127,54963,1668678506,606323958,,0.9738427519763627,-7.415196290933301,-0.01533862731714301,5e-324,-0.464764005309466,0.0
1668678506.6144214,54964,1668678506,614194292,,1.099525148260297,-7.451369195454859,-0.02331571213255551,5e-324,-0.47304150458178035,0.0
1668678506.622048,54965,1668678506,621778151,,1.099525148260297,-7.451369195454859,-0.02331571213255551,5e-324,-0.47304150458178035,0.0
1668678506.6304293,54966,1668678506,630175629,,1.1796774376610502,-7.360486961945416,-0.012335825873293915,5e-324,-0.46253699304840046,0.0
1668678506.6385303,54967,1668678506,638273786,,1.2220677396896589,-7.312450916154731,-0.006526611716214766,5e-324,-0.4569818784158417,0.0
1668678506.6465657,54968,1668678506,646388569,,1.207512940627249,-7.293331909351222,-0.003453085422229431,5e-324,-0.4533630276978644,0.0
1668678506.6546617,54969,1668678506,654427821,,1.2445811404675657,-7.126621908816637,-0.0018269508669544147,5e-324,-0.42376387798834725,0.0
1668678506.6622941,54970,1668678506,662033985,,1.2445811404675657,-7.126621908816637,-0.0018269508669544147,5e-324,-0.42376387798834725,0.0
1668678506.6708925,54971,1668678506,670581023,,1.2639559033080752,-7.038499413167997,-0.0009665991605010806,5e-324,-0.4081130431648702,0.0
1668678506.6793873,54972,1668678506,679160146,,1.3869313405335504,-6.90415522464923,-0.0005114061653113446,5e-324,-0.3904462748329536,0.0
1668678506.6869442,54973,1668678506,686712558,,1.545130109930533,-6.851043928768005,-0.0002705736530775334,5e-324,-0.3867805534180988,0.0
1668678506.6944828,54974,1668678506,694233950,,1.545130109930533,-6.851043928768005,-0.0002705736530775334,5e-324,-0.3867805534180988,0.0
1668678506.7052014,54975,1668678506,704078444,,1.6288346338238342,-6.822942910934903,-0.00014315451534525594,5e-324,-0.3848410815365259,0.0
1668678506.7107806,54976,1668678506,710396347,,1.5172082879389062,-7.139554984692198,-0.04903265282307823,5e-324,-0.43665932820771536,0.0
1668678506.7189453,54977,1668678506,718682545,,1.4585929411186769,-7.306942596355604,-0.0748979960209884,5e-324,-0.4640607242521234,0.0
1668678506.7264009,54978,1668678506,726143335,,1.3872511219298156,-7.467301061817048,-0.1860449908097931,5e-324,-0.4913283637608702,0.0
1668678506.7350535,54979,1668678506,734651268,,1.3872511219298156,-7.467301061817048,-0.1860449908097931,5e-324,-0.4913283637608702,0.0
1668678506.7436533,54980,1668678506,743324802,,1.6149319798534216,-7.703917082163131,-0.5352571228034746,5e-324,-0.5389409922122803,0.0
1668678506.7510574,54981,1668678506,750831419,,1.7356252074863545,-7.828978025144742,-0.7202639908621433,5e-324,-0.5641214650282909,0.0
1668678506.7590349,54982,1668678506,758791357,,1.9085002452483066,-8.073354077156502,-0.9426045814473041,5e-324,-0.6130237045473041,0.0
1668678506.7674248,54983,1668678506,767134000,,1.9330658207943325,-8.229787306032792,-1.0589666914159142,5e-324,-0.6444408655371164,0.0
1668678506.7748125,54984,1668678506,774558293,,1.9461811291731244,-8.31253298740021,-1.120455948135842,5e-324,-0.6610574569278106,0.0
1668678506.7826626,54985,1668678506,782460400,,1.9461811291731244,-8.31253298740021,-1.120455948135842,5e-324,-0.6610574569278106,0.0
1668678506.7913322,54986,1668678506,791087193,,1.918658031405915,-8.478825226980085,-1.2121527725967096,5e-324,-0.688885146284471,0.0
1668678506.7992868,54987,1668678506,798987831,,1.904151481582384,-8.566937702775174,-1.260051682769305,5e-324,-0.7036060777336699,0.0
1668678506.8071313,54988,1668678506,806750335,,1.9303762308928323,-8.617564863343524,-1.3277111954115948,5e-324,-0.7127641891817369,0.0
1668678506.8147175,54989,1668678506,814453981,,1.9303762308928323,-8.617564863343524,-1.3277111954115948,5e-324,-0.7127641891817369,0.0
1668678506.823139,54990,1668678506,822885203,,2.0985725763947953,-8.839866932986672,-1.5966713914839716,5e-324,-0.7561113581874694,0.0
1668678506.8317366,54991,1668678506,831384919,,2.188038423658468,-8.957394126217949,-1.7387372547589097,5e-324,-0.7790233198386443,0.0
1668678506.8392491,54992,1668678506,838957175,,2.245992992990682,-9.450933689587918,-2.1631914889851744,5e-324,-0.8623104427588845,0.0
1668678506.8473752,54993,1668678506,847121728,,2.291694662618858,-9.874331542249841,-2.507476222284618,5e-324,-0.9310455979482397,0.0
1668678506.8548584,54994,1668678506,854633148,,2.3157737352297607,-10.098524949149848,-2.6891826278938313,5e-324,-0.9674165954347682,0.0
1668678506.8626676,54995,1668678506,862088692,,2.3157737352297607,-10.098524949149848,-2.6891826278938313,5e-324,-0.9674165954347682,0.0
1668678506.8710713,54996,1668678506,870722557,,2.3336462572566994,-10.507502680103418,-2.977176835223732,5e-324,-1.0376467813056158,0.0
1668678506.8785353,54997,1668678506,878275903,,2.34371428209894,-10.723591687622609,-3.1298833414039127,5e-324,-1.0747884301685575,0.0
1668678506.886543,54998,1668678506,886286941,,2.2917109928439414,-10.946304918175176,-3.292805763162133,5e-324,-1.1189805479021095,0.0
1668678506.8946671,54999,1668678506,894330844,,2.5182254076337216,-11.532534966917856,-3.5690888616018164,5e-324,-1.2247207759350578,0.0
1668678506.9020925,55000,1668678506,901881821,,2.5182254076337216,-11.532534966917856,-3.5690888616018164,5e-324,-1.2247207759350578,0.0
1668678506.9103408,55001,1668678506,910103811,,2.6385160454511043,-11.84267668698774,-3.714971489469569,5e-324,-1.2806483414201795,0.0
1668678506.9182775,55002,1668678506,918012819,,2.2151697559393395,-12.082988748178746,-2.6798835798058676,5e-324,-1.2904401281958342,0.0
1668678506.926636,55003,1668678506,926241061,,1.8305813222713558,-12.229031327431702,-1.7668541719599022,5e-324,-1.2869150948847656,0.0
1668678506.9344854,55004,1668678506,934228657,,1.627125628798281,-12.306176614590605,-1.284703520090198,5e-324,-1.2850484865923402,0.0
1668678506.9423199,55005,1668678506,942055944,,1.627125628798281,-12.306176614590605,-1.284703520090198,5e-324,-1.2850484865923402,0.0
1668678506.950565,55006,1668678506,950126752,,1.637762013998966,-12.528798297818124,-1.6915954832816484,5e-324,-1.3273640393561417,0.0
1668678506.9588363,55007,1668678506,958301739,,1.6441435967573421,-12.646464383026297,-1.9067550347078321,5e-324,-1.3497421982056705,0.0
1668678506.9664328,55008,1668678506,966162713,,1.821950622488739,-12.645928031199212,-2.4802424469278046,5e-324,-1.3627143185785702,0.0
1668678506.974463,55009,1668678506,974224925,,1.8485430217381578,-12.782312464866246,-3.0072149267428925,5e-324,-1.3914631866322984,0.0
1668678506.982206,55010,1668678506,981934647,,1.8485430217381578,-12.782312464866246,-3.0072149267428925,5e-324,-1.3914631866322984,0.0
1668678506.9915917,55011,1668678506,991264731,,1.8628596038075034,-12.854505244050834,-3.28576422624651,5e-324,-1.4066683210289757,0.0
1668678506.9993613,55012,1668678506,999013887,,1.6261300316160137,-12.95313849385997,-3.1516489937743923,5e-324,-1.4063652170513592,0.0
1668678507.010365,55013,1668678507,10080970,,1.1197012923723202,-12.6472733516346,-1.8798131782910972,5e-324,-1.3191587647021943,0.0
1668678507.0147529,55014,1668678507,14261137,,1.1197012923723202,-12.6472733516346,-1.8798131782910972,5e-324,-1.3191587647021943,0.0
1668678507.0248792,55015,1668678507,22769042,,0.8518673219030233,-12.485470259595349,-1.2065851839964064,5e-324,-1.273020032658527,0.0
1668678507.030593,55016,1668678507,30344132,,0.4507040956073569,-12.347295900592615,-0.6383774446371409,5e-324,-1.2266646974831754,0.0
1668678507.0384753,55017,1668678507,38241425,,0.23845753508123224,-12.274184995269938,-0.337751339256176,5e-324,-1.2021384680941063,0.0
1668678507.0463974,55018,1668678507,46147459,,0.12616259002570496,-12.271585693636062,-0.17869673831314992,5e-324,-1.1936237661085747,0.0
1668678507.054562,55019,1668678507,54247347,,0.35432802815860237,-12.43979644326561,-0.8217374430988997,5e-324,-1.2393316776179952,0.0
1668678507.0622122,55020,1668678507,61998944,,0.35432802815860237,-12.43979644326561,-0.8217374430988997,5e-324,-1.2393316776179952,0.0
1668678507.070748,55021,1668678507,70525254,,0.4751625949640682,-12.528781703471385,-1.1619423558669888,5e-324,-1.2635143088476244,0.0
1668678507.078518,55022,1668678507,78232057,,0.39239017959648165,-12.49003102875298,-0.9139072825439121,5e-324,-1.260879432064932,0.0
1668678507.0869834,55023,1668678507,86707634,,0.2522536091428285,-12.34354950265878,-0.48352806200825493,5e-324,-1.2240631658952008,0.0
1668678507.094052,55024,1668678507,93789558,,0.2522536091428285,-12.34354950265878,-0.48352806200825493,5e-324,-1.2240631658952008,0.0
1668678507.1022706,55025,1668678507,102075103,,0.17774300810700291,-12.266079133020312,-0.2558239672832731,5e-324,-1.204581585193354,0.0
1668678507.1106484,55026,1668678507,110465153,,0.09403988116416741,-12.194859071463313,-0.10544498730614393,5e-324,-1.1816604083958284,0.0
1668678507.1189997,55027,1668678507,118423521,,0.04975441421609598,-12.157080131979265,-0.024893397839350805,5e-324,-1.1695395978771603,0.0
1668678507.1263206,55028,1668678507,126109766,,0.026323956425097113,-12.075497595152509,0.1009360116415751,5e-324,-1.1514334259806842,0.0
1668678507.1344385,55029,1668678507,134187029,,0.013985282119037705,-12.023434423807323,0.28929539038935453,5e-324,-1.1414450147016537,0.0
1668678507.1421292,55030,1668678507,141887420,,0.013985282119037705,-12.023434423807323,0.28929539038935453,5e-324,-1.1414450147016537,0.0
1668678507.150938,55031,1668678507,150369725,,0.007607081084364166,-11.995957817023417,0.3882570705322824,5e-324,-1.1361623288306262,0.0
1668678507.1596723,55032,1668678507,159379036,,0.00402473778743034,-12.04723697070056,0.4423138094862748,5e-324,-1.1443820272056175,0.0
1668678507.1665196,55033,1668678507,166220179,,0.0021293994474259788,-12.144057385306382,0.30755619723216965,5e-324,-1.161191197691577,0.0
1668678507.1743364,55034,1668678507,174089934,,0.0011266179925706636,-12.195345258020437,0.23577811622334477,5e-324,-1.1700792113321863,0.0
1668678507.1822515,55035,1668678507,182006969,,0.0011266179925706636,-12.195345258020437,0.23577811622334477,5e-324,-1.1700792113321863,0.0
1668678507.1903393,55036,1668678507,190102707,,0.0005960685782642824,-12.230364535765391,0.12474496896894262,5e-324,-1.1731108986924563,0.0
1668678507.198425,55037,1668678507,198211715,,0.0003153666569653316,-12.24891027233815,0.06599979477451481,5e-324,-1.1747165177898573,0.0
1668678507.2065642,55038,1668678507,206251473,,0.00016685349966794036,-12.256145203808043,0.03491902676542063,5e-324,-1.1762800251832572,0.0
1668678507.2143853,55039,1668678507,214100672,,0.00016685349966794036,-12.256145203808043,0.03491902676542063,5e-324,-1.1762800251832572,0.0
1668678507.2224903,55040,1668678507,222275848,,8.82784839061152e-05,-12.324443519216706,0.04438842320271287,5e-324,-1.1820391579620808,0.0
1668678507.2306502,55041,1668678507,230451865,,4.670618678224597e-05,-12.360629332475614,0.04920739705553484,5e-324,-1.1850773309594342,0.0
1668678507.2384896,55042,1668678507,238228913,,0.01113141463064332,-12.489030010025598,0.2472844301176992,5e-324,-1.1977861641903729,0.0
1668678507.246773,55043,1668678507,246478955,,0.00588938445570017,-12.592962169878039,0.39077734259548513,5e-324,-1.2103053421668712,0.0
1668678507.2541761,55044,1668678507,253963176,,0.00588938445570017,-12.592962169878039,0.39077734259548513,5e-324,-1.2103053421668712,0.0
1668678507.262452,55045,1668678507,262225012,,0.0031159426198679157,-12.647991465766811,0.46633093471160053,5e-324,-1.2169275863991413,0.0
1668678507.2704923,55046,1668678507,270169372,,0.10085760936479887,-12.69413342399144,0.5813206937702918,5e-324,-1.2243870407532635,0.0
1668678507.2789423,55047,1668678507,278665515,,0.1524286438559493,-12.718568154095976,0.6420825006964879,5e-324,-1.2283310891682935,0.0
1668678507.2864385,55048,1668678507,286192394,,0.17095134513610616,-12.757081555159527,0.6796995411405662,5e-324,-1.24205955775364,0.0
1668678507.2944345,55049,1668678507,294174761,,0.4437349053550966,-12.929643410926506,0.6543573295077272,5e-324,-1.2843368710158414,0.0
1668678507.3027072,55050,1668678507,302464917,,0.4437349053550966,-12.929643410926506,0.6543573295077272,5e-324,-1.2843368710158414,0.0
1668678507.3107178,55051,1668678507,310335482,,0.5879635644959542,-13.020949823391966,0.6409842158082169,5e-324,-1.3067040657026057,0.0
1668678507.3184001,55052,1668678507,318144015,,0.9467446786018984,-13.20513563101727,0.49839802949920897,5e-324,-1.3510896513290311,0.0
1668678507.3263767,55053,1668678507,326135158,,1.208486206566405,-13.35645809823081,0.4003024459054255,5e-324,-1.3889709290424,0.0
1668678507.3344822,55054,1668678507,334209716,,1.3463981236467513,-13.43663187881124,0.3482412345713226,5e-324,-1.409009813191445,0.0
1668678507.3420336,55055,1668678507,341809649,,1.3463981236467513,-13.43663187881124,0.3482412345713226,5e-324,-1.409009813191445,0.0
1668678507.3505518,55056,1668678507,350284022,,1.606165340554717,-13.476852264749322,0.3381168199999235,5e-324,-1.4282298512274756,0.0
1668678507.358603,55057,1668678507,358320006,,1.7440476529325082,-13.498019451627638,0.3330191252692296,5e-324,-1.4383999432819081,0.0
