Time,header.seq,header.stamp.secs,header.stamp.nsecs,header.frame_id,twist.linear.x,twist.linear.y,twist.linear.z,twist.angular.x,twist.angular.y,twist.angular.z
1668678434.722868,45979,1668678434,722761824,,-8.660546578126038e-06,1.2850630446760779e-09,-2.6530183289086383e-11,1.5477521716144539e-06,-9.270425120797668e-07,-1.0812281372574157e-08
1668678434.7311497,45980,1668678434,730923053,,-7.87230147561955e-06,1.2484012278724818e-09,-2.5517334987156637e-11,1.5623777078759453e-06,-9.287508719516362e-07,-1.0848864564782276e-08
1668678434.741429,45981,1668678434,741079389,,-7.1308095326739255e-06,1.2121926183051504e-09,-2.4528989700330924e-11,1.5766871902116003e-06,-9.303267948743114e-07,-1.0883768727646789e-08
1668678434.747783,45982,1668678434,747550487,,-6.4338392854561495e-06,1.176470535213362e-09,-2.3565345946064956e-11,1.5906812953089543e-06,-9.317711301566805e-07,-1.0917002725060863e-08
1668678434.7550478,45983,1668678434,754926140,,-5.7792477622331085e-06,1.1412648768314291e-09,-2.2626645257537716e-11,1.6043607348556948e-06,-9.330847372110898e-07,-1.094857555832335e-08
1668678434.7627966,45984,1668678434,762689864,,-5.164977718594142e-06,1.1066023690077223e-09,-2.171301097065949e-11,1.6177262551490389e-06,-9.342684853573476e-07,-1.097849636650301e-08
1668678434.7710202,45985,1668678434,770905917,,-4.589054922081714e-06,1.0725068235295418e-09,-2.0824546351002402e-11,1.630778636744344e-06,-9.353232536321293e-07,-1.1006774431325894e-08
1668678434.7790926,45986,1668678434,778985502,,-4.049585487348792e-06,1.0389992408994813e-09,-1.9961233297948252e-11,1.6435186940783485e-06,-9.362499306028388e-07,-1.1033419166766151e-08
1668678434.7872095,45987,1668678434,787105127,,-3.544753263583893e-06,1.0060979067703273e-09,-1.912293844061546e-11,1.6559472750908961e-06,-9.37049414182169e-07,-1.105844013009219e-08
1668678434.7952466,45988,1668678434,795128692,,-3.0728172750183443e-06,9.73818756136369e-10,-1.8309617271258302e-11,1.668065260863598e-06,-9.37722611433483e-07,-1.1081847005371559e-08
1668678434.8029807,45989,1668678434,802810306,,-2.6321092152276005e-06,9.421752445680072e-10,-1.752107082419312e-11,1.6798735652296663e-06,-9.382704383844534e-07,-1.1103649598734333e-08
1668678434.8112512,45990,1668678434,811093727,,-2.2210309963433895e-06,9.111786144691375e-10,-1.675712907006525e-11,1.691373134407122e-06,-9.386938198410643e-07,-1.1123857859979659e-08
1668678434.819132,45991,1668678434,819019384,,-1.8380523531022958e-06,8.808381413452738e-10,-1.6017563029782362e-11,1.7025649466207692e-06,-9.389936891904144e-07,-1.114248184787239e-08
1668678434.8270166,45992,1668678434,826894441,,-1.4817085025725742e-06,8.51161142588407e-10,-1.5302099762317673e-11,1.713450011724712e-06,-9.391709882299793e-07,-1.1159531758757974e-08
1668678434.835259,45993,1668678434,835149866,,-1.150597859666366e-06,8.22153205677647e-10,-1.4610412232561545e-11,1.724029370820348e-06,-9.392266669678686e-07,-1.1175017900612759e-08
1668678434.843038,45994,1668678434,842870485,,-8.433798083887708e-07,7.938181527543231e-10,-1.3942133962995881e-11,1.7343040958634294e-06,-9.391616834346942e-07,-1.118895070177393e-08
1668678434.851173,45995,1668678434,851054272,,-5.587725288783401e-07,7.661581732218646e-10,-1.3296927292860592e-11,1.7442752892975222e-06,-9.389770035068748e-07,-1.1201340710486986e-08
1668678434.8591905,45996,1668678434,859087607,,-2.9555088034738747e-07,7.391740834602991e-10,-1.2674426421235994e-11,1.7539440836726564e-06,-9.38673600717328e-07,-1.1212198577220222e-08
1668678434.8674655,45997,1668678434,867355169,,-5.254433938191734e-08,7.128654844078371e-10,-1.2074167917260134e-11,1.7633116412517237e-06,-9.382524560681525e-07,-1.1221535078574773e-08
1668678434.8752573,45998,1668678434,875087769,,1.7136500662888419e-07,6.872305513659029e-10,-1.149580398446267e-11,1.7723791536314805e-06,-9.377145578458805e-07,-1.1229361085752332e-08
1668678434.8828428,45999,1668678434,882738237,,3.7724441129239876e-07,6.62266361390741e-10,-1.0938795645756136e-11,1.781147841347958e-06,-9.370609014385326e-07,-1.1235687586052843e-08
1668678434.8916569,46000,1668678434,891242825,,5.661123665477092e-07,6.379689213224001e-10,-1.0402739591855036e-11,1.7896189535095426e-06,-9.362924891515857e-07,-1.124052567632906e-08
1668678434.8992922,46001,1668678434,899148466,,7.389404466458698e-07,6.143333309801542e-10,-9.88709400780252e-12,1.7977937673956426e-06,-9.354103300234305e-07,-1.1243886551501406e-08
1668678434.9072092,46002,1668678434,907094512,,8.966550985712439e-07,5.913538242794674e-10,-9.39142251696045e-12,1.8056735880713825e-06,-9.344154396451442e-07,-1.1245781496961159e-08
1668678434.9151762,46003,1668678434,915052471,,1.040139380238912e-06,5.69023725368152e-10,-8.915221675452311e-12,1.8132597480078835e-06,-9.333088399811038e-07,-1.124622190346509e-08
1668678434.9227319,46004,1668678434,922587860,,1.1702346468785277e-06,5.473355729188859e-10,-8.457991538406912e-12,1.8205536066842536e-06,-9.320915591801267e-07,-1.12452192630713e-08
1668678434.9311996,46005,1668678434,931049289,,1.2877421864988574e-06,5.262814538384747e-10,-8.019256100461792e-12,1.8275565502051806e-06,-9.307646313988234e-07,-1.124278515219454e-08
1668678434.9392462,46006,1668678434,939126915,,1.3934248050812086e-06,5.058527083416281e-10,-7.59856499281249e-12,1.8342699909165247e-06,-9.29329096627941e-07,-1.1238931245791888e-08
1668678434.9470496,46007,1668678434,946899082,,1.488008362443684e-06,4.860402064159449e-10,-7.195358170031415e-12,1.8406953670022089e-06,-9.277860004991327e-07,-1.1233669304330094e-08
1668678434.9550085,46008,1668678434,954900695,,1.5721832597249938e-06,4.668342191785589e-10,-6.809145974639322e-12,1.8468341421083406e-06,-9.261363941205377e-07,-1.122701117504215e-08
1668678434.9638119,46009,1668678434,963327427,,1.6466058791450547e-06,4.482247113862779e-10,-6.439411304633897e-12,1.852687804957641e-06,-9.243813338905352e-07,-1.1218968792722233e-08
1668678434.9711745,46010,1668678434,971018837,,1.7118999771945574e-06,4.3020117275265516e-10,-6.085700975423819e-12,1.8582578689379087e-06,-9.225218813179813e-07,-1.12095541748091e-08
1668678434.9791007,46011,1668678434,978959555,,1.7686580321252854e-06,4.12752955704307e-10,-5.747463381553981e-12,1.8635458717344893e-06,-9.205591028549847e-07,-1.1198779412982255e-08
1668678434.9872327,46012,1668678434,987097344,,1.817442546615094e-06,3.958689840291625e-10,-5.424261880786845e-12,1.8685533749285076e-06,-9.184940697186149e-07,-1.1186656684142876e-08
1668678434.9957197,46013,1668678434,995550133,,1.858787306647661e-06,3.7953795036519024e-10,-5.115560464960841e-12,1.8732819636150993e-06,-9.163278577080757e-07,-1.1173198230776635e-08
1668678435.0029085,46014,1668678435,2775818,,1.893198597437295e-06,3.637483611453355e-10,-4.820879033903737e-12,1.8777332460110664e-06,-9.140615470387486e-07,-1.1158416379922573e-08
1668678435.0111504,46015,1668678435,10968825,,1.921156377912066e-06,3.484886328267062e-10,-4.539775416411805e-12,1.8819088530678814e-06,-9.116962221672051e-07,-1.114232352122563e-08
1668678435.0191262,46016,1668678435,19010389,,1.9431154138402927e-06,3.3374701626579644e-10,-4.271726165740906e-12,1.885810438068298e-06,-9.092329716145655e-07,-1.1124932130441387e-08
1668678435.027837,46017,1668678435,27623197,,1.959506371529874e-06,3.1951158199871566e-10,-4.016359081196929e-12,1.8894396762601179e-06,-9.066728878030161e-07,-1.1106254736118445e-08
1668678435.035338,46018,1668678435,35227390,,1.9707368724383865e-06,3.0577048053363214e-10,-3.773146991603171e-12,1.8927982644514204e-06,-9.040170668774002e-07,-1.1086303931209981e-08
1668678435.0433092,46019,1668678435,43201815,,1.977192509863737e-06,2.9251182601378927e-10,-3.5417077541089112e-12,1.8958879206327096e-06,-9.012666085441013e-07,-1.1065092379619193e-08
1668678435.0515177,46020,1668678435,51355567,,1.9792378288874e-06,2.797235618774344e-10,-3.3215259077593854e-12,1.898710383571925e-06,-8.984226158877415e-07,-1.1042632802854293e-08
1668678435.0597432,46021,1668678435,59553006,,1.9772172705287206e-06,2.673938300855767e-10,-3.1122338188774233e-12,1.9012674124507516e-06,-8.954861952199805e-07,-1.1018937970800512e-08
1668678435.0671957,46022,1668678435,67058566,,1.9714560804993547e-06,2.555106538463555e-10,-2.913432336282321e-12,1.903560786458281e-06,-8.924584558992449e-07,-1.099402072607314e-08
1668678435.0751712,46023,1668678435,75029786,,1.9622611845069577e-06,2.4406224802862623e-10,-2.724690031457426e-12,1.9055923044120092e-06,-8.89340510168634e-07,-1.0967893957410107e-08
1668678435.0830138,46024,1668678435,82896876,,1.949922030289608e-06,2.330368667726811e-10,-2.545614361134204e-12,1.9073637843760094e-06,-8.86133472993713e-07,-1.0940570611952684e-08
1668678435.0913732,46025,1668678435,91252418,,1.9347113977455805e-06,2.2242290971020152e-10,-2.3757973630305295e-12,1.9088770632677183e-06,-8.828384618970185e-07,-1.0912063673410254e-08
1668678435.0992253,46026,1668678435,99056854,,1.916886177626888e-06,2.1220874595189815e-10,-2.214875192973026e-12,1.910133996469125e-06,-8.794565967886733e-07,-1.0882386188883717e-08
1668678435.1071658,46027,1668678435,107045994,,1.896688120404679e-06,2.0238293544871697e-10,-2.062487081808307e-12,1.9111364574585267e-06,-8.759889998125938e-07,-1.085155125166226e-08
1668678435.1152391,46028,1668678435,115143995,,1.8743445556258849e-06,1.9293418627750601e-10,-1.9182717837364695e-12,1.911886337421525e-06,-8.724367951815771e-07,-1.0819571988840152e-08
1668678435.1230266,46029,1668678435,122919861,,1.8500690829720575e-06,1.838513974964176e-10,-1.78189168996181e-12,1.912385544855499e-06,-8.68801109016239e-07,-1.0786461581168237e-08
1668678435.1312802,46030,1668678435,131146805,,1.8240622357340734e-06,1.751235617045765e-10,-1.652966029503701e-12,1.9126360052018244e-06,-8.650830691851638e-07,-1.0752233238226972e-08
1668678435.1393454,46031,1668678435,139222378,,1.7965121176022687e-06,1.6673989441868193e-10,-1.5312523706664461e-12,1.9126396604673623e-06,-8.612838051499311e-07,-1.0716900215432306e-08
1668678435.1470952,46032,1668678435,146974950,,1.7675950138801734e-06,1.5868967935270167e-10,-1.416379011632489e-12,1.9123984688295443e-06,-8.574044478060922e-07,-1.068047580049205e-08
1668678435.1555843,46033,1668678435,155462325,,1.7374759773406587e-06,1.5096250934223236e-10,-1.3080367821024332e-12,1.9119144042634777e-06,-8.534461293240568e-07,-1.064297332311965e-08
1668678435.1628704,46034,1668678435,162755455,,1.7063093903493054e-06,1.43548069997322e-10,-1.2059125407779608e-12,1.9111894561758935e-06,-8.494099829982499e-07,-1.0604406130661235e-08
1668678435.1714177,46035,1668678435,171270424,,1.6742395033023489e-06,1.3643629654577742e-10,-1.109727224456683e-12,1.9102256290124324e-06,-8.452971430895171e-07,-1.0564787613183466e-08
1668678435.179308,46036,1668678435,179124271,,1.6414009507299551e-06,1.2961729913368173e-10,-1.0192058303759004e-12,1.9090249418903862e-06,-8.411087446759712e-07,-1.0524131195721065e-08
1668678435.1873355,46037,1668678435,187222888,,1.6079192454862381e-06,1.2308140360798831e-10,-9.340703286432084e-13,1.9075894282171364e-06,-8.36845923498637e-07,-1.0482450310829982e-08
1668678435.1953156,46038,1668678435,195071051,,1.5739112518928006e-06,1.1681913428561122e-10,-8.541289551157783e-13,1.9059211353333233e-06,-8.325098158171982e-07,-1.0439758424416818e-08
1668678435.2032273,46039,1668678435,203037692,,1.5394856385066316e-06,1.1082125285769759e-10,-7.791153933921377e-13,1.9040221241136448e-06,-8.28101558250796e-07,-1.0396069022283711e-08
1668678435.2115936,46040,1668678435,211340754,,1.5047433114066777e-06,1.0507871205260859e-10,-7.087803602160404e-13,1.901894468611998e-06,-8.236222876333984e-07,-1.0351395615898317e-08
1668678435.2192686,46041,1668678435,219135303,,1.4697778284318008e-06,9.958261300923341e-11,-6.428731977121238e-13,1.8995402556887343e-06,-8.190731408637684e-07,-1.0305751729434211e-08
1668678435.227328,46042,1668678435,227145101,,1.4346757953156784e-06,9.432435768928516e-11,-5.811796892005164e-13,1.8969615846513258e-06,-8.144552547695386e-07,-1.0259150908169219e-08
1668678435.235338,46043,1668678435,235102741,,1.399517244136909e-06,8.929557009245106e-11,-5.235602651781715e-13,1.8941605668682722e-06,-8.09769765952515e-07,-1.0211606714893994e-08
1668678435.2427695,46044,1668678435,242663294,,1.364375994807866e-06,8.448799639791458e-11,-4.696977102460248e-13,1.8911393254111236e-06,-8.050178106452125e-07,-1.0163132720583646e-08
1668678435.2515068,46045,1668678435,251389674,,1.3293200002748089e-06,7.989360472141913e-11,-4.1941598129855536e-13,1.8878999946926001e-06,-8.00200524573608e-07,-1.0113742506828726e-08
1668678435.2592325,46046,1668678435,259117606,,1.2944116761266774e-06,7.550470426841927e-11,-3.7254577000141687e-13,1.884444720109763e-06,-7.953190428132494e-07,-1.0063449665222397e-08
1668678435.2670803,46047,1668678435,266954390,,1.2597082149701658e-06,7.131358957025313e-11,-3.289445496249811e-13,1.8807756576661242e-06,-7.903744996460925e-07,-1.0012267801125918e-08
1668678435.275144,46048,1668678435,275034547,,1.2252618863517596e-06,6.731303444318813e-11,-2.884020787029809e-13,1.8768949736297341e-06,-7.853680284307304e-07,-9.960210518275094e-09
1668678435.2831378,46049,1668678435,283040805,,1.1911203224864518e-06,6.3495843040817e-11,-2.5077247700136583e-13,1.8728048441504346e-06,-7.803007614495625e-07,-9.907291427837381e-09
1668678435.2915819,46050,1668678435,291385980,,1.1573267908498715e-06,5.985503907876053e-11,-2.1584592354382364e-13,1.8685074549274032e-06,-7.751738297896159e-07,-9.853524146978928e-09
1668678435.299244,46051,1668678435,299132458,,1.1239204537197876e-06,5.638384829493432e-11,-1.8354201615974586e-13,1.8640050008401807e-06,-7.699883631941011e-07,-9.79892228189892e-09
1668678435.3072317,46052,1668678435,307070818,,1.0909366151532502e-06,5.307576443560362e-11,-1.53687294138109e-13,1.8592996855967544e-06,-7.647454899351033e-07,-9.743499452104914e-09
1668678435.315451,46053,1668678435,315310256,,1.0584069563497735e-06,4.9924473084327675e-11,-1.261219485647126e-13,1.8543937213888997e-06,-7.594463366799281e-07,-9.687269267287145e-09
1668678435.3232725,46054,1668678435,323160358,,1.0263597591970142e-06,4.6923699455696075e-11,-1.0076035893839276e-13,1.8492893285293978e-06,-7.54092028354346e-07,-9.63024533770018e-09
1668678435.3313048,46055,1668678435,331146049,,9.948201194131471e-07,4.406747899992607e-11,-7.739355658923625e-14,1.8439887351019863e-06,-7.486836880194604e-07,-9.572441250101896e-09
1668678435.3393683,46056,1668678435,339207381,,9.638101484654128e-07,4.135002309689835e-11,-5.595234243824618e-14,1.8384941766377488e-06,-7.432224367407389e-07,-9.513870602543021e-09
1668678435.3476882,46057,1668678435,347507582,,9.333491659634744e-07,3.8765759749177306e-11,-3.630792219904476e-14,1.8328078957415305e-06,-7.377093934561188e-07,-9.454546971125969e-09
1668678435.3548884,46058,1668678435,354771883,,9.034538819824133e-07,3.6309234138435014e-11,-1.83588265642176e-14,1.8269321417720352e-06,-7.321456748594957e-07,-9.394483925532007e-09
1668678435.3628352,46059,1668678435,362736194,,8.741385704221368e-07,3.397518139143042e-11,-2.032165267341579e-15,1.8208691704855667e-06,-7.265323952649917e-07,-9.333695020249171e-09
1668678435.3710463,46060,1668678435,370941141,,8.454152332374063e-07,3.175862089705976e-11,1.2838406137089724e-14,1.8146212436961248e-06,-7.208706664860448e-07,-9.27219380356903e-09
1668678435.3792932,46061,1668678435,379155583,,8.172937564125776e-07,2.9654532447245275e-11,2.6269077177971552e-14,1.8081906289470728e-06,-7.151615977191656e-07,-9.20999379828619e-09
1668678435.3872173,46062,1668678435,386942104,,7.89782057451754e-07,2.7658242669094382e-11,3.839110402036697e-14,1.801579599172082e-06,-7.094062954137094e-07,-9.147108510651008e-09
1668678435.3953218,46063,1668678435,395158192,,7.628862255387839e-07,2.5765150908445198e-11,4.924995674528967e-14,1.7947904323590954e-06,-7.03605863159301e-07,-9.083551425955071e-09
1668678435.4028306,46064,1668678435,402721522,,7.366106537421388e-07,2.3970860297003368e-11,5.898669012227386e-14,1.7878254112081114e-06,-6.977614015600792e-07,-9.019336014518023e-09
1668678435.411384,46065,1668678435,411264590,,7.109581645580995e-07,2.2271079330414252e-11,6.764892012132587e-14,1.7806868228256649e-06,-6.91874008125075e-07,-8.954475721128664e-09
1668678435.4191983,46066,1668678435,419066618,,6.859301283499302e-07,2.0661750322317202e-11,7.53146331617985e-14,1.7733769583823955e-06,-6.859447771486049e-07,-8.888983962102994e-09
1668678435.427144,46067,1668678435,427029268,,6.615265754395701e-07,1.9138839075844064e-11,8.204525907504001e-14,1.7658981127832256e-06,-6.799747995932947e-07,-8.82287412993294e-09
1668678435.4351296,46068,1668678435,434994902,,6.377463017881772e-07,1.769849726191433e-11,8.795200600511472e-14,1.758252584352919e-06,-6.739651629791951e-07,-8.756159596564375e-09
1668678435.443209,46069,1668678435,442932587,,6.145869690692795e-07,1.633702017823985e-11,9.305840973763192e-14,1.750442674520905e-06,-6.679169512767663e-07,-8.688853703049021e-09
1668678435.451268,46070,1668678435,451075675,,5.920451988268782e-07,1.505094476534816e-11,9.74031591520355e-14,1.742470687482531e-06,-6.618312447884505e-07,-8.620969758648078e-09
1668678435.459244,46071,1668678435,459132846,,5.701166613799124e-07,1.3836783898263587e-11,1.0109704474332255e-13,1.7343389298979476e-06,-6.557091200432093e-07,-8.552521039712551e-09
1668678435.4672709,46072,1668678435,467125746,,5.487961594108851e-07,1.2691329443835018e-11,1.0412213686672964e-13,1.7260497105710647e-06,-6.495516496869992e-07,-8.48352079145143e-09
1668678435.4758565,46073,1668678435,475698473,,5.280777069137163e-07,1.1611356190531579e-11,1.065850352778468e-13,1.7176053401336057e-06,-6.433599023778014e-07,-8.413982212971611e-09
1668678435.4832115,46074,1668678435,482923371,,5.079546031911214e-07,1.059381484209539e-11,1.085255378556512e-13,1.7090081307469017e-06,-6.371349426853546e-07,-8.343918479338968e-09
1668678435.49194,46075,1668678435,491764128,,4.884195026329011e-07,9.635817948498022e-12,1.0993567002701498e-13,1.7002603957858052e-06,-6.308778309765839e-07,-8.273342731562935e-09
1668678435.499045,46076,1668678435,498934175,,4.6946448013702354e-07,8.734544830684001e-12,1.1093117728055436e-13,1.6913644495275598e-06,-6.245896233219572e-07,-8.202268061569716e-09
1668678435.5073905,46077,1668678435,507200881,,4.510810924536334e-07,7.887236240105728e-12,1.1149866626042823e-13,1.6823226068579027e-06,-6.182713713868261e-07,-8.13070753394022e-09
1668678435.5152316,46078,1668678435,515099346,,4.332604359355649e-07,7.091298946632995e-12,1.1168045395572619e-13,1.6731371829675519e-06,-6.119241223412615e-07,-8.058674157501106e-09
1668678435.5227373,46079,1668678435,522636980,,4.15993200383997e-07,6.344237708183838e-12,1.1150851227276156e-13,1.6638104930520882e-06,-6.055489187541077e-07,-7.986180911066859e-09
1668678435.5310783,46080,1668678435,530944510,,3.992697195446012e-07,5.643729554701371e-12,1.1103951512559654e-13,1.654344852012405e-06,-5.991467984976995e-07,-7.913240715326017e-09
1668678435.5395803,46081,1668678435,539400599,,3.8308001829286807e-07,4.987473131979064e-12,1.1027073395435743e-13,1.644742574175028e-06,-5.927187946594955e-07,-7.839866455614297e-09
1668678435.5471852,46082,1668678435,547082280,,3.674138566810882e-07,4.373323847377538e-12,1.0923718218321268e-13,1.6350059729770797e-06,-5.862659354338286e-07,-7.76607097635244e-09
1668678435.5554287,46083,1668678435,555270608,,5.469497166917885e-07,3.8004504314339666e-12,1.0814316905810965e-13,1.625137362768382e-06,-5.797892380764772e-07,-7.691867066322026e-09
1668678435.5630443,46084,1668678435,562899086,,1.2952864713191098e-06,3.2750714176728484e-12,1.080904114200659e-13,1.6151390580555315e-06,-5.732897094602081e-07,-7.617267460811967e-09
1668678435.571558,46085,1668678435,571378329,,2.9553778495335894e-06,2.832952661534504e-12,1.1100180753843046e-13,1.6050133701662496e-06,-5.667683522952583e-07,-7.542284847287057e-09
1668678435.5794525,46086,1668678435,579319709,,5.841274841773494e-06,2.5820499217874113e-12,1.1822959319174026e-13,1.5947626056437388e-06,-5.602261644982123e-07,-7.466931867923252e-09
1668678435.587122,46087,1668678435,586995659,,1.0239787443584603e-05,2.7572456098804786e-12,1.28715578279237e-13,1.5843890642463019e-06,-5.536641384253613e-07,-7.391221108055514e-09
1668678435.5951355,46088,1668678435,594992184,,1.6412068833334602e-05,3.778606212888472e-12,1.375876377612017e-13,1.5738950366314693e-06,-5.47083260010053e-07,-7.315165101744512e-09
1668678435.6030855,46089,1668678435,602959566,,2.4595124988832775e-05,6.309414999068776e-12,1.3425246430529542e-13,1.5632828019811785e-06,-5.404845078767843e-07,-7.238776317438896e-09
1668678435.611172,46090,1668678435,611026013,,3.500325265639599e-05,1.1310621630981372e-11,1.0095274383100384e-13,1.552554625589536e-06,-5.338688524676769e-07,-7.162067184740691e-09
1668678435.61928,46091,1668678435,619118114,,4.7829408497685946e-05,2.0087788644879358e-11,1.133624237213931e-14,1.541712756523107e-06,-5.272372551734797e-07,-7.085050065489288e-09
1668678435.6272118,46092,1668678435,627095243,,6.32465121514461e-05,3.4330094441782465e-11,-1.7058431719166159e-13,1.5307594254390084e-06,-5.205906675311713e-07,-7.007737271179826e-09
1668678435.6354887,46093,1668678435,635317930,,8.140868586182776e-05,5.61392665694667e-11,-4.913035657107308e-13,1.5196968425949115e-06,-5.139300304950638e-07,-6.93014104837051e-09
1668678435.6430213,46094,1668678435,642817088,,0.00010245243324022518,8.80485700190499e-11,-1.0083545343370165e-12,1.5085271960679894e-06,-5.072562737766249e-07,-6.852273589118057e-09
1668678435.6516614,46095,1668678435,651541086,,0.0001264977596446249,1.330318087026966e-10,-1.7907144413260434e-12,1.4972526502710006e-06,-5.005703152953196e-07,-6.77414702544149e-09
1668678435.6595485,46096,1668678435,659446721,,0.00015364923657972926,1.945020800369163e-10,-2.9187448455299076e-12,1.485875344660543e-06,-4.938730606882148e-07,-6.695773425893347e-09
1668678435.667675,46097,1668678435,667525821,,0.00018399701244116142,2.7630126955308454e-10,-4.483975151899359e-12,1.4743973927818356e-06,-4.871654029476188e-07,-6.617164795491917e-09
1668678435.6752896,46098,1668678435,675188579,,0.00021761777184977314,3.826817141954009e-10,-6.58880744365085e-12,1.4628208815377364e-06,-4.804482221311041e-07,-6.538333085397748e-09
1668678435.6828544,46099,1668678435,682733631,,0.0002545756457454507,5.182789233624595e-10,-9.345660523196286e-12,1.45114787073377e-06,-4.737223851722446e-07,-6.4592901753766745e-09
1668678435.6917675,46100,1668678435,691637579,,0.0002949230743359891,6.880787997649568e-10,-1.2876317827883773e-11,1.439380392864138e-06,-4.669887457747574e-07,-6.380047882473434e-09
1668678435.6995358,46101,1668678435,699431461,,0.0003387016249238729,8.97378446555216e-10,-1.7310943140360418e-11,1.4275204531419054e-06,-4.602481443932177e-07,-6.300617951524902e-09
1668678435.7077503,46102,1668678435,707647939,,0.00038594276656261765,1.1517427542897035e-09,-2.278682741109793e-11,1.41557002971263e-06,-4.5350140827584645e-07,-6.221012063996334e-09
1668678435.7157643,46103,1668678435,715625622,,0.00043666860342588004,1.4569570373854965e-09,-2.944728825127839e-11,1.4035310741042071e-06,-4.467493515951324e-07,-6.141241831367737e-09
1668678435.7231383,46104,1668678435,723048455,,0.0004908925687048249,1.8189770729385658e-09,-3.7440503751185664e-11,1.3914055118266679e-06,-4.399927756245434e-07,-6.061318806572201e-09
1668678435.732004,46105,1668678435,731856164,,0.0005486200807836669,2.24387788875504e-09,-4.691800547089748e-11,1.3791952431470975e-06,-4.332324689882638e-07,-5.981254454288758e-09
1668678435.739183,46106,1668678435,739071670,,0.0006098491633792856,2.7378006847272966e-09,-5.803339161506543e-11,1.3669021439861575e-06,-4.2646920794501165e-07,-5.9010601799990015e-09
1668678435.7471554,46107,1668678435,747038742,,0.000674571031269164,3.306900712756578e-09,-7.094101515174632e-11,1.3545280669439177e-06,-4.1970375671859146e-07,-5.820747316000879e-09
1668678435.7552412,46108,1668678435,755105698,,0.0007427706431711387,3.9572953075001816e-09,-8.579446168285922e-11,1.3420748424095085e-06,-4.1293686786496284e-07,-5.740327114469798e-09
1668678435.763129,46109,1668678435,763002217,,0.0008144272232794649,4.695013080647661e-09,-1.0274543540422948e-10,1.3295442797647148e-06,-4.061692826715893e-07,-5.659810760902731e-09
1668678435.7712526,46110,1668678435,771150462,,0.0008895147529053207,5.525945218348514e-09,-1.2194235568472831e-10,1.3169381686534245e-06,-3.994017315771229e-07,-5.57920935536152e-09
1668678435.7793238,46111,1668678435,779178802,,0.0009680024336135064,6.455799020837819e-09,-1.4352907904169312e-10,1.3042582802709021e-06,-3.926349345961775e-07,-5.49853394001161e-09
1668678435.787259,46112,1668678435,787097004,,0.0010498551231946976,7.490054207186643e-09,-1.6764391869950412e-10,1.2915063687070036e-06,-3.858696017827306e-07,-5.417795451417157e-09
1668678435.7953491,46113,1668678435,795179266,,0.0011350337457585805,8.633922191322223e-09,-1.9441836004538432e-10,1.2786841723035689e-06,-3.791064336766144e-07,-5.33700476434279e-09
1668678435.803299,46114,1668678435,802848332,,0.0012234956771843873,9.892308717025651e-09,-2.239761795026248e-10,1.2657934149921338e-06,-3.723461217646409e-07,-5.256172679393711e-09
1668678435.8111055,46115,1668678435,810913187,,0.0013151951071154679,1.126978011432961e-08,-2.5643240886029705e-10,1.252835807642888e-06,-3.655893489322261e-07,-5.17530989591064e-09
1668678435.8192372,46116,1668678435,819085686,,0.0014100833786366838,1.2770533261844945e-08,-2.9189266241450776e-10,1.2398130493791614e-06,-3.5883678991541413e-07,-5.094427042977995e-09
1668678435.827309,46117,1668678435,827191305,,0.0015081092989506757,1.4375734742805229e-08,2.189605508914885e-05,1.2267268288860362e-06,-3.520891117455224e-07,-5.013534670750275e-09
1668678435.8352396,46118,1668678435,835036367,,0.0016092194633386893,1.611819878097235e-08,5.3590036256794395e-05,1.2135788256469725e-06,-3.4534697417243414e-07,-4.932643241778445e-09
1668678435.8427374,46119,1668678435,842610356,,0.001713358538956518,1.80960756619994e-08,0.0001602422743277674,1.2003707111660953e-06,-3.386110300889012e-07,-4.851763132310977e-09
1668678435.8511043,46120,1668678435,850953968,,0.0018204695104758707,2.0428299337361826e-08,0.00025815146682980786,1.1871041501100186e-06,-3.318819259211006e-07,-4.770904631860168e-09
1668678435.8590977,46121,1668678435,858950574,,0.0019304940282111487,2.355904627411222e-08,0.00042268717506388037,1.1737808014312285e-06,-3.251603020272754e-07,-4.690077940166376e-09
1668678435.86699,46122,1668678435,866857386,,0.0020433724410238623,2.7691849792682243e-08,0.0006129912082615207,1.1604023193847423e-06,-3.184467930412776e-07,-4.6092931810758075e-09
1668678435.8752847,46123,1668678435,875074354,,0.0021590442557903426,3.351116325150075e-08,0.0008525643973372169,1.1469703545059133e-06,-3.117420282284578e-07,-4.528560373917578e-09
1668678435.882787,46124,1668678435,882641746,,0.0022774477428122207,4.046006676234252e-08,0.0010875810915520043,1.1334865545250575e-06,-3.0504663178907885e-07,-4.447889458223525e-09
1668678435.8913357,46125,1668678435,891219566,,0.002398520520317784,4.79091917941959e-08,0.001301883033998333,1.119952565202136e-06,-2.983612231781353e-07,-4.3672902833198635e-09
1668678435.8992884,46126,1668678435,899062454,,0.0025221999510299706,5.581714059156541e-08,0.0015051667017456996,1.1063700310886076e-06,-2.91686417363651e-07,-4.286772600087252e-09
1668678435.9071853,46127,1668678435,906963500,,0.0026484220618871765,6.11262539738395e-08,0.0016216588042322602,1.09274059622907e-06,-2.8502282508824296e-07,-4.206346076139622e-09
1668678435.9151554,46128,1668678435,914994069,,0.0027771240894622464,6.475246512243652e-08,0.0016898944823247422,1.0790659048000035e-06,-2.783710530878861e-07,-4.1260202832474335e-09
1668678435.9235694,46129,1668678435,923363512,,0.0029082420839643044,6.421558624985978e-08,0.0016495927167661472,1.0653476016203567e-06,-2.717317043100277e-07,-4.045804687796695e-09
1668678435.9312475,46130,1668678435,931108982,,0.0030417146306347884,6.412033643365396e-08,0.0016092213482427889,1.0515873327038552e-06,-2.6510537809360565e-07,-3.9657086815803044e-09
1668678435.9390829,46131,1668678435,938968097,,0.0031774782892342165,6.253888651725439e-08,0.00151605710952446,1.037786745625777e-06,-2.5849267031317945e-07,-3.885741541899412e-09
1668678435.947137,46132,1668678435,947026347,,0.003315471100387957,6.092286604642655e-08,0.0013993239036374752,1.0239474898683022e-06,-2.5189417354691394e-07,-3.805912463655803e-09
1668678435.9552236,46133,1668678435,955084393,,0.0034556312567786017,5.995369412603599e-08,0.0012742717693452433,1.0100712171600977e-06,-2.453104771747266e-07,-3.726230543739384e-09
1668678435.9627826,46134,1668678435,962674439,,0.003597897307794079,5.988506834322314e-08,0.00114876601649922,9.961595816468288e-07,-2.387421674837127e-07,-3.6467047775587402e-09
1668678435.9711695,46135,1668678435,971053832,,0.0037422083456059643,6.08544552350174e-08,0.0010309110189869453,9.822142400804068e-07,-2.321898277419794e-07,-3.5673440651126653e-09
1668678435.9791672,46136,1668678435,979060340,,0.003888503989797088,6.262891777360626e-08,0.0009161968327135961,9.682368519262503e-07,-2.256540382705285e-07,-3.4881572118575233e-09
1668678435.9871616,46137,1668678435,986997126,,0.004036724642709143,6.516064697068801e-08,0.0008065501905508942,9.542290793957163e-07,-2.1913537646728494e-07,-3.4091529191662695e-09
1668678435.9951513,46138,1668678435,995019822,,0.004186811472256241,6.836695795346766e-08,0.000702817935360714,9.401925874681841e-07,-2.1263441683840316e-07,-3.3303397990736006e-09
1668678436.0031164,46139,1668678436,3020180,,0.004338706472892897,7.215605550934775e-08,0.0006052828215561995,9.26129043823598e-07,-2.0615173101297163e-07,-3.251726344785655e-09
1668678436.011882,46140,1668678436,11624378,,0.004492352517089993,7.644191603504635e-08,0.0005142603980939389,9.120401187523693e-07,-1.996878877337158e-07,-3.1733209731807377e-09
1668678436.0194635,46141,1668678436,19323399,,0.0046476933936261304,8.113643614676499e-08,0.00042909137908362136,8.979274850234094e-07,-1.9324345282658618e-07,-3.095131987512767e-09
1668678436.027443,46142,1668678436,27312096,,0.004804673850128798,8.616871566565036e-08,0.00034963394598436996,8.837928176909786e-07,-1.868189891870162e-07,-3.017167586952252e-09
1668678436.0351098,46143,1668678436,34992666,,0.004963239621090587,9.147572422845541e-08,0.00027567431618007366,8.696377938876171e-07,-1.804150567134876e-07,-2.939435872657825e-09
1668678436.0433328,46144,1668678436,43134021,,0.005123337454691294,9.700234521846864e-08,0.0002069667121493019,8.554640925607183e-07,-1.7403221226570736e-07,-2.861944858184584e-09
1668678436.0514905,46145,1668678436,51325519,,0.005284915135313019,1.0270084991078783e-07,0.00014327969524627866,8.412733942059837e-07,-1.6767100959421593e-07,-2.784702437391706e-09
1668678436.0590806,46146,1668678436,58814733,,0.005447921502141486,1.0853013356060971e-07,8.431678639886074e-05,8.270673805442838e-07,-1.613319992553857e-07,-2.7077164121980246e-09
1668678436.067183,46147,1668678436,67071137,,0.005612306464252432,1.1445510047889504e-07,2.983298447104353e-05,8.128477341690752e-07,-1.550157285370177e-07,-2.630994474367432e-09
1668678436.0752919,46148,1668678436,75095584,,0.005778021012295256,1.2044579109847155e-07,-2.0411822052411546e-05,7.986161382054395e-07,-1.487227413620373e-07,-2.554544223723476e-09
1668678436.083192,46149,1668678436,83064067,,0.005945017227176483,1.2647673131719209e-07,-6.665011459126486e-05,7.843742759186322e-07,-1.4245357818915417e-07,-2.4783731455979563e-09
1668678436.0915198,46150,1668678436,91353887,,0.006113248285906745,1.3252632296660722e-07,-0.00010910349434476584,7.701238303158822e-07,-1.362087759113539e-07,-2.4024886316476035e-09
1668678436.0991778,46151,1668678436,99029803,,0.006282668464853636,1.3857636042170644e-07,-0.00014798927181813837,7.558664837239662e-07,-1.29988867736446e-07,-2.3268979659762934e-09
1668678436.1070921,46152,1668678436,106937775,,0.006453233140543247,1.4461150157169132e-07,-0.00018351169574184117,7.416039173430665e-07,-1.2379438308382073e-07,-2.251608325135046e-09
1668678436.1151984,46153,1668678436,115078521,,0.006624898788263478,1.5061887485520578e-07,-0.00021586595194764396,7.273378108217773e-07,-1.1762584746296428e-07,-2.176626795469261e-09
1668678436.122647,46154,1668678436,122545777,,0.006797622978612316,1.5658771644783603e-07,-0.000245238286590928,7.130698418129748e-07,-1.1148378234728472e-07,-2.101960360975652e-09
1668678436.131095,46155,1668678436,130972395,,0.006971364372165935,1.6250905141674793e-07,-0.0002718060791847931,6.988016854746502e-07,-1.0536870505574425e-07,-2.0276158876897377e-09
1668678436.1392756,46156,1668678436,139141726,,0.007146082712428652,1.6837542536069458e-07,-0.0002957386765499474,6.845350140330717e-07,-9.928112862061362e-08,-1.9536001462372443e-09
1668678436.1473086,46157,1668678436,147204626,,0.0073217388172061686,1.741806575171018e-07,-0.0003171970132376091,6.702714962853926e-07,-9.322156167455246e-08,-1.8799197996910433e-09
1668678436.155082,46158,1668678436,154942302,,0.0074982945685514585,1.79919638845196e-07,-0.0003363342228255198,6.560127971460487e-07,-8.719050831822823e-08,-1.806581420918385e-09
1668678436.162902,46159,1668678436,162745691,,0.007675712901410893,1.8558815460612305e-07,-0.0003532959359711612,6.417605771676761e-07,-8.118846798731171e-08,-1.7335914509475359e-09
1668678436.1711185,46160,1668678436,170979728,,0.007853957791095925,1.9118273283464748e-07,-0.00036822056516104757,6.275164920591022e-07,-7.521593533085661e-08,-1.66095626488727e-09
1668678436.1800702,46161,1668678436,179647468,,0.00803299423969809,1.967005153993061e-07,-0.00038123963990107724,6.132821922040412e-07,-6.927340007612665e-08,-1.5886820990684836e-09
1668678436.1871016,46162,1668678436,186986040,,0.008212788261556135,2.0213914770532554e-07,-0.0003924780378310794,5.99059322200837e-07,-6.336134692239799e-08,-1.5167751082900693e-09
1668678436.1951554,46163,1668678436,194913570,,0.008393306867879464,2.0749668629972726e-07,-0.0004020542846887454,5.848495203864435e-07,-5.748025540643683e-08,-1.4452413467369585e-09
1668678436.202938,46164,1668678436,202816206,,0.008574518050624265,2.1277152123645312e-07,-0.00041008082113455906,5.706544183832696e-07,-5.163059977236805e-08,-1.3740867471634388e-09
1668678436.2117434,46165,1668678436,211630903,,0.00875639076571265,2.1796231095897287e-07,-0.00041666426013854457,5.564756406330803e-07,-4.5812848859839734e-08,-1.303317150383454e-09
1668678436.2195168,46166,1668678436,219374960,,0.008938894915679894,2.2306792922636133e-07,-0.00042190564012387375,5.423148039249891e-07,-4.002746600720395e-08,-1.232938300066433e-09
1668678436.2275336,46167,1668678436,227428769,,0.009122001331828684,2.2808742096731815e-07,-0.0004259006619601923,5.281735170121387e-07,-3.427490889842738e-08,-1.162955832328949e-09
1668678436.235138,46168,1668678436,235032710,,0.009305681755964527,2.330199665966118e-07,-0.00042873992355594914,5.140533801085767e-07,-2.8555629471638862e-08,-1.0933752687958265e-09
1668678436.242939,46169,1668678436,242821379,,0.009489908821781126,2.3786485377450974e-07,-0.00043050914425881706,4.999559844988752e-07,-2.287007382415331e-08,-1.0242020460904389e-09
1668678436.2513967,46170,1668678436,251280915,,0.009674656035960022,2.4262145479152827e-07,-0.0004312893811197159,4.858829121241011e-07,-1.7218682079982173e-08,-9.55441491548581e-10
1668678436.2594228,46171,1668678436,259098114,,0.009859897759044079,2.472892092708745e-07,-0.0004311572376249439,4.718357351452619e-07,-1.1601888311445641e-08,-8.870988318920858e-10
1668678436.2671313,46172,1668678436,266985683,,0.010045609186140546,2.5186761128096984e-07,-0.0004301850641605688,4.578160155872135e-07,-6.020120418880406e-09,-8.191791897593781e-10
1668678436.2751157,46173,1668678436,274987572,,0.010231766327504725,2.5635619964212877e-07,-0.00042844115148000356,4.438253048936623e-07,-4.738000590823188e-10,-7.516875732971329e-10
1668678436.2827942,46174,1668678436,282663499,,0.010418345989052202,2.607545515873864e-07,-0.00042598991675790726,4.298651436218274e-07,5.0366574676132675e-09,-6.84628905650575e-10
1668678436.2912397,46175,1668678436,291077965,,0.010605325752843446,2.6506227837928925e-07,-0.00042289208258104515,4.159370610018747e-07,1.0510843283305198e-08,-6.180080162898616e-10
1668678436.298999,46176,1668678436,298887035,,0.010792683957581638,2.692790235042302e-07,-0.00041920484911239753,4.020425746445889e-07,1.5948355030538392e-08,-5.518296063156125e-10
1668678436.3073037,46177,1668678436,307178252,,0.010980399379469012,2.725196422552387e-07,-0.00036766837329250653,3.881831901766074e-07,2.1348796949986933e-08,-4.860983039700617e-10
1668678436.3149855,46178,1668678436,314861098,,0.011168452032201482,2.754326327067723e-07,-0.0002944398045504528,3.743604008948307e-07,2.6711779951415094e-08,-4.208186334120345e-10
1668678436.3228638,46179,1668678436,322747102,,0.011356822575307146,2.785116289411202e-07,-0.00022413658854694493,3.605756874563678e-07,3.203692168686099e-08,-3.55994993900266e-10
1668678436.3314593,46180,1668678436,331310797,,0.011545492179227552,2.817527407877879e-07,-0.00015894606252464755,3.4683051758932514e-07,3.732384661612239e-08,-2.916316944878705e-10
1668678436.339803,46181,1668678436,339560619,,0.011734442671342105,2.8514150235398075e-07,-0.00010115693922826476,3.3312634576673295e-07,4.257218608183771e-08,-2.2773296790012942e-10
1668678436.3471737,46182,1668678436,347056449,,0.011923656503078662,2.886109786002389e-07,-4.908236874402629e-05,3.1946461292618397e-07,4.778157835616092e-08,-1.6430292890112774e-10
1668678436.355265,46183,1668678436,355092724,,0.012113116870370203,2.9245316002201156e-07,-3.432924855258795e-05,3.0584674622435664e-07,5.295166868060598e-08,-1.0134558470209498e-10
1668678436.3626747,46184,1668678436,362503440,,0.012302807382271427,2.9639227981863456e-07,-3.829436230355214e-05,2.922741587553393e-07,5.808210937213601e-08,-3.88648592475338e-11
1668678436.3712447,46185,1668678436,371118181,,0.0124927122547371,3.0021128892695037e-07,-4.1870657730158326e-05,2.7874824927754684e-07,6.317255981275497e-08,2.3135424132014748e-11
1668678436.3791795,46186,1668678436,379070210,,0.012682816381653712,3.0401528938389693e-07,-5.440428197069739e-05,2.652704020248255e-07,6.822268652393812e-08,8.465153925052427e-11
1668678436.3871853,46187,1668678436,387076486,,0.012873105071298522,3.0750223253870334e-07,-4.963545043711593e-05,2.5184198643914287e-07,7.323216319937492e-08,1.4567986747482387e-10
1668678436.3954704,46188,1668678436,395233072,,0.013063564306986752,3.1078672767212676e-07,-3.658676942516225e-05,2.3846435696976654e-07,7.820067076075125e-08,2.0621687690791646e-10
1668678436.4039664,46189,1668678436,403779457,,0.013254180243631732,3.12955825291887e-07,7.502438280782414e-05,2.2513885285420105e-07,8.312789732939753e-08,2.6625912932787266e-10
1668678436.4115994,46190,1668678436,411368390,,0.013444940329167217,3.154484800935198e-07,0.00017766895446868407,2.118667979516544e-07,8.801353834696039e-08,3.258033079434064e-10
1668678436.4192483,46191,1668678436,419057347,,0.013635836303747026,-1.8528911511081803e-05,0.0003662189562743577,1.9859794847309825e-07,9.287478924092192e-08,3.848489339708383e-10
1668678436.42737,46192,1668678436,427250949,,0.013826853773112827,-4.576301599230985e-05,0.0005891114103080884,1.8536087971937664e-07,9.770210715367555e-08,4.4339189958497727e-10
1668678436.4352996,46193,1668678436,435193151,,0.014018001355268407,-0.0001628261631025183,0.0008997066360276739,1.71926744193168e-07,1.0257327878851518e-07,5.01443563755144e-10
1668678436.4428544,46194,1668678436,442662790,,0.014209259461521394,-0.00033487915049451735,0.0012966243266751083,1.5838687370185083e-07,1.0745749778857212e-07,5.589982088327616e-10
1668678436.4513144,46195,1668678436,451194667,,0.014400598966361857,-0.0004926724116973028,0.001659624155022142,1.4493792520719052e-07,1.1228823766228253e-07,6.160415268186004e-10
1668678436.4592195,46196,1668678436,459107033,,0.014592019262298783,-0.0006712058212806916,0.0020502585391410128,1.314793441870943e-07,1.1709975632266754e-07,6.72578007177016e-10
1668678436.4674273,46197,1668678436,467312883,,0.014823340423407848,-0.0008706469729700426,0.0025202706410183307,1.1765128912698502e-07,1.2201423840485807e-07,7.286340940326763e-10
1668678436.4751694,46198,1668678436,475059451,,0.015072567004420466,-0.0010718308642919238,0.0030086442628628894,1.0369500366851666e-07,1.2695010092244816e-07,7.841933005736657e-10
1668678436.4827778,46199,1668678436,482659598,,0.015375498148079496,-0.0013273338189541608,0.0035758731215068296,8.910102861658963e-08,1.3208024522584714e-07,8.39300177968294e-10
1668678436.4911048,46200,1668678436,490992166,,0.015669251849692093,-0.0015600266029403866,0.004091231521215316,7.468341502837135e-08,1.3712899011285046e-07,8.938883661047115e-10
1668678436.4996428,46201,1668678436,499525582,,0.016021224043694302,-0.001855752876756441,0.004657669410833451,5.9505237422246204e-08,1.4241406126407584e-07,9.480443895204527e-10
1668678436.5071166,46202,1668678436,506977909,,0.01639508543647527,-0.0021691252443154386,0.005222975743661113,4.4036213198199664e-08,1.477765677227079e-07,1.0017315865695764e-09
1668678436.5150716,46203,1668678436,514926328,,0.016846366616126523,-0.002579774449433702,0.005868386317683591,2.739575916062319e-08,1.535151510880439e-07,1.055047056663927e-09
1668678436.522814,46204,1668678436,522690594,,0.01738217832164712,-0.003039221333781688,0.006537703307195629,9.580935684112791e-09,1.5963119403042923e-07,1.1080095452253858e-09
1668678436.531478,46205,1668678436,531349409,,0.017888310109844777,-0.003456373042645957,0.007141238942008184,-7.881451111023266e-09,1.6560786824043952e-07,1.1604627571382142e-09
1668678436.5394506,46206,1668678436,539064326,,0.018423061936955788,-0.0038793613172107594,0.007728768124895637,-2.5809077293864136e-08,1.7172237242488002e-07,1.2125022166853405e-09
1668678436.547298,46207,1668678436,547126451,,0.019011622890849882,-0.004276997336001848,0.008169067371258902,-4.4412101086967106e-08,1.7804624070992103e-07,1.2641648561295682e-09
1668678436.5554965,46208,1668678436,555380992,,0.01960898900140789,-0.004643160490639623,0.008513193136102316,-6.315014381327844e-08,1.8439686758368792e-07,1.3153939673604675e-09
1668678436.5634007,46209,1668678436,563024753,,0.020001190813589743,-0.00478507491512496,0.008624784740572067,-7.84223648579946e-08,1.895551495745794e-07,1.3656968611552855e-09
1668678436.571209,46210,1668678436,571056173,,0.02037173945226868,-0.0049063490757173265,0.008710542405753054,-9.330386140692982e-08,1.9456188898306012e-07,1.4154571126301363e-09
1668678436.5792346,46211,1668678436,579118355,,0.020514721391967305,-0.00481745458866686,0.008615065720832458,-1.0419706166311417e-07,1.981990603832761e-07,1.4641259940550988e-09
1668678436.5871801,46212,1668678436,587046395,,0.020545817488547335,-0.004624969049096914,0.008426951686150133,-1.1305522654422103e-07,2.0112720390617466e-07,1.511935958375954e-09
1668678436.595492,46213,1668678436,595377427,,0.020525776962334246,-0.004306429680443885,0.008048682691930438,-1.2060301480423352e-07,2.0359132056493954e-07,1.5589672400229126e-09
1668678436.6027157,46214,1668678436,602606440,,0.020486399092251948,-0.003934642764370371,0.007565379357168029,-1.2760336371518536e-07,2.058495541028228e-07,1.6053249354830434e-09
1668678436.611175,46215,1668678436,611061784,,0.020460381194926113,-0.003584451105405214,0.007105346564902967,-1.3481865578248266e-07,2.0816006532158818e-07,1.6511332440183324e-09
1668678436.6192682,46216,1668678436,619125281,,0.020430833706514037,-0.0032178520875062165,0.006604671692109489,-1.4185930589073682e-07,2.1039122412389727e-07,1.6963257534752252e-09
1668678436.6274655,46217,1668678436,627298428,,0.020406113904965686,-0.002854288776634613,0.006051673220901908,-1.4891819368202902e-07,2.1260848335081378e-07,1.7409360481002167e-09
1668678436.6350765,46218,1668678436,634972714,,0.020390307161247866,-0.0025034488795886317,0.0054887081694409345,-1.560856032736726e-07,2.1484261590858783e-07,1.784982620045561e-09
1668678436.6430995,46219,1668678436,642940170,,0.020385246038402926,-0.002169904191858243,0.004853373998991042,-1.6339880804094463e-07,2.1710647331849887e-07,1.8284755584629941e-09
1668678436.6512864,46220,1668678436,651168211,,0.020392868510684753,-0.0018584107544758486,0.004258674416119973,-1.7089631367044012e-07,2.1941333344058667e-07,1.8714261806884736e-09
1668678436.6595323,46221,1668678436,659419496,,0.020411247132224176,-0.0015649492934698744,0.003646472727121896,-1.7853100101411176e-07,2.217475009248836e-07,1.913828651112226e-09
1668678436.6671898,46222,1668678436,667073948,,0.020440461322885507,-0.0012900367596297968,0.0030457772746637765,-1.8630132917041146e-07,2.2410869561159674e-07,1.9556859187641606e-09
1668678436.6750615,46223,1668678436,674948075,,0.02048027930401195,-0.001033472452760681,0.0024708402313124373,-1.9419939077590874e-07,2.2649448243024315e-07,1.996999614284345e-09
1668678436.6828399,46224,1668678436,682723772,,0.020530316643512875,-0.0007946963222489911,0.001928154505999066,-2.0221450286705663e-07,2.2890148544088725e-07,2.0377705425844717e-09
1668678436.6914802,46225,1668678436,691315467,,0.020590219463695898,-0.0005732049496544425,0.0014245494365585137,-2.103372118924965e-07,2.3132674275855997e-07,2.077999702865263e-09
1668678436.6996274,46226,1668678436,699103915,,0.02065935367491701,-0.00036784445472977124,0.0009535341684957079,-2.1855244292844295e-07,2.3376538865217938e-07,2.1176865469541006e-09
1668678436.7076209,46227,1668678436,707369524,,0.020737263672345324,-0.00017785397721916296,0.0005155320554391023,-2.268494999616206e-07,2.362140364783492e-07,2.1568313593456345e-09
1668678436.7151616,46228,1668678436,715022631,,0.02082349015002014,-2.4519630045708244e-06,0.000109893153375776,-2.352179834879905e-07,2.386693983527817e-07,2.195434320451106e-09
1668678436.7230952,46229,1668678436,722987592,,0.020917581726302547,0.00015913698007908472,-0.00026456062922550276,-2.4364798486336213e-07,2.411283511016653e-07,2.233495624559545e-09
1668678436.7310867,46230,1668678436,730950923,,0.021019108528492786,0.0003076506835646351,-0.0006089041914288582,-2.52130328136504e-07,2.4358801814690096e-07,2.271015479837768e-09
1668678436.7392013,46231,1668678436,739056232,,0.021127636939443247,0.0004438455097188045,-0.0009096731514409816,-2.606559679155121e-07,2.460455661479387e-07,2.3079940944525923e-09
1668678436.7470992,46232,1668678436,746911289,,0.021242765206909993,0.0005684169282181104,-0.0011768568828330573,-2.692167194287055e-07,2.4849845191049925e-07,2.344431690448623e-09
1668678436.7555563,46233,1668678436,755389001,,0.021364104491537524,0.0006820208068509886,-0.0011844367843758875,-2.778048899036126e-07,2.509442979756757e-07,2.3803286494650244e-09
1668678436.763157,46234,1668678436,763025854,,0.02149129382729931,0.0007684042085574441,-0.0009954259754512932,-2.864835343024724e-07,2.5340466113443413e-07,2.4157056494056306e-09
1668678436.7713828,46235,1668678436,771248225,,0.021623979204993867,0.0008464500513163944,-0.0008193852448160776,-2.9516983187705993e-07,2.558517655112079e-07,2.450541984611032e-09
1668678436.7791307,46236,1668678436,779018966,,0.021761826784565824,0.0009076999221154101,-0.0005531817759438637,-3.0389534182224845e-07,2.5829650924461683e-07,2.484849485895335e-09
1668678436.787782,46237,1668678436,787669177,,0.021904537764517586,0.0008982056540060591,-0.00015036715445056444,-3.1288435727963343e-07,2.608149976150503e-07,2.5187001720383684e-09
1668678436.7959173,46238,1668678436,795707743,,0.022051795794538344,0.0008537432194527314,0.00030373921783800813,-3.219840087309285e-07,2.6335581460067755e-07,2.5520534227552183e-09
1668678436.8028991,46239,1668678436,802778339,,0.022203302449828096,0.0007995445450396352,0.0008513332791019273,-3.3108466317922545e-07,2.658821319369937e-07,2.5848787901794346e-09
1668678436.8111017,46240,1668678436,810982168,,0.022358778872447502,0.0007480607266482011,0.0013539847287008708,-3.401300026330484e-07,2.683751276202559e-07,2.617160606288582e-09
1668678436.8193767,46241,1668678436,819277271,,0.022517960932192115,0.0007071156094750724,0.0019240925709057997,-3.4908287212763716e-07,2.708224472514932e-07,2.6488883170250332e-09
1668678436.827022,46242,1668678436,826908393,,0.022680602421712135,0.0006721521367580434,0.0025034591489345634,-3.579597003498531e-07,2.732298502376544e-07,2.680068632299193e-09
1668678436.8352466,46243,1668678436,835109685,,0.022846446000825058,0.0006967594639159088,0.0030729963388185,-3.665214037332481e-07,2.7551668308975225e-07,2.7106204988913696e-09
1668678436.8429525,46244,1668678436,842804646,,0.023015280979393853,0.0007488076969207438,0.0036092260370533245,-3.7490478740491743e-07,2.7772935234883153e-07,2.7405890404286204e-09
1668678436.8519742,46245,1668678436,851620674,,0.023186907700532586,0.0007952710776666686,0.00409596948723979,-3.8325319620820773e-07,2.799165140728076e-07,2.7700252369644573e-09
1668678436.8597012,46246,1668678436,859395467,,0.02336111727175859,0.0008527687041464573,0.004545550890465853,-3.914898134641789e-07,2.820524099705641e-07,2.79890354643042e-09
1668678436.8672009,46247,1668678436,867065068,,0.023537722938605805,0.0009102307359771243,0.0049633719200007165,-3.9966167041550083e-07,2.8415314262089826e-07,2.8272425303677018e-09
1668678436.8749173,46248,1668678436,874804320,,0.023716544166545908,0.0009646363332022778,0.005345125873132023,-4.07780143522711e-07,2.862227713640222e-07,2.855048551742012e-09
1668678436.8828216,46249,1668678436,882686678,,0.023897411274121472,0.0010110630891266151,0.005701093717894966,-4.1586562320573926e-07,2.882684076999098e-07,2.8823318523607533e-09
1668678436.8911316,46250,1668678436,891011189,,0.02408015976581729,0.001051826623527536,0.006017691005106039,-4.239056916550206e-07,2.9028607563498163e-07,2.9090904130057993e-09
1668678436.8993611,46251,1668678436,899192176,,0.02426464175783918,0.0010730482429172582,0.00630554302832398,-4.319628048824885e-07,2.9229711441829034e-07,2.9353518712915694e-09
1668678436.9073522,46252,1668678436,907200982,,0.02445070761162583,0.001082867878420197,0.006562499360265265,-4.399980859763619e-07,2.9428861883073337e-07,2.9611045351818355e-09
1668678436.9153712,46253,1668678436,915250256,,0.02463825305215489,0.0010098773778119926,0.006850103615425687,-4.4834547444213765e-07,2.963737333231504e-07,2.986489389122937e-09
1668678436.922807,46254,1668678436,922697770,,0.02482974735930332,0.000863618106741644,0.007154537990815642,-4.57002325534282e-07,2.9855190254062577e-07,3.011515849193902e-09
1668678436.931383,46255,1668678436,931163117,,0.025022210653498324,0.0007272096795822076,0.0074208045475468555,-4.655341390277161e-07,3.006765570160927e-07,3.0360095062964554e-09
1668678436.939174,46256,1668678436,939026942,,0.025216896305086993,0.0005594222609524566,0.007679505581454969,-4.741574740468597e-07,3.028211195298851e-07,3.0600658604273967e-09
1668678436.9476352,46257,1668678436,947516044,,0.02541094837246726,0.0003748385182027982,0.007951553276263517,-4.827608052184124e-07,3.0494815782126147e-07,3.083642223511429e-09
1668678436.9552383,46258,1668678436,955096625,,0.025604967616277074,0.00018879755618064864,0.008212327523725999,-4.912790386512136e-07,3.0703590274199725e-07,3.1067136085916047e-09
1668678436.9629025,46259,1668678436,962782614,,0.02582985072495753,-1.2753845926427312e-05,0.008412558682582822,-5.002647792549031e-07,3.092714026620494e-07,3.129534152657154e-09
1668678436.9710555,46260,1668678436,970953081,,0.02605285079818708,-0.00019835959946434346,0.008580371448274057,-5.090556958996522e-07,3.114311446079888e-07,3.1518129633978376e-09
1668678436.9793088,46261,1668678436,979201522,,0.02627351364680439,-0.00039960464733775384,0.00869453541534422,-5.178011231014596e-07,3.135657986233888e-07,3.17362087998152e-09
1668678436.987037,46262,1668678436,986937049,,0.026492137903267345,-0.0006004167207494936,0.008770120943047074,-5.264240066745938e-07,3.15649550148016e-07,3.1949251716456573e-09
1668678436.9952703,46263,1668678436,995088034,,0.0267187662503606,-0.0007830004185979228,0.008826909097272037,-5.349955371118458e-07,3.1770667443631155e-07,3.215762788000287e-09
1668678437.002758,46264,1668678437,2641193,,0.02694450651610671,-0.0009496563671726781,0.00886045692089043,-5.433814787124272e-07,3.1969202498043255e-07,3.2360716883950147e-09
1668678437.011773,46265,1668678437,11431838,,0.027167847972086916,-0.0011012754587517778,0.008873872444863677,-5.515588724493516e-07,3.215980241569544e-07,3.255841408977833e-09
1668678437.019228,46266,1668678437,19056760,,0.027389578940439932,-0.0012388177837516943,0.00886802263055109,-5.595433642008752e-07,3.234301349108607e-07,3.275080366627048e-09
1668678437.027304,46267,1668678437,27108690,,0.027617280100142933,-0.0013661747776887974,0.008810815649801611,-5.674826827880902e-07,3.2523847496668343e-07,3.2938656108205677e-09
1668678437.035186,46268,1668678437,35070460,,0.027846537880378063,-0.0014823989157251997,0.008722588017159376,-5.752967142310934e-07,3.2699619624760104e-07,3.3121596021423727e-09
1668678437.0431285,46269,1668678437,42973912,,0.028057883244648522,-0.0015609689433702305,0.00856136530121632,-5.825026009700679e-07,3.2854027610549827e-07,3.3297078219640674e-09
1668678437.0512273,46270,1668678437,51086324,,0.02826751389645315,-0.0016302522370256448,0.008395991439879133,-5.895303760639807e-07,3.3001609217521866e-07,3.346733321030193e-09
1668678437.059525,46271,1668678437,59311674,,0.02845622797864288,-0.0016673497474528971,0.008167448728561441,-5.959139149021341e-07,3.312662556591295e-07,3.3629814141789005e-09
1668678437.0676758,46272,1668678437,67569819,,0.028634728765807093,-0.0016858402153679445,0.007909265515753395,-6.019116052748586e-07,3.32378096159114e-07,3.3785854322565534e-09
1668678437.0754375,46273,1668678437,75248686,,0.028808610019343574,-0.0016817634588258048,0.007586490913110747,-6.075985603240432e-07,3.333770902296321e-07,3.393583553057411e-09
1668678437.0828376,46274,1668678437,82712056,,0.02898079962170858,-0.0016881841467563017,0.007268246794206311,-6.132106502748408e-07,3.3434308149154785e-07,3.408108677216415e-09
1668678437.0912392,46275,1668678437,91117372,,0.029154280458815143,-0.0016907617727180747,0.006960811264999847,-6.187214591133437e-07,3.352673501767897e-07,3.4221489322860954e-09
1668678437.0992365,46276,1668678437,99120711,,0.029327447887884255,-0.0016968455787175494,0.006660835779177193,-6.241434889665983e-07,3.3615432015342197e-07,3.4357145253793853e-09
1668678437.1078382,46277,1668678437,107634178,,0.02950106111110148,-0.0017457938335423936,0.006355720682781592,-6.297139301999891e-07,3.370843678495057e-07,3.4489509026514042e-09
1668678437.115207,46278,1668678437,115090794,,0.029675448291046003,-0.0018121147762420967,0.006053880314894572,-6.352952478671397e-07,3.3801130723564755e-07,3.4617838734485318e-09
1668678437.1229486,46279,1668678437,122809116,,0.029850759602831185,-0.0019182452591387643,0.005763914649483433,-6.410197419890319e-07,3.3898010239822966e-07,3.474301006611835e-09
1668678437.1312225,46280,1668678437,131115997,,0.030027112784267895,-0.002012201572653657,0.0054854886787896245,-6.465919735681807e-07,3.3989119562123117e-07,3.4863271228258164e-09
1668678437.139867,46281,1668678437,139710683,,0.030204329023915507,-0.0021409467216784877,0.005229962928712397,-6.522805699566109e-07,3.408355607390206e-07,3.4980344384982764e-09
1668678437.147481,46282,1668678437,147262230,,0.03038237352406773,-0.002279671562243711,0.004990527356597632,-6.579420784284416e-07,3.4176500292933294e-07,3.5093397771079893e-09
1668678437.1551855,46283,1668678437,155012612,,0.030561198599859528,-0.0024255805758685435,0.004763566157128906,-6.635598965761273e-07,3.426741415168792e-07,3.520237649989877e-09
1668678437.16296,46284,1668678437,162850597,,0.030740738372869305,-0.002566916598710979,0.004524303305932788,-6.690639238665424e-07,3.435395063823652e-07,3.5306866666418024e-09
1668678437.1719873,46285,1668678437,171778281,,0.030920933694954206,-0.002692018494357577,0.0042950187815026875,-6.743837531153181e-07,3.4433749235393725e-07,3.540642778965264e-09
1668678437.1797254,46286,1668678437,179523405,,0.031101711546537816,-0.0028080487215755624,0.00406441533967024,-6.795601662204953e-07,3.450820430989966e-07,3.550134818064432e-09
1668678437.1872125,46287,1668678437,187086570,,0.03128300535395292,-0.0029054539106314692,0.003774231179014001,-6.845343235489299e-07,3.4575344767893285e-07,3.5591246269617294e-09
1668678437.1952598,46288,1668678437,195151172,,0.03146476096083493,-0.0029874581615453666,0.003462566592856922,-6.893240806119623e-07,3.4635788936487194e-07,3.5676252368999073e-09
1668678437.202801,46289,1668678437,202678127,,0.03164691238359344,-0.0030370527009563964,0.003130484740871082,-6.93824665563066e-07,3.4686011099113734e-07,3.5755637409207175e-09
1668678437.2112787,46290,1668678437,211164185,,0.0318294228901163,-0.00307673281888985,0.0028184666615967526,-6.981716453034791e-07,3.4730603681886775e-07,3.583035312892946e-09
1668678437.2195394,46291,1668678437,219440740,,0.03201222554424782,-0.0030830029038393138,0.002512696175444731,-7.022199075486539e-07,3.476467856620719e-07,3.5899366535030452e-09
1668678437.2270436,46292,1668678437,226910338,,0.03219528239563405,-0.0030698333679558287,0.0022193650607243206,-7.0605410928471e-07,3.479110656135105e-07,3.596327645405406e-09
1668678437.235273,46293,1668678437,235127648,,0.032378547895526105,-0.0030379469280736645,0.0018585179629757502,-7.09677790726481e-07,3.481002057127095e-07,3.602211071096484e-09
1668678437.2428577,46294,1668678437,242766772,,0.03256198115056969,-0.002987562408670134,0.001480684176821479,-7.130915871298663e-07,3.4821455285904447e-07,3.6075875828323056e-09
1668678437.25123,46295,1668678437,251102920,,0.032745553471346875,-0.0029352602716380895,0.0011297849313634725,-7.163981805088536e-07,3.4828894246246266e-07,3.6125356872585e-09
1668678437.2591205,46296,1668678437,259002986,,0.03292922131100903,-0.002873312411280089,0.0007822769436683286,-7.195488668934407e-07,3.483070914172409e-07,3.6170208564390016e-09
1668678437.2672827,46297,1668678437,267171153,,0.03311294082794828,-0.0027886887454339243,0.00043373324818820106,-7.224615296049907e-07,3.4824139897335175e-07,3.6209805015507968e-09
1668678437.2750893,46298,1668678437,274960976,,0.03329668718410724,-0.002693666086619616,9.760772908636813e-05,-7.252131317541928e-07,3.4811798909403086e-07,3.6244748730096532e-09
1668678437.2828894,46299,1668678437,282758365,,0.033480414696267224,-0.0025656520716143103,-0.0002731541149863568,-7.276608599114534e-07,3.478887405097223e-07,3.6273908460282556e-09
1668678437.291405,46300,1668678437,291289880,,0.03366411955218228,-0.002442687661229851,-0.0006140805261098528,-7.30045610440285e-07,3.4763514743783343e-07,3.629921273284875e-09
1668678437.2994862,46301,1668678437,299349628,,0.03384774459603953,-0.002279369111741981,-0.0009824488462431308,-7.320790111433099e-07,3.472599367057745e-07,3.6318334589724444e-09
1668678437.30774,46302,1668678437,307504804,,0.034031281565704036,-0.0021005187190279357,-0.0013491855326872716,-7.339195191338982e-07,3.4681671169309314e-07,3.6332549191442354e-09
1668678437.3152463,46303,1668678437,315112058,,0.034214712722141064,-0.0019146136318322648,-0.001752502638222892,-7.356215350212843e-07,3.4632398265106376e-07,3.6342317558113457e-09
1668678437.3228874,46304,1668678437,322745801,,0.034398004459227055,-0.0017043237288420238,-0.002183338220982787,-7.370744909577847e-07,3.4574452841495094e-07,3.6346718343405193e-09
1668678437.3316925,46305,1668678437,331476789,,0.034581159602268076,-0.0015072841518723548,-0.002575823853035021,-7.38520177666368e-07,3.451601626100736e-07,3.6347821003035463e-09
