Time,header.seq,header.stamp.secs,header.stamp.nsecs,header.frame_id,pose.position.x,pose.position.y,pose.position.z,pose.orientation.x,pose.orientation.y,pose.orientation.z,pose.orientation.w
1668678434.7228584,45979,1668678434,722761824,,-0.09533217702090498,-0.6129993761893592,0.06373195599956431,0.995557951133096,0.09353957510276224,-0.004372879916648853,0.009777103175344557
1668678434.7311506,45980,1668678434,730923053,,-0.09533224315229738,-0.6129993761792251,0.06373195599935629,0.9955579512141947,0.09353957505054412,-0.004372875640132264,0.00977709732970632
1668678434.7414083,45981,1668678434,741079389,,-0.09533230316474135,-0.6129993761693827,0.06373195599915596,0.9955579512959014,0.09353957499837266,-0.004372871351664495,0.009777091427068802
1668678434.7477753,45982,1668678434,747550487,,-0.09533235742333665,-0.612999376159828,0.0637319559989636,0.9955579513782005,0.09353957494625402,-0.004372867051889461,0.00977708546864021
1668678434.755036,45983,1668678434,754926140,,-0.09533240627568504,-0.6129993761505569,0.06373195599877883,0.9955579514610771,0.09353957489419432,-0.004372862741447186,0.00977707945562562
1668678434.7627873,45984,1668678434,762689864,,-0.09533245005258693,-0.6129993761415653,0.06373195599860164,0.9955579515445158,0.09353957484219994,-0.004372858420973982,0.009777073389228086
1668678434.7710083,45985,1668678434,770905917,,-0.09533248906871747,-0.6129993761328488,0.0637319559984316,0.9955579516285012,0.0935395747902768,-0.004372854091102474,0.00977706727064777
1668678434.779085,45986,1668678434,778985502,,-0.09533252362327911,-0.6129993761244026,0.06373195599826825,0.9955579517130188,0.09353957473843132,-0.004372849752461571,0.009777061101081811
1668678434.787202,45987,1668678434,787105127,,-0.09533255400063402,-0.6129993761162223,0.06373195599811196,0.9955579517980532,0.09353957468666929,-0.004372845405676162,0.00977705488172476
1668678434.7952359,45988,1668678434,795128692,,-0.09533258047091629,-0.6129993761083027,0.06373195599796211,0.9955579518835895,0.0935395746349965,-0.004372841051367256,0.009777048613767617
1668678434.802972,45989,1668678434,802810306,,-0.09533260329062222,-0.6129993761006385,0.06373195599781878,0.9955579519696126,0.09353957458341931,-0.004372836690151977,0.00977704229839843
1668678434.8112438,45990,1668678434,811093727,,-0.09533262270318306,-0.612999376093225,0.06373195599768171,0.995557952056108,0.09353957453194309,-0.004372832322643151,0.009777035936801905
1668678434.819123,45991,1668678434,819019384,,-0.09533263893951655,-0.6129993760860568,0.06373195599755067,0.9955579521430603,0.09353957448057408,-0.004372827949450058,0.009777029530159268
1668678434.827006,45992,1668678434,826894441,,-0.09533265221855997,-0.612999376079129,0.0637319559974254,0.9955579522304553,0.09353957442931772,-0.004372823571177478,0.009777023079648105
1668678434.835248,45993,1668678434,835149866,,-0.09533266274778529,-0.6129993760724359,0.06373195599730565,0.995557952318278,0.09353957437817977,-0.004372819188425965,0.009777016586441905
1668678434.8430305,45994,1668678434,842870485,,-0.09533267072369601,-0.6129993760659719,0.06373195599719145,0.9955579524065139,0.09353957432716588,-0.004372814801792204,0.009777010051710748
1668678434.8511643,45995,1668678434,851054272,,-0.09533267633230545,-0.6129993760597318,0.0637319559970826,0.9955579524951483,0.09353957427628128,-0.0043728104118685475,0.009777003476620801
1668678434.8591828,45996,1668678434,859087607,,-0.0953326797495991,-0.6129993760537107,0.06373195599697863,0.9955579525841668,0.09353957422553194,-0.004372806019242967,0.009776996862333857
1668678434.867456,45997,1668678434,867355169,,-0.09533268114197993,-0.6129993760479026,0.06373195599687988,0.995557952673555,0.09353957417492281,-0.004372801624499139,0.009776990210007655
1668678434.8752391,45998,1668678434,875087769,,-0.09533268066669734,-0.6129993760423021,0.06373195599678548,0.9955579527632984,0.0935395741244595,-0.0043727972282163775,0.009776983520795313
1668678434.8828344,45999,1668678434,882738237,,-0.09533267847225946,-0.612999376036904,0.06373195599669584,0.9955579528533826,0.09353957407414751,-0.004372792830969645,0.00977697679584613
1668678434.8916438,46000,1668678434,891242825,,-0.09533267469883237,-0.6129993760317031,0.0637319559966103,0.9955579529437935,0.09353957402399188,-0.004372788433329383,0.009776970036304376
1668678434.8992841,46001,1668678434,899148466,,-0.09533266947862118,-0.6129993760266941,0.06373195599652913,0.9955579530345171,0.09353957397399756,-0.004372784035861624,0.009776963243309721
1668678434.9072008,46002,1668678434,907094512,,-0.09533266293623907,-0.6129993760218714,0.06373195599645194,0.9955579531255391,0.0935395739241699,-0.004372779639127984,0.009776956417997312
1668678434.9151669,46003,1668678434,915052471,,-0.09533265518906116,-0.6129993760172295,0.06373195599637861,0.9955579532168454,0.093539573874514,-0.004372775243685284,0.009776949561497118
1668678434.9226925,46004,1668678434,922587860,,-0.0953326463475651,-0.6129993760127642,0.0637319559963091,0.9955579533084222,0.09353957382503468,-0.0043727708500858825,0.009776942674934315
1668678434.9311702,46005,1668678434,931049289,,-0.09533263651565782,-0.6129993760084698,0.06373195599624337,0.9955579534002557,0.0935395737757371,-0.004372766458877735,0.009776935759429107
1668678434.9392376,46006,1668678434,939126915,,-0.0953326257909898,-0.6129993760043414,0.06373195599618087,0.9955579534923319,0.09353957372662597,-0.0043727620706036745,0.00977692881609611
1668678434.9470253,46007,1668678434,946899082,,-0.09533261426525715,-0.6129993760003737,0.0637319559961217,0.9955579535846372,0.09353957367770613,-0.00437275768580232,0.009776921846045027
1668678434.9549997,46008,1668678434,954900695,,-0.09533260202449062,-0.6129993759965622,0.06373195599606564,0.9955579536771579,0.09353957362898237,-0.004372753305007334,0.009776914850380316
1668678434.9635913,46009,1668678434,963327427,,-0.09533258914933394,-0.6129993759929017,0.06373195599601278,0.9955579537698805,0.09353957358045938,-0.00437274892874748,0.009776907830200271
1668678434.9711678,46010,1668678434,971018837,,-0.09533257571531044,-0.6129993759893881,0.0637319559959626,0.9955579538627918,0.09353957353214162,-0.004372744557547099,0.00977690078659826
1668678434.9790826,46011,1668678434,978959555,,-0.09533256179307843,-0.6129993759860164,0.0637319559959154,0.9955579539558779,0.09353957348403388,-0.004372740191925603,0.009776893720661602
1668678434.987225,46012,1668678434,987097344,,-0.09533254744867632,-0.6129993759827819,0.06373195599587066,0.9955579540491258,0.09353957343614032,-0.004372735832397357,0.009776886633472107
1668678434.9957132,46013,1668678434,995550133,,-0.0953325327437568,-0.6129993759796801,0.06373195599582844,0.9955579541425222,0.09353957338846565,-0.004372731479472084,0.009776879526105606
1668678435.0028996,46014,1668678435,2775818,,-0.0953325177358133,-0.6129993759767071,0.06373195599578876,0.995557954236054,0.09353957334101401,-0.004372727133654596,0.009776872399632057
1668678435.0111303,46015,1668678435,10968825,,-0.09533250247839331,-0.6129993759738582,0.06373195599575117,0.9955579543297082,0.09353957329379023,-0.004372722795444597,0.009776865255114942
1668678435.0191157,46016,1668678435,19010389,,-0.0953324870213061,-0.6129993759711291,0.06373195599571611,0.9955579544234716,0.09353957324679804,-0.004372718465337184,0.009776858093612277
1668678435.0278325,46017,1668678435,27623197,,-0.09533247141081908,-0.6129993759685161,0.06373195599568286,0.9955579545173316,0.09353957320004164,-0.004372714143822202,0.009776850916175396
1668678435.0353274,46018,1668678435,35227390,,-0.09533245568984611,-0.6129993759660152,0.06373195599565185,0.9955579546112753,0.09353957315352536,-0.0043727098313848,0.009776843723849618
1668678435.0432992,46019,1668678435,43201815,,-0.0953324398981284,-0.6129993759636219,0.06373195599562241,0.9955579547052901,0.0935395731072532,-0.004372705528504634,0.009776836517673387
1668678435.0515063,46020,1668678435,51355567,,-0.09533242407240725,-0.612999375961333,0.063731955995595,0.9955579547993634,0.09353957306122876,-0.004372701235656924,0.009776829298679374
1668678435.0597339,46021,1668678435,59553006,,-0.09533240824658683,-0.6129993759591443,0.06373195599556938,0.9955579548934825,0.0935395730154565,-0.0043726969533113575,0.009776822067893123
1668678435.0671842,46022,1668678435,67058566,,-0.09533239245189336,-0.6129993759570527,0.0637319559955453,0.9955579549876352,0.09353957296993999,-0.00437269268193271,0.009776814826333784
1668678435.0751624,46023,1668678435,75029786,,-0.09533237671702416,-0.6129993759550544,0.0637319559955228,0.995557955081809,0.0935395729246832,-0.004372688421980771,0.009776807575013906
1668678435.0830057,46024,1668678435,82896876,,-0.09533236106829146,-0.6129993759531462,0.06373195599550167,0.9955579551759919,0.09353957287968952,-0.00437268417391016,0.009776800314939032
1668678435.0913653,46025,1668678435,91252418,,-0.09533234552975775,-0.6129993759513244,0.063731955995482,0.9955579552701717,0.09353957283496298,-0.004372679938170166,0.009776793047107709
1668678435.0992188,46026,1668678435,99056854,,-0.09533233012336745,-0.6129993759495858,0.06373195599546366,0.9955579553643361,0.09353957279050722,-0.004372675715205244,0.009776785772512047
1668678435.1071587,46027,1668678435,107045994,,-0.09533231486907019,-0.6129993759479273,0.06373195599544657,0.9955579554584736,0.09353957274632543,-0.004372671505454564,0.00977677849213696
1668678435.1152222,46028,1668678435,115143995,,-0.09533229978493947,-0.6129993759463461,0.06373195599543069,0.995557955552572,0.09353957270242151,-0.004372667309352057,0.009776771206959908
1668678435.123019,46029,1668678435,122919861,,-0.09533228488728496,-0.612999375944839,0.06373195599541576,0.9955579556466198,0.09353957265879846,-0.00437266312732649,0.009776763917951611
1668678435.1312623,46030,1668678435,131146805,,-0.09533227019075956,-0.6129993759434033,0.06373195599540221,0.9955579557406052,0.0935395726154599,-0.004372658959801526,0.009776756626075675
1668678435.139336,46031,1668678435,139222378,,-0.09533225570846228,-0.6129993759420357,0.06373195599538946,0.9955579558345168,0.093539572572409,-0.004372654807195516,0.009776749332287948
1668678435.1470842,46032,1668678435,146974950,,-0.0953322414520337,-0.6129993759407341,0.06373195599537763,0.9955579559283432,0.0935395725296492,-0.004372650669921506,0.009776742037537142
1668678435.1555758,46033,1668678435,155462325,,-0.0953322274317498,-0.6129993759394954,0.06373195599536663,0.9955579560220728,0.09353957248718325,-0.004372646548387472,0.009776734742764913
1668678435.162859,46034,1668678435,162755455,,-0.09533221365660825,-0.6129993759383173,0.06373195599535648,0.9955579561156946,0.09353957244501461,-0.004372642442995976,0.009776727448904985
1668678435.171402,46035,1668678435,171270424,,-0.0953322001344126,-0.6129993759371973,0.06373195599534713,0.9955579562091975,0.09353957240314653,-0.004372638354144446,0.009776720156883807
1668678435.1793022,46036,1668678435,179124271,,-0.09533218687185076,-0.6129993759361331,0.06373195599533847,0.9955579563025703,0.09353957236158142,-0.004372634282224969,0.00977671286762004
1668678435.1873229,46037,1668678435,187222888,,-0.09533217387457005,-0.6129993759351222,0.06373195599533077,0.9955579563958022,0.09353957232032242,-0.004372630227624579,0.0097767055820252
1668678435.1953056,46038,1668678435,195071051,,-0.09533216114724805,-0.6129993759341626,0.06373195599532366,0.9955579564888825,0.09353957227937236,-0.0043726261907246515,0.009776698301002322
1668678435.203201,46039,1668678435,203037692,,-0.09533214869366048,-0.6129993759332522,0.06373195599531714,0.9955579565818,0.09353957223873414,-0.004372622171901427,0.009776691025447164
1668678435.2115777,46040,1668678435,211340754,,-0.09533213651674456,-0.6129993759323884,0.06373195599531112,0.9955579566745447,0.09353957219841032,-0.004372618171525766,0.009776683756247611
1668678435.219259,46041,1668678435,219135303,,-0.09533212461865995,-0.6129993759315697,0.06373195599530566,0.9955579567671058,0.09353957215840374,-0.004372614189963553,0.009776676494283949
1668678435.2273118,46042,1668678435,227145101,,-0.09533211300084556,-0.6129993759307942,0.06373195599530102,0.995557956859473,0.093539572118717,-0.004372610227575009,0.009776669240428002
1668678435.2353234,46043,1668678435,235102741,,-0.09533210166407356,-0.6129993759300597,0.06373195599529641,0.995557956951636,0.09353957207935248,-0.004372606284715068,0.00977666199554388
1668678435.2427611,46044,1668678435,242663294,,-0.09533209060850062,-0.6129993759293644,0.06373195599529231,0.9955579570435844,0.09353957204031275,-0.004372602361733531,0.009776654760487774
1668678435.251497,46045,1668678435,251389674,,-0.09533207983371662,-0.612999375928707,0.0637319559952887,0.9955579571353085,0.09353957200160017,-0.00437259845897481,0.009776647536108
1668678435.2592247,46046,1668678435,259117606,,-0.09533206933878988,-0.6129993759280851,0.06373195599528564,0.9955579572267981,0.09353957196321727,-0.004372594576777844,0.009776640323244306
1668678435.2670698,46047,1668678435,266954390,,-0.09533205912231046,-0.612999375927498,0.0637319559952828,0.9955579573180434,0.09353957192516615,-0.004372590715476618,0.009776633122728837
1668678435.2751358,46048,1668678435,275034547,,-0.09533204918243,-0.6129993759269435,0.06373195599528036,0.9955579574090347,0.09353957188744919,-0.004372586875399215,0.009776625935384843
1668678435.2831302,46049,1668678435,283040805,,-0.09533203951690107,-0.6129993759264203,0.06373195599527805,0.9955579574997623,0.09353957185006859,-0.004372583056869038,0.00977661876202808
1668678435.2915728,46050,1668678435,291385980,,-0.09533203012311271,-0.6129993759259268,0.0637319559952763,0.9955579575902168,0.09353957181302619,-0.004372579260203697,0.009776611603465641
1668678435.2992356,46051,1668678435,299132458,,-0.0953320209981237,-0.6129993759254619,0.06373195599527472,0.9955579576803886,0.09353957177632441,-0.004372575485715695,0.009776604460496375
1668678435.3072214,46052,1668678435,307070818,,-0.09533201213869555,-0.6129993759250244,0.0637319559952733,0.9955579577702687,0.09353957173996513,-0.004372571733712226,0.009776597333911034
1668678435.3154426,46053,1668678435,315310256,,-0.09533200354132097,-0.6129993759246123,0.0637319559952723,0.9955579578598475,0.09353957170395039,-0.00437256800449495,0.009776590224491611
1668678435.3232641,46054,1668678435,323160358,,-0.0953319952022542,-0.6129993759242248,0.06373195599527119,0.9955579579491163,0.09353957166828154,-0.004372564298360451,0.00977658313301165
1668678435.3312914,46055,1668678435,331146049,,-0.09533198711753463,-0.6129993759238608,0.06373195599527047,0.995557958038066,0.09353957163296102,-0.004372560615599986,0.00977657606023698
1668678435.3393567,46056,1668678435,339207381,,-0.09533197928301368,-0.6129993759235192,0.06373195599526987,0.9955579581266877,0.09353957159799021,-0.0043725569564993134,0.009776569006924094
1668678435.347681,46057,1668678435,347507582,,-0.0953319716943764,-0.6129993759231986,0.06373195599526947,0.9955579582149726,0.09353957156337094,-0.004372553321339262,0.009776561973821676
1668678435.3548698,46058,1668678435,354771883,,-0.09533196434716427,-0.6129993759228982,0.06373195599526935,0.9955579583029122,0.09353957152910479,-0.004372549710394999,0.009776554961669463
1668678435.362826,46059,1668678435,362736194,,-0.0953319572367944,-0.6129993759226173,0.0637319559952691,0.995557958390498,0.0935395714951936,-0.004372546123936488,0.009776547971198625
1668678435.3710396,46060,1668678435,370941141,,-0.09533195035857933,-0.6129993759223542,0.06373195599526928,0.9955579584777214,0.09353957146163865,-0.004372542562228643,0.009776541003132005
1668678435.3792818,46061,1668678435,379155583,,-0.09533194370774327,-0.6129993759221086,0.06373195599526942,0.9955579585645744,0.0935395714284414,-0.004372539025530817,0.009776534058183779
1668678435.387205,46062,1668678435,386942104,,-0.09533193727944017,-0.6129993759218794,0.06373195599526982,0.9955579586510486,0.09353957139560323,-0.004372535514097322,0.009776527137059404
1668678435.395315,46063,1668678435,395158192,,-0.09533193106876697,-0.6129993759216658,0.06373195599527008,0.9955579587371362,0.0935395713631257,-0.004372532028176962,0.00977652024045537
1668678435.402812,46064,1668678435,402721522,,-0.09533192507077946,-0.6129993759214668,0.06373195599527054,0.9955579588228288,0.09353957133101003,-0.004372528568013606,0.009776513369060236
1668678435.4113727,46065,1668678435,411264590,,-0.0953319192805042,-0.6129993759212821,0.06373195599527105,0.995557958908119,0.09353957129925727,-0.004372525133845739,0.009776506523553422
1668678435.4191797,46066,1668678435,419066618,,-0.09533191369295121,-0.6129993759211103,0.06373195599527166,0.9955579589929989,0.09353957126786869,-0.004372521725906532,0.009776499704605516
1668678435.4271345,46067,1668678435,427029268,,-0.09533190830312434,-0.612999375920951,0.06373195599527215,0.9955579590774609,0.09353957123684561,-0.004372518344424044,0.009776492912878649
1668678435.4351203,46068,1668678435,434994902,,-0.09533190310603279,-0.6129993759208034,0.06373195599527283,0.9955579591614974,0.09353957120618904,-0.004372514989621314,0.0097764861490264
1668678435.443202,46069,1668678435,442932587,,-0.09533189809669963,-0.6129993759206674,0.06373195599527363,0.9955579592451012,0.0935395711759,-0.004372511661715893,0.009776479413693006
1668678435.4512463,46070,1668678435,451075675,,-0.09533189327017103,-0.6129993759205418,0.06373195599527426,0.9955579593282649,0.09353957114597931,-0.004372508360920325,0.009776472707514422
1668678435.4592357,46071,1668678435,459132846,,-0.0953318886215235,-0.6129993759204264,0.06373195599527519,0.9955579594109815,0.09353957111642802,-0.004372505087441926,0.009776466031117622
1668678435.4672613,46072,1668678435,467125746,,-0.09533188414587228,-0.6129993759203203,0.06373195599527592,0.9955579594932438,0.09353957108724657,-0.004372501841482907,0.009776459385120699
1668678435.4758477,46073,1668678435,475698473,,-0.09533187983837678,-0.612999375920223,0.0637319559952767,0.995557959575045,0.09353957105843615,-0.004372498623240538,0.009776452770133304
1668678435.4832306,46074,1668678435,482923371,,-0.09533187569424754,-0.6129993759201343,0.0637319559952777,0.9955579596563782,0.0935395710299976,-0.004372495432906617,0.009776446186756061
1668678435.4919293,46075,1668678435,491764128,,-0.0953318717087512,-0.6129993759200535,0.06373195599527842,0.9955579597372366,0.09353957100193133,-0.004372492270668112,0.009776439635580596
1668678435.4990363,46076,1668678435,498934175,,-0.09533186787721512,-0.6129993759199799,0.06373195599527935,0.995557959817614,0.09353957097423829,-0.004372489136706685,0.009776433117190024
1668678435.5073721,46077,1668678435,507200881,,-0.09533186419503281,-0.6129993759199133,0.06373195599528027,0.9955579598975036,0.09353957094691866,-0.004372486031199251,0.009776426632158539
1668678435.515221,46078,1668678435,515099346,,-0.09533186065766676,-0.6129993759198532,0.0637319559952812,0.995557959976899,0.09353957091997338,-0.00437248295431741,0.009776420181051492
1668678435.5227287,46079,1668678435,522636980,,-0.09533185726065234,-0.6129993759197996,0.06373195599528203,0.9955579600557943,0.09353957089340247,-0.004372479906227807,0.009776413764425299
1668678435.531069,46080,1668678435,530944510,,-0.09533185399960077,-0.6129993759197517,0.06373195599528299,0.9955579601341831,0.0935395708672067,-0.0043724768870923225,0.009776407382827968
1668678435.5395617,46081,1668678435,539400599,,-0.0953318508702017,-0.6129993759197095,0.06373195599528392,0.9955579602120594,0.0935395708413866,-0.004372473897067353,0.009776401036797996
1668678435.5471761,46082,1668678435,547082280,,-0.09533184786822625,-0.6129993759196718,0.06373195599528483,0.9955579602894173,0.09353957081594226,-0.0043724709363047185,0.009776394726865466
1668678435.5554204,46083,1668678435,555270608,,-0.09533184421077191,-0.612999375919639,0.06373195599528576,0.9955579603662511,0.09353957079087381,-0.004372468004951101,0.009776388453551605
1668678435.563035,46084,1668678435,562899086,,-0.09533183684182714,-0.6129993759196112,0.06373195599528664,0.9955579604425551,0.09353957076618162,-0.0043724651031484,0.00977638221736881
1668678435.5715475,46085,1668678435,571378329,,-0.09533181983916976,-0.6129993759195864,0.06373195599528732,0.9955579605183238,0.09353957074186597,-0.00437246223103362,0.009776376018820405
1668678435.5794423,46086,1668678435,579319709,,-0.09533178465255902,-0.6129993759195651,0.06373195599528846,0.9955579605935515,0.0935395707179269,-0.004372459388739097,0.009776369858401628
1668678435.5871134,46087,1668678435,586995659,,-0.09533172032830968,-0.612999375919545,0.06373195599528947,0.9955579606682331,0.09353957069436457,-0.004372456576391908,0.009776363736597847
1668678435.5951269,46088,1668678435,594992184,,-0.09533161372088425,-0.6129993759195209,0.06373195599529063,0.9955579607423634,0.09353957067117862,-0.004372453794114487,0.009776357653886417
1668678435.6030674,46089,1668678435,602959566,,-0.09533144969210829,-0.6129993759194852,0.06373195599529179,0.9955579608159372,0.09353957064836955,-0.004372451042024889,0.009776351610735812
1668678435.611162,46090,1668678435,611026013,,-0.09533121129859667,-0.6129993759194228,0.06373195599529298,0.9955579608889493,0.09353957062593694,-0.004372448320236026,0.009776345607605564
1668678435.6192698,46091,1668678435,619118114,,-0.0953308799679502,-0.6129993759193113,0.06373195599529384,0.9955579609613951,0.09353957060388093,-0.004372445628856153,0.009776339644946737
1668678435.6272042,46092,1668678435,627095243,,-0.0953304356642645,-0.6129993759191164,0.06373195599529385,0.9955579610332699,0.0935395705822011,-0.00437244296798904,0.009776333723201929
1668678435.6354725,46093,1668678435,635317930,,-0.09532985704346778,-0.6129993759187891,0.06373195599529202,0.9955579611045686,0.09353957056089741,-0.00437244033773357,0.009776327842804793
1668678435.6430082,46094,1668678435,642817088,,-0.09532912159898443,-0.6129993759182636,0.06373195599528736,0.995557961175287,0.09353957053996961,-0.00437243773818464,0.0097763220041815
1668678435.6516538,46095,1668678435,651541086,,-0.09532820579820306,-0.6129993759174522,0.06373195599527802,0.9955579612454204,0.09353957051941733,-0.004372435169431911,0.009776316207748702
1668678435.6595385,46096,1668678435,659446721,,-0.09532708521020442,-0.6129993759162421,0.06373195599526155,0.9955579613149648,0.09353957049924014,-0.004372432631561149,0.009776310453915667
1668678435.6676636,46097,1668678435,667525821,,-0.09532573462518985,-0.6129993759144945,0.06373195599523539,0.9955579613839155,0.09353957047943796,-0.004372430124653462,0.009776304743083135
1668678435.6752818,46098,1668678435,675188579,,-0.0953241281660283,-0.6129993759120367,0.0637319559951954,0.9955579614522685,0.09353957046001014,-0.00437242764878576,0.00977629907564393
1668678435.682847,46099,1668678435,682733631,,-0.0953222393923263,-0.6129993759086633,0.06373195599513728,0.9955579615200199,0.0935395704409562,-0.004372425204030652,0.009776293451982892
1668678435.6917589,46100,1668678435,691637579,,-0.09532004139740605,-0.6129993759041305,0.06373195599505578,0.9955579615871655,0.09353957042227548,-0.004372422790456744,0.009776287872477316
1668678435.699527,46101,1668678435,699431461,,-0.09531750689855914,-0.612999375898155,0.06373195599494406,0.9955579616537017,0.09353957040396754,-0.0043724204081281096,0.009776282337496138
1668678435.7077432,46102,1668678435,707647939,,-0.09531460832093153,-0.6129993758904108,0.06373195599479464,0.9955579617196246,0.09353957038603168,-0.004372418057105097,0.009776276847401157
1668678435.7157564,46103,1668678435,715625622,,-0.09531131787537629,-0.6129993758805268,0.06373195599459937,0.9955579617849305,0.09353957036846752,-0.004372415737443751,0.009776271402546399
1668678435.723132,46104,1668678435,723048455,,-0.09530760763059724,-0.6129993758680877,0.06373195599434826,0.995557961849616,0.09353957035127389,-0.004372413449196512,0.009776266003278666
1668678435.731989,46105,1668678435,731856164,,-0.09530344957989129,-0.6129993758526288,0.06373195599403043,0.9955579619136775,0.09353957033445037,-0.0043724111924117095,0.009776260649937243
1668678435.7391734,46106,1668678435,739071670,,-0.09529881570278682,-0.6129993758336387,0.063731955993634,0.9955579619771117,0.09353957031799615,-0.004372408967133866,0.009776255342854298
1668678435.7471466,46107,1668678435,747038742,,-0.09529367802185851,-0.612999375810558,0.06373195599314521,0.9955579620399151,0.09353957030191018,-0.004372406773403688,0.009776250082354618
1668678435.7552319,46108,1668678435,755105698,,-0.09528800865498659,-0.6129993757827779,0.06373195599254992,0.9955579621020848,0.09353957028619189,-0.004372404611258279,0.009776244868756053
1668678435.7631197,46109,1668678435,763002217,,-0.09528177986331997,-0.6129993757496423,0.06373195599183235,0.9955579621636176,0.09353957027083999,-0.004372402480731181,0.009776239702369741
1668678435.7712457,46110,1668678435,771150462,,-0.0952749640951846,-0.612999375710448,0.0637319559909753,0.9955579622245102,0.09353957025585417,-0.004372400381851893,0.009776234583499533
1668678435.779313,46111,1668678435,779178802,,-0.09526753402617608,-0.6129993756644465,0.06373195598996116,0.99555796228476,0.0935395702412325,-0.004372398314646845,0.009776229512442626
1668678435.787246,46112,1668678435,787097004,,-0.09525946259565155,-0.6129993756108445,0.06373195598877046,0.995557962344364,0.09353957022697451,-0.0043723962791387926,0.009776224489489713
1668678435.7953362,46113,1668678435,795179266,,-0.09525072303984065,-0.6129993755488065,0.06373195598738313,0.9955579624033194,0.09353957021307928,-0.004372394275347015,0.009776219514924338
1668678435.8032367,46114,1668678435,802848332,,-0.09524128892177351,-0.612999375477457,0.06373195598577762,0.9955579624616238,0.09353957019954508,-0.004372392303287332,0.009776214589023616
1668678435.811088,46115,1668678435,810913187,,-0.0952311341582175,-0.6129993753958835,0.06373195598393205,0.9955579625192743,0.09353957018637112,-0.004372390362972125,0.009776209712057875
1668678435.8192277,46116,1668678435,819085686,,-0.09522023304380937,-0.6129993753031378,0.06373195598182325,0.9955579625762684,0.09353957017355628,-0.004372388454410656,0.009776204884291307
1668678435.8272994,46117,1668678435,827191305,,-0.09520856027257471,-0.612999375198302,0.06373204356506011,0.9955579626326037,0.09353957016109925,-0.004372386577608543,0.009776200105981202
1668678435.8352323,46118,1668678435,835036367,,-0.0951960909569523,-0.6129993750804701,0.06373234550966761,0.9955579626882778,0.09353957014899866,-0.004372384732568493,0.009776195377378682
1668678435.8427215,46119,1668678435,842610356,,-0.09518280064437938,-0.6129993749483528,0.0637332008394531,0.9955579627432886,0.09353957013725324,-0.004372382919289515,0.009776190698728166
1668678435.851095,46120,1668678435,850953968,,-0.09516866533166007,-0.6129993747997162,0.06373487441491328,0.9955579627976338,0.09353957012586152,-0.004372381137768146,0.009776186070268162
1668678435.8590777,46121,1668678435,858950574,,-0.0951536614772689,-0.6129993746306879,0.0637375977701034,0.9955579628513112,0.09353957011482249,-0.004372379387997038,0.009776181492230284
1668678435.8669827,46122,1668678435,866857386,,-0.09513776601153998,-0.6129993744343847,0.06374174048415732,0.9955579629043189,0.09353957010413419,-0.004372377669965986,0.009776176964839806
1668678435.87528,46123,1668678435,875074354,,-0.09512095634564989,-0.6129993742011466,0.06374760270687284,0.9955579629566548,0.09353957009379552,-0.0043723759836614045,0.009776172488316102
1668678435.8827717,46124,1668678435,882641746,,-0.09510321037905912,-0.6129993739190329,0.06375536328881526,0.9955579630083172,0.09353957008380497,-0.004372374329067077,0.009776168062871817
1668678435.891325,46125,1668678435,891219566,,-0.09508450650765211,-0.6129993735807833,0.06376492114510131,0.9955579630593043,0.09353957007416068,-0.004372372706163259,0.009776163688713382
1668678435.8992763,46126,1668678435,899062454,,-0.09506482362765771,-0.6129993731826028,0.06377614934366659,0.9955579631096143,0.09353957006486154,-0.00437237111492733,0.009776159366040873
1668678435.907163,46127,1668678435,906963500,,-0.09504414114031375,-0.6129993727289197,0.06378865664572592,0.9955579631592454,0.09353957005590569,-0.004372369555333683,0.009776155095048462
1668678435.9151514,46128,1668678435,914994069,,-0.09502243895558826,-0.6129993722379233,0.06380190285923672,0.9955579632081965,0.09353957004729124,-0.004372368027353243,0.00977615087592294
1668678435.9235587,46129,1668678435,923363512,,-0.09499969748875657,-0.6129993717295592,0.06381526080914533,0.9955579632564655,0.0935395700390171,-0.004372366530954724,0.009776146708846255
1668678435.9312274,46130,1668678435,931108982,,-0.09497589765969343,-0.6129993712244243,0.06382829606650027,0.9955579633040516,0.09353957003108095,-0.0043723650661029664,0.009776142593993018
1668678435.9390738,46131,1668678435,938968097,,-0.09495102088488107,-0.6129993707242137,0.06384079718164067,0.9955579633509529,0.09353957002348141,-0.004372363632760143,0.009776138531531184
1668678435.9471269,46132,1668678435,947026347,,-0.09492504908385718,-0.6129993702367729,0.06385245870695076,0.9955579633971687,0.09353957001621668,-0.004372362230885787,0.009776134521623767
1668678435.9552047,46133,1668678435,955084393,,-0.09489796467092501,-0.6129993697605358,0.06386315309072833,0.9955579634426975,0.09353957000928502,-0.0043723608604359955,0.00977613056442619
1668678435.962774,46134,1668678435,962674439,,-0.09486975055325111,-0.6129993692897056,0.06387284524274835,0.9955579634875384,0.09353957000268438,-0.004372359521364099,0.00977612666008811
1668678435.9711618,46135,1668678435,971053832,,-0.09484039012739288,-0.6129993688167945,0.06388156395156727,0.9955579635316902,0.09353956999641327,-0.004372358213620781,0.009776122808752626
1668678435.9791586,46136,1668678435,979060340,,-0.0948098672749033,-0.612999368334237,0.0638893523834687,0.9955579635751519,0.09353956999046939,-0.004372356937153076,0.009776119010556354
1668678435.9871192,46137,1668678435,986997126,,-0.09477816635732204,-0.6129993678358074,0.06389624337189416,0.9955579636179229,0.09353956998485123,-0.004372355691905701,0.009776115265629918
1668678435.9951422,46138,1668678435,995019822,,-0.09474527220989169,-0.6129993673157529,0.06390228084459167,0.9955579636600025,0.09353956997955634,-0.004372354477820247,0.009776111574096987
1668678436.003102,46139,1668678436,3020180,,-0.09471117013519896,-0.6129993667690008,0.06390751324769864,0.9955579637013897,0.09353956997458328,-0.004372353294835331,0.00977610793607515
1668678436.0118668,46140,1668678436,11624378,,-0.09467584589636323,-0.6129993661911896,0.06391199142056714,0.9955579637420838,0.09353956996992993,-0.004372352142886834,0.009776104351675807
1668678436.019455,46141,1668678436,19323399,,-0.09463928570985645,-0.6129993655786441,0.06391576482759248,0.9955579637820846,0.09353956996559387,-0.004372351021907747,0.00977610082100328
1668678436.0274258,46142,1668678436,27312096,,-0.09460147623800937,-0.6129993649283396,0.06391887972875439,0.9955579638213916,0.09353956996157332,-0.004372349931827999,0.009776097344156045
1668678436.035093,46143,1668678436,34992666,,-0.09456240458122595,-0.6129993642377917,0.06392138096162554,0.9955579638600042,0.09353956995786651,-0.00437234887257482,0.009776093921225745
1668678436.04332,46144,1668678436,43134021,,-0.09452205826998186,-0.6129993635049918,0.06392331152553646,0.9955579638979221,0.0935395699544709,-0.00437234784407277,0.009776090552297846
1668678436.0514812,46145,1668678436,51325519,,-0.09448042525662396,-0.612999362728349,0.06392471251095107,0.9955579639351453,0.09353956995138457,-0.004372346846243277,0.009776087237451174
1668678436.0590713,46146,1668678436,58814733,,-0.09443749390700644,-0.6129993619066302,0.06392562289666016,0.9955579639716734,0.0935395699486054,-0.0043723458790048565,0.009776083976757772
1668678436.067175,46147,1668678436,67071137,,-0.0943932529919927,-0.6129993610389124,0.06392607949553314,0.9955579640075065,0.09353956994613107,-0.004372344942273518,0.009776080770283769
1668678436.0752804,46148,1668678436,75095584,,-0.09434769167884811,-0.6129993601245356,0.06392611717998739,0.9955579640426445,0.09353956994395948,-0.004372344035962324,0.009776077618088548
1668678436.0831773,46149,1668678436,83064067,,-0.09430079952255355,-0.6129993591630647,0.06392576893206749,0.9955579640770875,0.09353956994208845,-0.004372343159981777,0.009776074520225077
1668678436.091502,46150,1668678436,91353887,,-0.09425256645705903,-0.6129993581542552,0.06392506591748676,0.9955579641108357,0.0935395699405155,-0.004372342314239266,0.009776071476739681
1668678436.099163,46151,1668678436,99029803,,-0.09420298278650202,-0.6129993570980246,0.06392403754631003,0.9955579641438895,0.09353956993923865,-0.004372341498639392,0.009776068487672058
1668678436.1070921,46152,1668678436,106937775,,-0.09415203917640956,-0.6129993559944256,0.06392271154236515,0.995557964176249,0.09353956993825563,-0.004372340713084326,0.009776065553055859
1668678436.1151762,46153,1668678436,115078521,,-0.09409972664490232,-0.6129993548436263,0.06392111403174135,0.9955579642079144,0.09353956993756428,-0.004372339957473602,0.009776062672918251
1668678436.122639,46154,1668678436,122545777,,-0.094046036553918,-0.61299935364589,0.06391926961479805,0.9955579642388865,0.09353956993716202,-0.004372339231703493,0.009776059847279299
1668678436.1310863,46155,1668678436,130972395,,-0.09399096060047007,-0.6129993524015606,0.06391720143739282,0.9955579642691658,0.0935395699370465,-0.004372338535668048,0.009776057076153172
1668678436.139259,46156,1668678436,139141726,,-0.09393449080795667,-0.6129993511110478,0.06391493125847618,0.995557964298753,0.0935395699372154,-0.004372337869258383,0.009776054359547042
1668678436.1472983,46157,1668678436,147204626,,-0.09387661951753065,-0.612999349774818,0.06391247951587374,0.9955579643276484,0.09353956993766648,-0.004372337232363175,0.009776051697462219
1668678436.1550717,46158,1668678436,154942302,,-0.09381733937954634,-0.6129993483933819,0.06390986539113741,0.9955579643558534,0.09353956993839731,-0.004372336624868437,0.009776049089893353
1668678436.1628926,46159,1668678436,162745691,,-0.09375664334509004,-0.6129993469672892,0.06390710687076273,0.9955579643833683,0.09353956993940539,-0.004372336046657378,0.009776046536828575
1668678436.1711094,46160,1668678436,170979728,,-0.09369452465760779,-0.6129993454971194,0.06390422080507151,0.9955579644101943,0.0935395699406883,-0.004372335497610669,0.009776044038249727
1668678436.1800563,46161,1668678436,179647468,,-0.09363097684463616,-0.6129993439834788,0.06390122296461764,0.9955579644363323,0.0935395699422437,-0.004372334977606601,0.009776041594131979
1668678436.1870933,46162,1668678436,186986040,,-0.09356599370964591,-0.6129993424269939,0.0638981280943261,0.9955579644617835,0.0935395699440692,-0.004372334486520649,0.009776039204444463
1668678436.1951492,46163,1668678436,194913570,,-0.09349956932400635,-0.6129993408283093,0.06389494996550861,0.995557964486549,0.09353956994616229,-0.004372334024225976,0.00977603686914999
1668678436.2029293,46164,1668678436,202816206,,-0.09343169801907392,-0.6129993391880822,0.06389170142561068,0.99555796451063,0.09353956994852047,-0.004372333590593117,0.009776034588204701
1668678436.2117324,46165,1668678436,211630903,,-0.0933623743784139,-0.6129993375069835,0.06388839444586296,0.9955579645340277,0.09353956995114121,-0.004372333185489947,0.00977603236155836
1668678436.2195098,46166,1668678436,219374960,,-0.09329159323015791,-0.6129993357856931,0.0638850401668912,0.9955579645567436,0.09353956995402213,-0.004372332808782381,0.009776030189155327
1668678436.2275245,46167,1668678436,227428769,,-0.09321934963950226,-0.6129993340248985,0.06388164894236281,0.9955579645787793,0.0935395699571605,-0.004372332460333318,0.009776028070932708
1668678436.2351303,46168,1668678436,235032710,,-0.09314563890135102,-0.6129993322252951,0.06387823038075058,0.9955579646001362,0.09353956996055415,-0.004372332140003693,0.009776026006821776
1668678436.2429252,46169,1668678436,242821379,,-0.0930704565331063,-0.6129993303875837,0.06387479338525853,0.9955579646208159,0.09353956996420018,-0.004372331847651853,0.009776023996747868
1668678436.251388,46170,1668678436,251280915,,-0.09299379826760867,-0.6129993285124702,0.06387134619198409,0.9955579646408198,0.09353956996809638,-0.004372331583133754,0.009776022040629733
1668678436.2594104,46171,1668678436,259098114,,-0.0929156600462303,-0.6129993266006657,0.06386789640638352,0.99555796466015,0.09353956997223986,-0.004372331346303274,0.009776020138380423
1668678436.2671177,46172,1668678436,266985683,,-0.09283603801212038,-0.6129993246528845,0.06386445103809651,0.9955579646788083,0.09353956997662795,-0.004372331137011514,0.009776018289906412
1668678436.275106,46173,1668678436,274987572,,-0.09275492850360693,-0.6129993226698454,0.06386101653419907,0.9955579646967964,0.09353956998125847,-0.0043723309551079535,0.009776016495108678
1668678436.2827857,46174,1668678436,282663499,,-0.09267232804775302,-0.6129993206522691,0.06385759881093463,0.9955579647141163,0.09353956998612878,-0.004372330800439035,0.009776014753881622
1668678436.2912242,46175,1668678436,291077965,,-0.09258823335407042,-0.6129993186008813,0.06385420328398828,0.99555796473077,0.09353956999123594,-0.004372330672849757,0.009776013066114378
1668678436.2989905,46176,1668678436,298887035,,-0.0925026413083875,-0.6129993165164086,0.06385083489735384,0.9955579647467596,0.09353956999657775,-0.004372330572182603,0.009776011431689739
1668678436.3072934,46177,1668678436,307178252,,-0.09241554896767726,-0.6129993144019523,0.06384768740717571,0.9955579647620875,0.09353957000215153,-0.004372330498277661,0.009776009850484555
1668678436.3149767,46178,1668678436,314861098,,-0.09232695355441083,-0.6129993122634998,0.06384503897793971,0.9955579647767554,0.09353957000795443,-0.004372330450973249,0.009776008322370142
1668678436.3228538,46179,1668678436,322747102,,-0.0922368524483131,-0.6129993101023136,0.06384296467578908,0.9955579647907662,0.0935395700139837,-0.004372330430105625,0.009776006847211857
1668678436.3314488,46180,1668678436,331310797,,-0.09214524318158633,-0.6129993079170989,0.06384143234848218,0.9955579648041217,0.09353957002023715,-0.004372330435508625,0.009776005424869422
1668678436.3397844,46181,1668678436,339560619,,-0.09205212343443771,-0.6129993057066219,0.0638403919395737,0.9955579648168246,0.09353957002671198,-0.004372330467014301,0.00977600405519671
1668678436.3471653,46182,1668678436,347056449,,-0.09195749102993586,-0.6129993034699054,0.06383979098529684,0.9955579648288775,0.09353957003340548,-0.00437233052445294,0.009776002738042166
1668678436.3552537,46183,1668678436,355092724,,-0.09186134392871581,-0.6129993012055341,0.06383945734059338,0.9955579648402827,0.09353957004031505,-0.004372330607652386,0.009776001473248768
1668678436.3626702,46184,1668678436,362503440,,-0.09176368022395462,-0.6129992989113213,0.06383916684731474,0.9955579648510428,0.09353957004743801,-0.004372330716438686,0.00977600026065345
1668678436.3712375,46185,1668678436,371118181,,-0.09166449813754246,-0.6129992965870907,0.06383884618842521,0.9955579648611607,0.09353957005477175,-0.0043723308506363814,0.009775999100088275
1668678436.3791728,46186,1668678436,379070210,,-0.09156379601506741,-0.6129992942335212,0.06383846108955774,0.9955579648706391,0.09353957006231363,-0.004372331010067598,0.009775997991379544
1668678436.3871772,46187,1668678436,387076486,,-0.0914615723211289,-0.612999291851543,0.06383804493213245,0.9955579648794806,0.09353957007006088,-0.004372331194552977,0.00977599693434836
1668678436.395457,46188,1668678436,395233072,,-0.09135782563533738,-0.6129992894433647,0.06383770004507172,0.995557964887688,0.09353957007801099,-0.004372331403911233,0.009775995928810134
1668678436.403954,46189,1668678436,403779457,,-0.09125255464831385,-0.6129992870130895,0.06383785380087229,0.9955579648952647,0.0935395700861609,-0.004372331637959421,0.009775994974575987
1668678436.4115794,46190,1668678436,411368390,,-0.09114575815724489,-0.6129992845656189,0.0638388645792699,0.9955579649022132,0.09353957009450832,-0.004372331896512808,0.00977599407145085
1668678436.4192326,46191,1668678436,419057347,,-0.09103743504779756,-0.612999357486186,0.06384104013771423,0.9955579649085359,0.09353957010305045,-0.004372332179414564,0.009775993219300817
1668678436.4273598,46192,1668678436,427250949,,-0.09092758428779688,-0.6129996147227459,0.06384486146624221,0.995557964914234,0.09353957011178442,-0.004372332486549828,0.009775992418084642
1668678436.435291,46193,1668678436,435193151,,-0.090816204898299,-0.6130004491505228,0.06385081674121705,0.9955579649193061,0.09353957012070695,-0.004372332817902714,0.009775991667980986
1668678436.4428399,46194,1668678436,442662790,,-0.0907032959079691,-0.6130024400492441,0.06385960206407684,0.9955579649237454,0.09353957012981479,-0.00437233317366861,0.009775990969638769
1668678436.4512913,46195,1668678436,451194667,,-0.09058885652584794,-0.6130057503388907,0.06387142705468196,0.9955579649275506,0.09353957013910458,-0.004372333553825859,0.009775990323220731
1668678436.4592113,46196,1668678436,459107033,,-0.09047288611601872,-0.6130104059429453,0.06388626657834172,0.9955579649307248,0.09353957014857374,-0.004372333958185061,0.009775989728512756
1668678436.4674191,46197,1668678436,467312883,,-0.09035522475289655,-0.6130165734736159,0.06390454868401681,0.9955579649332628,0.09353957015821905,-0.004372334386879609,0.009775989186020215
1668678436.4751613,46198,1668678436,475059451,,-0.09023564120523982,-0.6130243435233685,0.06392666432852302,0.9955579649351524,0.09353957016803624,-0.004372334840318334,0.00977598869686396
1668678436.4827695,46199,1668678436,482659598,,-0.09011384905572678,-0.6130339403623695,0.06395300237334733,0.9955579649363805,0.09353957017802149,-0.004372335318925555,0.009775988262196542
1668678436.4910965,46200,1668678436,490992166,,-0.08998967016435967,-0.613045489988692,0.0639836707644541,0.9955579649369312,0.09353957018817041,-0.004372335823246228,0.00977598788343841
1668678436.4996333,46201,1668678436,499525582,,-0.08986290840524973,-0.6130591533375602,0.06401866632881098,0.9955579649367993,0.09353957019847954,-0.004372336353426309,0.009775987561116466
1668678436.5071082,46202,1668678436,506977909,,-0.08973324332992666,-0.6130752531072794,0.06405818886240745,0.9955579649359578,0.09353957020894373,-0.004372336910421249,0.00977598729756466
1668678436.5150623,46203,1668678436,514926328,,-0.08960027774546546,-0.6130942490336082,0.06410255424419249,0.9955579649343812,0.09353957021955828,-0.004372337495150594,0.009775987095035282
1668678436.5228052,46204,1668678436,522690594,,-0.08946336383285974,-0.6131167254135557,0.06415217852234154,0.9955579649320173,0.09353957023031548,-0.0043723381095490624,0.00977598695804816
1668678436.5314665,46205,1668678436,531349409,,-0.08932228214030494,-0.6131427081834748,0.06420689421102194,0.9955579649288365,0.09353957024121044,-0.004372338754685039,0.009775986889181259
1668678436.539433,46206,1668678436,539064326,,-0.0891770369335411,-0.6131720515462099,0.06426637415276772,0.9955579649248432,0.09353957025224079,-0.004372339430338469,0.009775986888127683
1668678436.547289,46207,1668678436,547126451,,-0.08902729846778247,-0.6132046774116436,0.06432996541940421,0.9955579649200136,0.09353957026340178,-0.004372340137351796,0.009775986956953382
1668678436.5554838,46208,1668678436,555380992,,-0.08887281628260117,-0.6132403584656435,0.06439669439592731,0.9955579649143259,0.09353957027468916,-0.004372340876501097,0.009775987097574353
1668678436.5633833,46209,1668678436,563024753,,-0.08871437567436109,-0.613278071650275,0.06446524628588374,0.9955579649078288,0.09353957028610387,-0.0043723416458843565,0.00977598730590898
1668678436.571199,46210,1668678436,571056173,,-0.08855288405127515,-0.6133168375730254,0.06453458757736362,0.9955579649006322,0.09353957029765281,-0.004372342441220853,0.009775987572550878
1668678436.579223,46211,1668678436,579118355,,-0.08838933815309875,-0.6133557328257685,0.06460389003121048,0.9955579648928088,0.09353957030933893,-0.004372343259699299,0.009775987891386685
1668678436.5871704,46212,1668678436,587046395,,-0.0882250958673367,-0.6133935024650472,0.06467205814103255,0.9955579648845091,0.09353957032117152,-0.004372344095498705,0.009775988249566677
1668678436.595483,46213,1668678436,595377427,,-0.08806080926670241,-0.6134292279171013,0.06473796074937063,0.9955579648758146,0.09353957033315417,-0.004372344945453493,0.00977598864019149
1668678436.6027074,46214,1668678436,602606440,,-0.08789676030390264,-0.6134621920306087,0.06480041708000964,0.9955579648667734,0.09353957034528776,-0.004372345807666357,0.009775989059203512
1668678436.6111655,46215,1668678436,611061784,,-0.08773297294544899,-0.6134922682556483,0.06485910005749157,0.9955579648573991,0.09353957035756987,-0.004372346681552019,0.009775989505482462
1668678436.619258,46216,1668678436,619125281,,-0.08756940784240311,-0.6135194773170402,0.06491394020435964,0.9955579648476887,0.09353957036999741,-0.00437234756717486,0.009775989979362193
1668678436.6274617,46217,1668678436,627298428,,-0.08740605981359194,-0.6135437657337779,0.06496456565520262,0.9955579648376475,0.09353957038256754,-0.004372348464264815,0.00977599048042481
1668678436.635068,46218,1668678436,634972714,,-0.08724287390460392,-0.6135651965556262,0.06501072724482797,0.9955579648272739,0.09353957039527698,-0.004372349372825418,0.009775991008863866
1668678436.6430912,46219,1668678436,642940170,,-0.08707977147953427,-0.6135838898486772,0.06505209563151791,0.9955579648165633,0.0935395704081222,-0.004372350292985891,0.009775991565151992
1668678436.6512787,46220,1668678436,651168211,,-0.08691665882987673,-0.61360000301953,0.06508854387225638,0.995557964805509,0.09353957042109942,-0.004372351224940992,0.009775992149906777
1668678436.6595237,46221,1668678436,659419496,,-0.08675344219080482,-0.6136136963903012,0.0651201644992903,0.9955579647941037,0.0935395704342051,-0.004372352168903773,0.009775992763783643
1668678436.66718,46222,1668678436,667073948,,-0.08659003519633883,-0.613625116288042,0.06514693352874902,0.9955579647823422,0.09353957044743583,-0.0043723531250332345,0.009775993407315253
1668678436.675052,46223,1668678436,674948075,,-0.08642635208845219,-0.6136344103010994,0.06516900001991682,0.9955579647702189,0.09353957046078808,-0.00437235409348292,0.009775994081020156
1668678436.682827,46224,1668678436,682723772,,-0.08626230957335083,-0.6136417229732473,0.06518659601279307,0.9955579647577286,0.09353957047425833,-0.00437235507439249,0.009775994785382582
1668678436.691472,46225,1668678436,691315467,,-0.08609782731044521,-0.6136471945940379,0.06520000683654315,0.9955579647448669,0.09353957048784353,-0.004372356067884684,0.009775995520847605
1668678436.6996186,46226,1668678436,699103915,,-0.08593282891060046,-0.6136509588231943,0.0652095191739723,0.9955579647316298,0.09353957050153999,-0.004372357074063686,0.009775996287815895
1668678436.7075846,46227,1668678436,707369524,,-0.08576724234389708,-0.6136531416621711,0.06521539543787241,0.9955579647180134,0.09353957051534491,-0.004372358093010997,0.009775997086635986
1668678436.7151513,46228,1668678436,715022631,,-0.08560099924014263,-0.6136538629429109,0.06521789713456358,0.9955579647040153,0.09353957052925486,-0.004372359124791311,0.009775997917615487
1668678436.7230844,46229,1668678436,722987592,,-0.08543403487200402,-0.6136532362697762,0.0652172784581085,0.9955579646896323,0.09353957054326657,-0.004372360169452176,0.009775998781022107
1668678436.7310774,46230,1668678436,730950923,,-0.08526628803728198,-0.6136513691944451,0.06521378459051935,0.9955579646748628,0.0935395705573773,-0.0043723612270257775,0.009775999677087185
1668678436.7391863,46231,1668678436,739056232,,-0.08509770098755956,-0.6136483632912039,0.06520771027265826,0.9955579646597049,0.09353957057158355,-0.004372362297529389,0.009776000606005879
1668678436.7470818,46232,1668678436,746911289,,-0.08492821931630708,-0.6136443143281199,0.06519936414389656,0.9955579646441574,0.09353957058588282,-0.004372363380966069,0.009776001567940153
1668678436.7555435,46233,1668678436,755389001,,-0.08475779177426869,-0.6136393126521276,0.06518991897837632,0.9955579646282189,0.09353957060027178,-0.004372364477325952,0.0097760025630205
1668678436.7631488,46234,1668678436,763025854,,-0.08458637012597396,-0.6136335110170048,0.06518119954978263,0.9955579646118883,0.09353957061474781,-0.004372365586627561,0.009776003591438851
1668678436.7713587,46235,1668678436,771248225,,-0.08441390898252425,-0.6136270516697678,0.06517394032629042,0.9955579645951628,0.09353957062930804,-0.004372366708914873,0.009776004653442593
1668678436.7791202,46236,1668678436,779018966,,-0.08424036571346437,-0.6136200351387944,0.06516845008536826,0.9955579645780424,0.09353957064394909,-0.0043723678441563284,0.009776005749106862
1668678436.787772,46237,1668678436,787669177,,-0.08406570024340558,-0.6136128115823293,0.06516563591958774,0.9955579645605221,0.09353957065866832,-0.004372368992485711,0.009776006878875514
1668678436.7959006,46238,1668678436,795707743,,-0.08388987491586905,-0.6136058038585986,0.06516624943599021,0.995557964542593,0.09353957067346229,-0.0043723701542071995,0.009776008043571972
1668678436.8028884,46239,1668678436,802778339,,-0.08371285453676405,-0.613599190788959,0.06517086975654668,0.9955579645242524,0.09353957068832766,-0.004372371329388198,0.00977600924348628
1668678436.8110926,46240,1668678436,810982168,,-0.08353460622711292,-0.6135930004618104,0.06517969105366506,0.9955579645055013,0.09353957070326233,-0.004372372517939352,0.009776010478554977
1668678436.8193684,46241,1668678436,819277271,,-0.08335509928176414,-0.6135871798647463,0.06519280339011747,0.9955579644863433,0.09353957071826366,-0.004372373719685956,0.009776011748521888
1668678436.8270137,46242,1668678436,826908393,,-0.08317430504284135,-0.6135816629165308,0.06521051362228049,0.9955579644667827,0.09353957073332907,-0.004372374934421389,0.009776013053056766
1668678436.8352258,46243,1668678436,835109685,,-0.08299219683546417,-0.6135761874077152,0.06523281947544017,0.9955579644468272,0.09353957074845683,-0.004372376161821433,0.00977601439156423
1668678436.8428917,46244,1668678436,842804646,,-0.08280874990107294,-0.6135704052872467,0.0652595483977574,0.9955579644264891,0.09353957076364473,-0.004372377401367185,0.009776015763010872
1668678436.851832,46245,1668678436,851620674,,-0.08262394112339252,-0.6135642291263796,0.06529036920889587,0.9955579644057749,0.09353957077889055,-0.004372378652779065,0.00977601716689884
1668678436.8596861,46246,1668678436,859395467,,-0.08243774899484425,-0.6135576371269819,0.06532493531958428,0.9955579643846878,0.09353957079419191,-0.0043723799158989374,0.009776018602999197
1668678436.8671868,46247,1668678436,867065068,,-0.08225015360528186,-0.6135505852932318,0.06536297103866483,0.9955579643632324,0.09353957080954665,-0.0043723811905078385,0.009776020070946032
1668678436.874909,46248,1668678436,874804320,,-0.08206113650913315,-0.6135430859912024,0.06540420505578366,0.9955579643414121,0.09353957082495229,-0.004372382476448512,0.009776021570508968
1668678436.8828123,46249,1668678436,882686678,,-0.0818706806635169,-0.6135351833621951,0.06544838995751605,0.9955579643192292,0.09353957084040629,-0.0043723837735887994,0.009776023101512462
1668678436.8911226,46250,1668678436,891011189,,-0.0816787703571693,-0.613526931971252,0.06549526511734272,0.9955579642966861,0.0935395708559064,-0.004372385081814262,0.00977602466381802
1668678436.8993502,46251,1668678436,899192176,,-0.08148539113869864,-0.6135184326394404,0.0655445580690256,0.995557964273784,0.09353957087145004,-0.004372386401032301,0.009776026257334713
1668678436.9073424,46252,1668678436,907200982,,-0.08129052973392796,-0.613509809141234,0.06559603025043859,0.9955579642505233,0.09353957088703488,-0.0043723877312008665,0.009776027882082166
1668678436.9153607,46253,1668678436,915250256,,-0.08109417393397331,-0.6135014383359869,0.06564968065412773,0.9955579642269003,0.09353957090265813,-0.004372389072425463,0.009776029538408946
1668678436.9227962,46254,1668678436,922697770,,-0.08089630202026375,-0.6134939445396657,0.06570569919328938,0.9955579642029013,0.09353957091831659,-0.004372390425193749,0.009776031227516961
1668678436.9313738,46255,1668678436,931163117,,-0.08069689427050845,-0.6134875814111873,0.06576400053652486,0.9955579641785196,0.09353957093400729,-0.004372391789742667,0.009776032950043903
1668678436.9391658,46256,1668678436,939026942,,-0.08049593794565044,-0.6134824350699396,0.06582440174092645,0.9955579641537576,0.09353957094972827,-0.004372393165936771,0.009776034705789543
1668678436.9476266,46257,1668678436,947516044,,-0.08029342668431821,-0.6134786982203213,0.06588692593459582,0.9955579641286133,0.09353957096547694,-0.004372394553825653,0.00977603649496664
1668678436.9552238,46258,1668678436,955096625,,-0.08008936314120742,-0.6134764438711603,0.06595158141418764,0.995557964103089,0.09353957098125126,-0.004372395953295078,0.009776038317418
1668678436.9628944,46259,1668678436,962782614,,-0.07988362399436226,-0.613475739901032,0.06601808091187727,0.9955579640771807,0.09353957099704859,-0.004372397364473418,0.009776040173527838
1668678436.9710457,46260,1668678436,970953081,,-0.07967609330563111,-0.6134765845529132,0.0660860525888856,0.9955579640508774,0.09353957101286597,-0.004372398787743959,0.009776042064249976
1668678436.9792993,46261,1668678436,979201522,,-0.07946678797411685,-0.6134789765952307,0.06615515216958127,0.9955579640241861,0.09353957102870195,-0.0043724002228182355,0.0097760439890284
1668678436.9870298,46262,1668678436,986937049,,-0.07925572549393936,-0.6134829768564399,0.06622501074930795,0.9955579639971104,0.0935395710445541,-0.004372401669535483,0.009776045947592397
1668678436.9952664,46263,1668678436,995088034,,-0.07904288199208209,-0.6134885107025713,0.06629539882916584,0.9955579639696549,0.0935395710604208,-0.00437240312768817,0.009776047939563746
1668678437.0027492,46264,1668678437,2641193,,-0.0788282290057663,-0.6134954415015696,0.06636614825767875,0.9955579639418247,0.09353957107630012,-0.004372404597074454,0.009776049964575623
1668678437.0117517,46265,1668678437,11431838,,-0.07861177968304985,-0.613503645394578,0.06643708554401372,0.9955579639136284,0.0935395710921904,-0.004372406077326567,0.00977605202188633
1668678437.0192184,46266,1668678437,19056760,,-0.07839355006138907,-0.6135130059277333,0.06650805309739415,0.9955579638850757,0.09353957110809012,-0.004372407568059687,0.009776054110715299
1668678437.0272925,46267,1668678437,27108690,,-0.07817352270110144,-0.613523426049084,0.06657876842836279,0.9955579638561733,0.09353957112399736,-0.004372409068992706,0.009776056230512338
1668678437.0351772,46268,1668678437,35070460,,-0.07795166749613087,-0.6135348204885466,0.06664890202503115,0.9955579638269251,0.09353957113991007,-0.004372410579968493,0.009776058381002676
1668678437.0431168,46269,1668678437,42973912,,-0.07772804984782034,-0.613546994071885,0.0667180378311385,0.995557963797344,0.09353957115582755,-0.004372412100462377,0.009776060561086947
1668678437.0512192,46270,1668678437,51086324,,-0.07750274828967253,-0.6135597590677283,0.06678586725317968,0.9955579637674513,0.09353957117174817,-0.0043724136296435755,0.009776062768977524
1668678437.0594997,46271,1668678437,59311674,,-0.07727585332607084,-0.6135729495556953,0.06685212101739318,0.9955579637372625,0.0935395711876709,-0.00437241516690729,0.009776065003392717
1668678437.0676668,46272,1668678437,67569819,,-0.07704748948846234,-0.6135863623825054,0.06691642788209448,0.9955579637068029,0.09353957120359475,-0.004372416711263031,0.009776067262185733
1668678437.0754163,46273,1668678437,75248686,,-0.07681771610234141,-0.6135998328474371,0.06697841092128981,0.9955579636760894,0.09353957121951827,-0.004372418262059594,0.009776069543969538
1668678437.082815,46274,1668678437,82712056,,-0.07658655844211959,-0.6136133126924774,0.06703782988239287,0.9955579636451326,0.09353957123544047,-0.004372419818867267,0.00977607184785315
1668678437.0912294,46275,1668678437,91117372,,-0.07635401809914563,-0.6136268285381992,0.06709474612439482,0.9955579636139366,0.09353957125135924,-0.0043724213815116795,0.009776074173516036
1668678437.099227,46276,1668678437,99120711,,-0.07612009116731973,-0.6136403790350231,0.06714923272061793,0.995557963582506,0.09353957126727282,-0.0043724229497967265,0.009776076520587275
1668678437.1078334,46277,1668678437,107634178,,-0.07588477714585447,-0.6136541496640624,0.06720129894656475,0.9955579635508418,0.0935395712831789,-0.004372424523676571,0.009776078889031604
1668678437.1151981,46278,1668678437,115090794,,-0.07564807113755846,-0.6136683813751593,0.06725093734745631,0.9955579635189394,0.09353957129907571,-0.004372426103299793,0.00977608127924593
1668678437.1229389,46279,1668678437,122809116,,-0.07540996636791576,-0.6136833028991309,0.06729820851780913,0.9955579634867967,0.09353957131496109,-0.004372427688733911,0.009776083691444053
1668678437.1312137,46280,1668678437,131115997,,-0.07517045493349375,-0.6136990247761703,0.06734320612371711,0.9955579634544118,0.09353957133083347,-0.004372429280030022,0.009776086125799943
1668678437.1398413,46281,1668678437,139710683,,-0.07492952925127636,-0.613715637467186,0.06738606791792288,0.995557963421788,0.093539571346691,-0.004372430877055728,0.009776088582073999
1668678437.1474628,46282,1668678437,147262230,,-0.07468718253675986,-0.613733320044206,0.06742694986619016,0.9955579633889223,0.0935395713625317,-0.004372432479905029,0.009776091060531773
1668678437.1551743,46283,1668678437,155012612,,-0.07444340835233,-0.6137521411617214,0.06746596622735758,0.9955579633558165,0.0935395713783538,-0.004372434088499051,0.009776093561049536
1668678437.1629455,46284,1668678437,162850597,,-0.07419820070651593,-0.6137721112603931,0.06750311769428202,0.9955579633224738,0.0935395713941557,-0.00437243570270074,0.009776096083370336
1668678437.17197,46285,1668678437,171778281,,-0.073951554109903,-0.6137931471148338,0.06753839497435563,0.9955579632889008,0.09353957140993602,-0.0043724373222534165,0.009776098626967412
1668678437.1797233,46286,1668678437,179523405,,-0.07370346361514743,-0.6138151475002608,0.06757183270436458,0.9955579632551054,0.09353957142569339,-0.004372438946843708,0.009776101191185093
1668678437.1872015,46287,1668678437,187086570,,-0.07345392481818724,-0.6138380016225701,0.06760318728754487,0.9955579632210947,0.09353957144142643,-0.004372440576171898,0.009776103775397114
1668678437.1952505,46288,1668678437,195151172,,-0.0732029338121126,-0.6138615733837642,0.06763213447780757,0.9955579631868787,0.09353957145713386,-0.004372442209881876,0.009776106378848811
1668678437.2027917,46289,1668678437,202678127,,-0.07295048715239989,-0.6138856715418053,0.06765850668521001,0.9955579631524669,0.0935395714728142,-0.0043724438475786515,0.009776109000696817
1668678437.2112706,46290,1668678437,211164185,,-0.07269658183895263,-0.6139101268048369,0.06768230249288888,0.9955579631178707,0.09353957148846634,-0.004372445488825325,0.009776111640003015
1668678437.2195308,46291,1668678437,219440740,,-0.07244121524657679,-0.6139347658731356,0.06770362714787928,0.9955579630830995,0.09353957150408901,-0.004372447133257632,0.009776114295990927
1668678437.2270346,46292,1668678437,226910338,,-0.07218438520125996,-0.6139593773486085,0.06772255539667302,0.9955579630481657,0.09353957151968086,-0.004372448780394188,0.009776116967620119
1668678437.2352614,46293,1668678437,235127648,,-0.07192608985046871,-0.613983808600186,0.0677388669329392,0.9955579630130791,0.09353957153524074,-0.004372450429853223,0.00977611965407198
