Time,header.seq,header.stamp.secs,header.stamp.nsecs,header.frame_id,wrench.force.x,wrench.force.y,wrench.force.z,wrench.torque.x,wrench.torque.y,wrench.torque.z
1668678434.722984,45979,1668678434,722761824,,-9.91938119246528e-146,-1.861593373076165e-157,5e-324,0.0,-5e-324,0.0
1668678434.731223,45980,1668678434,730923053,,-5.248124460681726e-146,-9.849277417128778e-158,5e-324,0.0,-5e-324,0.0
1668678434.7415183,45981,1668678434,741079389,,-2.776666187173778e-146,-5.211034108875395e-158,5e-324,0.0,-5e-324,0.0
1668678434.7478082,45982,1668678434,747550487,,-1.4690724606010317e-146,-2.7570425051322053e-158,5e-324,0.0,-5e-324,0.0
1668678434.755124,45983,1668678434,754926140,,-7.772536376412828e-147,-1.4586900059163335e-158,5e-324,0.0,-5e-324,0.0
1668678434.7628648,45984,1668678434,762689864,,-7.772536376412828e-147,-1.4586900059163335e-158,5e-324,0.0,-5e-324,0.0
1668678434.771144,45985,1668678434,770905917,,-4.1122765107137445e-147,-7.717605112722636e-159,5e-324,0.0,-5e-324,0.0
1668678434.7791753,45986,1668678434,778985502,,-2.175714243279318e-147,-4.0832135981151606e-159,5e-324,0.0,-5e-324,0.0
1668678434.787302,45987,1668678434,787105127,,-1.1511221232511159e-147,-2.1603377011797826e-159,5e-324,0.0,-5e-324,0.0
1668678434.7953565,45988,1668678434,795128692,,-6.090331700182023e-148,-1.142986736058357e-159,5e-324,0.0,-5e-324,0.0
1668678434.803111,45989,1668678434,802810306,,-6.090331700182023e-148,-1.142986736058357e-159,5e-324,0.0,-5e-324,0.0
1668678434.8113344,45990,1668678434,811093727,,-3.222259347555815e-148,-6.04728917192848e-160,5e-324,0.0,-5e-324,0.0
1668678434.819201,45991,1668678434,819019384,,-1.7048259132750534e-148,-3.199486501045128e-160,5e-324,0.0,-5e-324,0.0
1668678434.827104,45992,1668678434,826894441,,-9.019855576736054e-149,-1.6927773055551617e-160,5e-324,0.0,-5e-324,0.0
1668678434.8353353,45993,1668678434,835149866,,-4.772205419431021e-149,-8.956109067084874e-161,5e-324,0.0,-5e-324,0.0
1668678434.8431282,45994,1668678434,842870485,,-4.772205419431021e-149,-8.956109067084874e-161,5e-324,0.0,-5e-324,0.0
1668678434.851271,45995,1668678434,851054272,,-2.524867983915973e-149,-4.738478555820057e-161,5e-324,0.0,-5e-324,0.0
1668678434.8592758,45996,1668678434,859087607,,-1.3358516190956387e-149,-2.5070238488369395e-161,5e-324,0.0,-5e-324,0.0
1668678434.867567,45997,1668678434,867355169,,-7.067694468020261e-150,-1.32641068321759e-161,5e-324,0.0,-5e-324,0.0
1668678434.8753,45998,1668678434,875087769,,-3.739360298646157e-150,-7.017744571396719e-162,5e-324,0.0,-5e-324,0.0
1668678434.8829417,45999,1668678434,882738237,,-3.739360298646157e-150,-7.017744571396719e-162,5e-324,0.0,-5e-324,0.0
1668678434.8916948,46000,1668678434,891242825,,-1.978412551131093e-150,-3.712932916817374e-162,5e-324,0.0,-5e-324,0.0
1668678434.899321,46001,1668678434,899148466,,-1.0467341764018174e-150,-1.9644304098748659e-162,5e-324,0.0,-5e-324,0.0
1668678434.9073298,46002,1668678434,907094512,,-5.5380382388960655e-151,-1.039336535751083e-162,5e-324,0.0,-5e-324,0.0
1668678434.915255,46003,1668678434,915052471,,-2.930053133538039e-151,-5.498898963877637e-163,5e-324,0.0,-5e-324,0.0
1668678434.9228005,46004,1668678434,922587860,,-2.930053133538039e-151,-5.498898963877637e-163,5e-324,0.0,-5e-324,0.0
1668678434.9312625,46005,1668678434,931049289,,-1.5502260900003155e-151,-2.909345411694101e-163,5e-324,0.0,-5e-324,0.0
1668678434.9393704,46006,1668678434,939126915,,-8.20190222016828e-152,-1.539270093912907e-163,5e-324,0.0,-5e-324,0.0
1668678434.9471776,46007,1668678434,946899082,,-4.339444450272905e-152,-8.143936476195119e-164,5e-324,0.0,-5e-324,0.0
1668678434.9551094,46008,1668678434,954900695,,-2.295903758849976e-152,-4.308776061496977e-164,5e-324,0.0,-5e-324,0.0
1668678434.9638994,46009,1668678434,963327427,,-2.295903758849976e-152,-4.308776061496977e-164,5e-324,0.0,-5e-324,0.0
1668678434.9712574,46010,1668678434,971018837,,-1.2147117287260005e-152,-2.2796777949333056e-164,5e-324,0.0,-5e-324,0.0
1668678434.9791775,46011,1668678434,978959555,,-6.426770191114642e-153,-1.2061269312999371e-164,5e-324,0.0,-5e-324,0.0
1668678434.987368,46012,1668678434,987097344,,-3.4002614869553493e-153,-6.381349933048601e-165,5e-324,0.0,-5e-324,0.0
1668678434.9957783,46013,1668678434,995550133,,-1.7990028950555269e-153,-3.3762306363668133e-165,5e-324,0.0,-5e-324,0.0
1668678435.0030024,46014,1668678435,2775818,,-1.7990028950555269e-153,-3.3762306363668133e-165,5e-324,0.0,-5e-324,0.0
1668678435.0111942,46015,1668678435,10968825,,-9.518125087832887e-154,-1.786288705295335e-165,5e-324,0.0,-5e-324,0.0
1668678435.019198,46016,1668678435,19010389,,-5.03582876028877e-154,-9.450857131310663e-166,5e-324,0.0,-5e-324,0.0
1668678435.0278897,46017,1668678435,27623197,,-2.664345243305209e-154,-5.000238777285342e-166,5e-324,0.0,-5e-324,0.0
1668678435.035412,46018,1668678435,35227390,,-1.409645941796486e-154,-2.6455153731014694e-166,5e-324,0.0,-5e-324,0.0
1668678435.0434172,46019,1668678435,43201815,,-1.409645941796486e-154,-2.6455153731014694e-166,5e-324,0.0,-5e-324,0.0
1668678435.0515385,46020,1668678435,51355567,,-7.458123853191924e-155,-1.3996834753391254e-166,5e-324,0.0,-5e-324,0.0
1668678435.0598288,46021,1668678435,59553006,,-3.9459278220361e-155,-7.405414654009912e-167,5e-324,0.0,-5e-324,0.0
1668678435.0672328,46022,1668678435,67058566,,-2.0877028436655382e-155,-3.918040554457334e-167,5e-324,0.0,-5e-324,0.0
1668678435.07522,46023,1668678435,75029786,,-1.1045572448408814e-155,-2.0729483092563885e-167,5e-324,0.0,-5e-324,0.0
1668678435.0831356,46024,1668678435,82896876,,-1.1045572448408814e-155,-2.0729483092563885e-167,5e-324,0.0,-5e-324,0.0
1668678435.091468,46025,1668678435,91252418,,-5.843967262066619e-156,-1.0967509481136776e-167,5e-324,0.0,-5e-324,0.0
1668678435.099321,46026,1668678435,99056854,,-3.0919133906026045e-156,-5.802665878435453e-168,5e-324,0.0,-5e-324,0.0
1668678435.107264,46027,1668678435,107045994,,-1.6358627600536882e-156,-3.070061745072602e-168,5e-324,0.0,-5e-324,0.0
1668678435.115346,46028,1668678435,115143995,,-8.654986837160135e-157,-1.6243015393296312e-168,5e-324,0.0,-5e-324,0.0
1668678435.1231334,46029,1668678435,122919861,,-8.654986837160135e-157,-1.6243015393296312e-168,5e-324,0.0,-5e-324,0.0
1668678435.1313562,46030,1668678435,131146805,,-4.579161466390783e-157,-8.593818983944299e-169,5e-324,0.0,-5e-324,0.0
1668678435.1394186,46031,1668678435,139222378,,-2.4227327123421044e-157,-4.5467989126749055e-169,5e-324,0.0,-5e-324,0.0
1668678435.1471674,46032,1668678435,146974950,,-1.2818141134645062e-157,-2.405610403352161e-169,5e-324,0.0,-5e-324,0.0
1668678435.1556904,46033,1668678435,155462325,,-6.7817940175845116e-158,-1.2727550797516241e-169,5e-324,0.0,-5e-324,0.0
1668678435.162995,46034,1668678435,162755455,,-6.7817940175845116e-158,-1.2727550797516241e-169,5e-324,0.0,-5e-324,0.0
1668678435.171466,46035,1668678435,171270424,,-3.5880967149468527e-158,-6.73386468056616e-170,5e-324,0.0,-5e-324,0.0
1668678435.1793668,46036,1668678435,179124271,,-1.8983823457967418e-158,-3.562738366365457e-170,5e-324,0.0,-5e-324,0.0
1668678435.1874213,46037,1668678435,187222888,,-1.0043919707683022e-158,-1.8849658063080077e-170,5e-324,0.0,-5e-324,0.0
1668678435.195518,46038,1668678435,195071051,,-5.314015025358046e-159,-9.972935774610653e-171,5e-324,0.0,-5e-324,0.0
1668678435.2033005,46039,1668678435,203037692,,-5.314015025358046e-159,-9.972935774610653e-171,5e-324,0.0,-5e-324,0.0
1668678435.2116742,46040,1668678435,211340754,,-2.811527422718249e-159,-5.276459001625893e-171,5e-324,0.0,-5e-324,0.0
1668678435.2193286,46041,1668678435,219135303,,-1.4875167666964056e-159,-2.79165736399479e-171,5e-324,0.0,-5e-324,0.0
1668678435.2273726,46042,1668678435,227145101,,-7.870121106852425e-160,-1.477003959576847e-171,5e-324,0.0,-5e-324,0.0
1668678435.2353776,46043,1668678435,235102741,,-4.163906426015124e-160,-7.81450017735685e-172,5e-324,0.0,-5e-324,0.0
1668678435.242836,46044,1668678435,242663294,,-4.163906426015124e-160,-7.81450017735685e-172,5e-324,0.0,-5e-324,0.0
1668678435.25159,46045,1668678435,251389674,,-2.203030485708021e-160,-4.1344786265437913e-172,5e-324,0.0,-5e-324,0.0
1668678435.2593184,46046,1668678435,259117606,,-1.165574540925404e-160,-2.1874608900615857e-172,5e-324,0.0,-5e-324,0.0
1668678435.2671807,46047,1668678435,266954390,,-6.166796234854845e-161,-1.1573370133851732e-172,5e-324,0.0,-5e-324,0.0
1668678435.275249,46048,1668678435,275034547,,-3.262715035970724e-161,-6.123213304689541e-173,5e-324,0.0,-5e-324,0.0
1668678435.2832525,46049,1668678435,283040805,,-3.262715035970724e-161,-6.123213304689541e-173,5e-324,0.0,-5e-324,0.0
1668678435.2916334,46050,1668678435,291385980,,-1.7262301202335757e-161,-3.239656274800979e-173,5e-324,0.0,-5e-324,0.0
1668678435.2993429,46051,1668678435,299132458,,-9.133100485789294e-162,-1.714030241412518e-173,5e-324,0.0,-5e-324,0.0
1668678435.3073192,46052,1668678435,307070818,,-4.832120787710389e-162,-9.068553634311523e-174,5e-324,0.0,-5e-324,0.0
1668678435.3154867,46053,1668678435,315310256,,-2.556567875646775e-162,-4.797970480999947e-174,5e-324,0.0,-5e-324,0.0
1668678435.3233745,46054,1668678435,323160358,,-2.556567875646775e-162,-4.797970480999947e-174,5e-324,0.0,-5e-324,0.0
1668678435.3313386,46055,1668678435,331146049,,-1.3526233283348958e-162,-2.5384997062207438e-174,5e-324,0.0,-5e-324,0.0
1668678435.339422,46056,1668678435,339207381,,-7.15642985967236e-163,-1.343063860855561e-174,5e-324,0.0,-5e-324,0.0
1668678435.3477542,46057,1668678435,347507582,,-3.786308225177229e-163,-7.105852838650628e-175,5e-324,0.0,-5e-324,0.0
1668678435.354988,46058,1668678435,354771883,,-2.003251657202867e-163,-3.75954904574634e-175,5e-324,0.0,-5e-324,0.0
1668678435.3629365,46059,1668678435,362736194,,-2.003251657202867e-163,-3.75954904574634e-175,5e-324,0.0,-5e-324,0.0
1668678435.3711395,46060,1668678435,370941141,,-1.0598759962016015e-163,-1.9890939691985295e-175,5e-324,0.0,-5e-324,0.0
1668678435.379338,46061,1668678435,379155583,,-5.607568691059259e-164,-1.0523854776621282e-175,5e-324,0.0,-5e-324,0.0
1668678435.3872435,46062,1668678435,386942104,,-2.9668401527764063e-164,-5.567938019742725e-176,5e-324,0.0,-5e-324,0.0
1668678435.3953676,46063,1668678435,395158192,,-1.569689285511654e-164,-2.9458724440560754e-176,5e-324,0.0,-5e-324,0.0
1668678435.4029365,46064,1668678435,402721522,,-1.569689285511654e-164,-2.9458724440560754e-176,5e-324,0.0,-5e-324,0.0
1668678435.4114933,46065,1668678435,411264590,,-8.304877668398534e-165,-1.558595736137505e-176,5e-324,0.0,-5e-324,0.0
1668678435.4192653,46066,1668678435,419066618,,-4.393926474727956e-165,-8.246184160510687e-177,5e-324,0.0,-5e-324,0.0
1668678435.4272387,46067,1668678435,427029268,,-2.324728988938644e-165,-4.362873042215109e-177,5e-324,0.0,-5e-324,0.0
1668678435.4351609,46068,1668678435,434994902,,-1.229962518284126e-165,-2.3082993069255567e-177,5e-324,0.0,-5e-324,0.0
1668678435.4432316,46069,1668678435,442932587,,-1.229962518284126e-165,-2.3082993069255567e-177,5e-324,0.0,-5e-324,0.0
1668678435.4513083,46070,1668678435,451075675,,-6.507458734252298e-166,-1.221269938134106e-177,5e-324,0.0,-5e-324,0.0
1668678435.459344,46071,1668678435,459132846,,-3.442952004510937e-166,-6.461468221712655e-178,5e-324,0.0,-5e-324,0.0
1668678435.4673798,46072,1668678435,467125746,,-1.8215895005176523e-166,-3.418619444935353e-178,5e-324,0.0,-5e-324,0.0
1668678435.4759326,46073,1668678435,475698473,,-9.637625804973982e-167,-1.8087156832278584e-178,5e-324,0.0,-5e-324,0.0
1668678435.4832633,46074,1668678435,482923371,,-9.637625804973982e-167,-1.8087156832278584e-178,5e-324,0.0,-5e-324,0.0
1668678435.4920456,46075,1668678435,491764128,,-5.0990539378002026e-167,-9.569513294616748e-179,5e-324,0.0,-5e-324,0.0
1668678435.4991248,46076,1668678435,498934175,,-2.697796281650296e-167,-5.063017120104784e-179,5e-324,0.0,-5e-324,0.0
1668678435.5076869,46077,1668678435,507200881,,-1.4273441438483846e-167,-2.6787300011270602e-179,5e-324,0.0,-5e-324,0.0
1668678435.5153115,46078,1668678435,515099346,,-7.5517611127109045e-168,-1.4172565979373332e-179,5e-324,0.0,-5e-324,0.0
1668678435.5228438,46079,1668678435,522636980,,-7.5517611127109045e-168,-1.4172565979373332e-179,5e-324,0.0,-5e-324,0.0
1668678435.5311217,46080,1668678435,530944510,,-3.9954692180745996e-168,-7.498390145896712e-180,5e-324,0.0,-5e-324,0.0
1668678435.5396292,46081,1668678435,539400599,,-2.1139140969001113e-168,-3.967231823927416e-180,5e-324,0.0,-5e-324,0.0
1668678435.5472798,46082,1668678435,547082280,,-1.11842503725418e-168,-2.098974318293527e-180,5e-324,0.0,-5e-324,0.0
1668678435.5555196,46083,1668678435,555270608,,-5.917338674222017e-169,-1.1105207319330031e-180,5e-324,0.0,-5e-324,0.0
1668678435.5631502,46084,1668678435,562899086,,-5.917338674222017e-169,-1.1105207319330031e-180,5e-324,0.0,-5e-324,0.0
1668678435.5715945,46085,1668678435,571378329,,-3.1307325765352913e-169,-5.875518748869945e-181,5e-324,0.0,-5e-324,0.0
1668678435.5795314,46086,1668678435,579319709,,-1.656401129865692e-169,-3.108606582088097e-181,5e-324,0.0,-5e-324,0.0
1668678435.5871775,46087,1668678435,586995659,,-8.763650794015406e-170,-1.644694757217826e-181,5e-324,0.0,-5e-324,0.0
1668678435.595189,46088,1668678435,594992184,,-4.6366531545214696e-170,-8.701714974182424e-182,5e-324,0.0,-5e-324,0.0
1668678435.6031847,46089,1668678435,602959566,,-4.6366531545214696e-170,-8.701714974182424e-182,5e-324,0.0,-5e-324,0.0
1668678435.6112182,46090,1668678435,611026013,,-2.4531502886919003e-170,-4.60388428671097e-182,5e-324,0.0,-5e-324,0.0
1668678435.6193228,46091,1668678435,619118114,,-1.2979073780924727e-170,-2.435813007931306e-182,5e-324,0.0,-5e-324,0.0
1668678435.6273162,46092,1668678435,627095243,,-6.866939909356883e-171,-1.2887346075863351e-182,5e-324,0.0,-5e-324,0.0
1668678435.635559,46093,1668678435,635317930,,-3.633145516748781e-171,-6.818408816205582e-183,5e-324,0.0,-5e-324,0.0
1668678435.643132,46094,1668678435,642817088,,-3.633145516748781e-171,-6.818408816205582e-183,5e-324,0.0,-5e-324,0.0
1668678435.6517751,46095,1668678435,651541086,,-1.9222166671191936e-171,-3.607468792351453e-183,5e-324,0.0,-5e-324,0.0
1668678435.659659,46096,1668678435,659446721,,-1.0170021812551339e-171,-1.9086316820515606e-183,5e-324,0.0,-5e-324,0.0
1668678435.6677089,46097,1668678435,667525821,,-5.380732850619723e-172,-1.0098146671302007e-183,5e-324,0.0,-5e-324,0.0
1668678435.6753879,46098,1668678435,675188579,,-2.8468263434800866e-172,-5.342705308418593e-184,5e-324,0.0,-5e-324,0.0
1668678435.6829956,46099,1668678435,682733631,,-2.8468263434800866e-172,-5.342705308418593e-184,5e-324,0.0,-5e-324,0.0
1668678435.691813,46100,1668678435,691637579,,-1.5061926423272953e-172,-2.826706814798504e-184,5e-324,0.0,-5e-324,0.0
1668678435.6996508,46101,1668678435,699431461,,-7.968931020315145e-173,-1.4955478461890636e-184,5e-324,0.0,-5e-324,0.0
1668678435.7078614,46102,1668678435,707647939,,-4.216184558465104e-173,-7.912611766212418e-185,5e-324,0.0,-5e-324,0.0
1668678435.7158062,46103,1668678435,715625622,,-2.2306896854449868e-173,-4.18638729094116e-185,5e-324,0.0,-5e-324,0.0
1668678435.7232232,46104,1668678435,723048455,,-2.2306896854449868e-173,-4.18638729094116e-185,5e-324,0.0,-5e-324,0.0
1668678435.7321014,46105,1668678435,731856164,,-1.1802084097006774e-173,-2.2149246124510512e-185,5e-324,0.0,-5e-324,0.0
1668678435.7392633,46106,1668678435,739071670,,-6.244220787035838e-174,-1.1718674594338652e-185,5e-324,0.0,-5e-324,0.0
1668678435.7472463,46107,1668678435,747038742,,-3.3036786483447545e-174,-6.2000906701754864e-186,5e-324,0.0,-5e-324,0.0
1668678435.7553234,46108,1668678435,755105698,,-1.747903058487157e-174,-3.2803303828376805e-186,5e-324,0.0,-5e-324,0.0
1668678435.763226,46109,1668678435,763002217,,-1.747903058487157e-174,-3.2803303828376805e-186,5e-324,0.0,-5e-324,0.0
1668678435.771368,46110,1668678435,771150462,,-9.247767192488561e-175,-1.7355500093458212e-186,5e-324,0.0,-5e-324,0.0
1668678435.779414,46111,1668678435,779178802,,-4.892788397572116e-175,-9.182409950837346e-187,5e-324,0.0,-5e-324,0.0
1668678435.78731,46112,1668678435,787097004,,-2.58866576170526e-175,-4.858209331404866e-187,5e-324,0.0,-5e-324,0.0
1668678435.795401,46113,1668678435,795179266,,-1.3696056075407463e-175,-2.5703707451655465e-187,5e-324,0.0,-5e-324,0.0
1668678435.8033278,46114,1668678435,802848332,,-1.3696056075407463e-175,-2.5703707451655465e-187,5e-324,0.0,-5e-324,0.0
1668678435.8111513,46115,1668678435,810913187,,-7.246279330288581e-176,-1.359926120287693e-187,5e-324,0.0,-5e-324,0.0
1668678435.819283,46116,1668678435,819085686,,-3.8338455861648755e-176,-7.195067311278572e-188,0.027370565713993048,0.0,-5e-324,0.0
1668678435.8274002,46117,1668678435,827191305,,-2.028402619965043e-176,-3.8067504433900944e-188,0.04183429190333153,0.0,-5e-324,0.0
1668678435.835287,46118,1668678435,835036367,,-1.0731828124556371e-176,-2.014067181211061e-188,0.13879486598586402,0.0,-5e-324,0.0
1668678435.8428311,46119,1668678435,842610356,,-1.0731828124556371e-176,-2.014067181211061e-188,0.13879486598586402,0.0,-5e-324,0.0
1668678435.8511517,46120,1668678435,850953968,,-5.6779721028463255e-177,-1.0655982499391239e-188,0.2323848963452732,0.0,-5e-324,0.0
1668678435.85912,46121,1668678435,858950574,,-3.004089035579278e-177,-5.637843865717261e-189,0.2818881814913057,0.0,-5e-324,0.0
1668678435.8670282,46122,1668678435,866857386,,-1.5893968427854192e-177,-2.9828580758293844e-189,0.36378170919116987,0.0,-5e-324,0.0
1668678435.87533,46123,1668678435,875074354,,-8.409145980485679e-178,-1.5781640131335248e-189,0.38384997777053537,0.0,-5e-324,0.0
1668678435.8828197,46124,1668678435,882641746,,-8.409145980485679e-178,-1.5781640131335248e-189,0.38384997777053537,0.0,-5e-324,0.0
1668678435.8914948,46125,1668678435,891219566,,-4.449092524758799e-178,-8.349715571556988e-190,0.3944531006952503,0.0,-5e-324,0.0
1668678435.8993304,46126,1668678435,899062454,,-2.3539161217797503e-178,-4.417649214258352e-190,0.30975313246411895,0.0,-5e-324,0.0
1668678435.9072244,46127,1668678435,906963500,,-1.2454047825573179e-178,-2.3372801639754916e-190,0.26493712353820675,0.0,-5e-324,0.0
1668678435.9152093,46128,1668678435,914994069,,-6.589160327615812e-179,-1.2366030664638062e-190,0.14017235265035266,0.0,-5e-324,0.0
1668678435.9236064,46129,1668678435,923363512,,-6.589160327615812e-179,-1.2366030664638062e-190,0.14017235265035266,0.0,-5e-324,0.0
1668678435.9313302,46130,1668678435,931108982,,-3.486178504459686e-179,-6.542592401018312e-191,0.07416208111998067,0.0,-5e-324,0.0
1668678435.939185,46131,1668678435,938968097,,-1.844459682369622e-179,-3.4615404479199086e-191,0.03923751133553337,0.0,-5e-324,0.0
1668678435.9472415,46132,1668678435,947026347,,-9.75862686186323e-180,-1.83142423341558e-191,0.020759696499284414,0.0,-5e-324,0.0
1668678435.9554768,46133,1668678435,955084393,,-5.163072911777246e-180,-9.689659194239323e-192,0.010983494724144775,0.0,-5e-324,0.0
1668678435.9628968,46134,1668678435,962674439,,-5.163072911777246e-180,-9.689659194239323e-192,0.010983494724144775,0.0,-5e-324,0.0
1668678435.9712691,46135,1668678435,971053832,,-2.7316673000896195e-180,-5.126583649349451e-192,0.005811123315770752,0.0,-5e-324,0.0
1668678435.9792604,46136,1668678435,979060340,,-1.4452645480480578e-180,-2.7123616410990157e-192,0.0030745363874815244,0.0,-5e-324,0.0
1668678435.9872801,46137,1668678435,986997126,,-7.646573994483255e-181,-1.435050352302145e-192,0.0016266689733281255,0.0,-5e-324,0.0
1668678435.9952657,46138,1668678435,995019822,,-4.0456326097582626e-181,-7.592532951498603e-193,0.0008606344551855718,0.0,-5e-324,0.0
1668678436.0032125,46139,1668678436,3020180,,-4.0456326097582626e-181,-7.592532951498603e-193,0.0008606344551855718,0.0,-5e-324,0.0
1668678436.011937,46140,1668678436,11624378,,-2.1404544342273797e-181,-4.0170406931794404e-193,0.00045534259126927884,0.0,-5e-324,0.0
1668678436.0194967,46141,1668678436,19323399,,-1.1324669407579775e-181,-2.1253270856696825e-193,0.0002409116601997013,0.0,-5e-324,0.0
1668678436.0275266,46142,1668678436,27312096,,-5.99163126951898e-182,-1.124463396338169e-193,0.00012746101316459937,0.0,-5e-324,0.0
1668678436.035196,46143,1668678436,34992666,,-3.1700391400255306e-182,-5.949286292118922e-194,6.743679348471119e-05,0.0,-5e-324,0.0
1668678436.043457,46144,1668678436,43134021,,-3.1700391400255306e-182,-5.949286292118922e-194,6.743679348471119e-05,0.0,-5e-324,0.0
1668678436.0515313,46145,1668678436,51325519,,-1.6771973603276442e-182,-3.147635352191561e-194,3.567931089349489e-05,0.0,-5e-324,0.0
1668678436.059138,46146,1668678436,58814733,,-8.873679034345812e-183,-1.6653440133635522e-194,1.887713160803341e-05,0.0,-5e-324,0.0
1668678436.0672514,46147,1668678436,67071137,,-4.6948666547630365e-183,-8.810965606021823e-195,9.987471417559907e-06,0.0,-5e-324,0.0
1668678436.0754132,46148,1668678436,75095584,,-2.4839497598113016e-183,-4.661686371556424e-195,5.2841494877392476e-06,0.0,-5e-324,0.0
1668678436.0833623,46149,1668678436,83064067,,-2.4839497598113016e-183,-4.661686371556424e-195,5.2841494877392476e-06,0.0,-5e-324,0.0
1668678436.091585,46150,1668678436,91353887,,-1.3142026947681311e-183,-2.4663948082946446e-195,2.7957262295321573e-06,0.0,-5e-324,0.0
1668678436.0993047,46151,1668678436,99029803,,-6.953154813674744e-184,-1.3049147594954517e-195,1.4791567060374933e-06,0.0,-5e-324,0.0
1668678436.1071453,46152,1668678436,106937775,,-3.678759909365287e-184,-6.904014409300726e-196,7.825889881148398e-07,0.0,-5e-324,0.0
1668678436.115277,46153,1668678436,115078521,,-1.9463502299901985e-184,-3.6527608119216914e-196,4.140504666062642e-07,0.0,-5e-324,0.0
1668678436.122741,46154,1668678436,122545777,,-1.9463502299901985e-184,-3.6527608119216914e-196,4.140504666062642e-07,0.0,-5e-324,0.0
1668678436.1311836,46155,1668678436,130972395,,-1.0297707138046168e-184,-1.9325946844978017e-196,2.1906491338427538e-07,0.0,-5e-324,0.0
1668678436.1393082,46156,1668678436,139141726,,-5.44828832278048e-185,-1.0224929599439723e-196,1.159023842417137e-07,0.0,-5e-324,0.0
1668678436.1474025,46157,1668678436,147204626,,-2.882568444627392e-185,-5.409783342163462e-197,6.132137942761079e-08,0.0,-5e-324,0.0
1668678436.1551175,46158,1668678436,154942302,,-1.525102994865195e-185,-2.862196313875148e-197,3.244378102751451e-08,0.0,-5e-324,0.0
1668678436.1629364,46159,1668678436,162745691,,-1.525102994865195e-185,-2.862196313875148e-197,3.244378102751451e-08,0.0,-5e-324,0.0
1668678436.1712098,46160,1668678436,170979728,,-8.068981499058366e-186,-1.5143245525770546e-197,1.716528455795571e-08,0.0,-5e-324,0.0
1668678436.180294,46161,1668678436,179647468,,-4.269119046474706e-186,-8.011955152834869e-198,9.081771132215209e-09,0.0,-5e-324,0.0
1668678436.187164,46162,1668678436,186986040,,-2.2586961483428813e-186,-4.238947672201261e-198,4.804963565821612e-09,0.0,-5e-324,0.0
1668678436.1951895,46163,1668678436,194913570,,-1.1950260077080272e-186,-2.2427331437698616e-198,2.5421995922112203e-09,0.0,-5e-324,0.0
1668678436.2030215,46164,1668678436,202816206,,-1.1950260077080272e-186,-2.2427331437698616e-198,2.5421995922112203e-09,0.0,-5e-324,0.0
1668678436.2118304,46165,1668678436,211630903,,-6.322617409811048e-187,-1.186580336235166e-198,1.345021388426243e-09,0.0,-5e-324,0.0
1668678436.2196069,46166,1668678436,219374960,,-3.345156561698255e-187,-6.277933236288941e-199,7.116209682617829e-10,0.0,-5e-324,0.0
1668678436.2276146,46167,1668678436,227428769,,-1.769848101975746e-187,-3.3215151571069236e-199,3.7650286220530773e-10,0.0,-5e-324,0.0
1668678436.2352364,46168,1668678436,235032710,,-9.36387354760139e-188,-1.7573399594501936e-199,1.9919930914211338e-10,0.0,-5e-324,0.0
1668678436.2430434,46169,1668678436,242821379,,-9.36387354760139e-188,-1.7573399594501936e-199,1.9919930914211338e-10,0.0,-5e-324,0.0
1668678436.2514806,46170,1668678436,251280915,,-4.954217693461167e-188,-9.297695741272193e-200,1.053919338893564e-10,0.0,-5e-324,0.0
1668678436.2594554,46171,1668678436,259098114,,-2.6211666389376693e-188,-4.919204484732549e-200,5.5760533391278745e-11,0.0,-5e-324,0.0
1668678436.267167,46172,1668678436,266985683,,-1.3868011004336485e-188,-2.6026419272031113e-200,2.950166079449763e-11,0.0,-5e-324,0.0
1668678436.2751558,46173,1668678436,274987572,,-7.337256867207182e-189,-1.377000086550337e-200,1.560867403341098e-11,0.0,-5e-324,0.0
1668678436.2829132,46174,1668678436,282663499,,-7.337256867207182e-189,-1.377000086550337e-200,1.560867403341098e-11,0.0,-5e-324,0.0
1668678436.2913005,46175,1668678436,291077965,,-3.881979781999366e-189,-7.285401877765341e-201,8.258203047562593e-12,0.0,-5e-324,0.0
1668678436.2991025,46176,1668678436,298887035,,-2.0538693547998854e-189,-3.85454445783773e-201,0.0591435847286571,0.0,-5e-324,0.0
1668678436.3074367,46177,1668678436,307178252,,-1.086656696705791e-189,-2.0393539336233325e-201,0.09044294396409965,0.0,-5e-324,0.0
1668678436.3150542,46178,1668678436,314861098,,-5.749259434325571e-190,-1.0789769094836173e-201,0.09329275962152478,0.0,-5e-324,0.0
1668678436.3229754,46179,1668678436,322747102,,-5.749259434325571e-190,-1.0789769094836173e-201,0.09329275962152478,0.0,-5e-324,0.0
1668678436.3315501,46180,1668678436,331310797,,-3.041805580675573e-190,-5.7086273844108685e-202,0.09008757799698991,0.0,-5e-324,0.0
1668678436.3398952,46181,1668678436,339560619,,-1.609351829800398e-190,-3.020308064761277e-202,0.08840248993816381,0.0,-5e-324,0.0
1668678436.3472588,46182,1668678436,347056449,,-8.51472338842464e-191,-1.5979779711972615e-202,0.046771795621894235,0.0,-5e-324,0.0
1668678436.355315,46183,1668678436,355092724,,-4.504951188353733e-191,-8.454546826611694e-203,0.02474591911637826,0.0,-5e-324,0.0
1668678436.362724,46184,1668678436,362503440,,-4.504951188353733e-191,-8.454546826611694e-203,0.02474591911637826,0.0,-5e-324,0.0
1668678436.371379,46185,1668678436,371118181,,-2.383469701087323e-191,-4.473113104920652e-203,0.013092516649664062,0.0,-5e-324,0.0
1668678436.3792813,46186,1668678436,379070210,,-1.261040925523835e-191,-2.366624877685103e-203,0.033349101283858734,0.0,-5e-324,0.0
1668678436.387285,46187,1668678436,387076486,,-6.671887690120671e-192,-1.2521287032775314e-203,0.044047822567469835,0.0,-5e-324,0.0
1668678436.3955598,46188,1668678436,395233072,,-3.529947716097528e-192,-6.624735099991978e-204,0.16845278889989385,0.0,-5e-324,0.0
1668678436.4040272,46189,1668678436,403779457,,-3.529947716097528e-192,-6.624735099991978e-204,0.16845278889989385,0.0,-5e-324,0.0
1668678436.41165,46190,1668678436,411368390,,-1.867617000932578e-192,-0.023557962759822755,0.28641226488743937,0.0,-5e-324,0.0
1668678436.4192843,46191,1668678436,419057347,,-9.881147095369694e-193,-0.03595397895947622,0.3488661562203681,0.0,-5e-324,0.0
1668678436.427396,46192,1668678436,427250949,,-5.227895648389297e-193,-0.1510447274178297,0.4819578620807275,0.0,-5e-324,0.0
1668678436.4354057,46193,1668678436,435193151,,-2.76596357150224e-193,-0.23175112631601252,0.6227526575215946,0.0,-5e-324,0.0
1668678436.4429011,46194,1668678436,442662790,,-2.76596357150224e-193,-0.23175112631601252,0.6227526575215946,0.0,-5e-324,0.0
1668678436.4513795,46195,1668678436,451194667,,-1.4634099441588026e-193,-0.27448303284369757,0.6972370546366693,0.0,-5e-324,0.0
1668678436.459315,46196,1668678436,459107033,,0.04978734883478548,-0.3199321259877249,0.8400929881709706,0.0,-5e-324,0.0
1668678436.4675434,46197,1668678436,467312883,,0.07613067225795334,-0.3439732211059198,0.9156772533458728,0.0,-5e-324,0.0
1668678436.4752538,46198,1668678436,475059451,,0.1491189232227416,-0.434423899345991,1.0698914200278822,0.0,-5e-324,0.0
1668678436.4828532,46199,1668678436,482659598,,0.1491189232227416,-0.434423899345991,1.0698914200278822,0.0,-5e-324,0.0
1668678436.4911857,46200,1668678436,490992166,,0.23268103814452185,-0.5400877130945223,1.19471829592029,0.0,-5e-324,0.0
1668678436.499747,46201,1668678436,499525582,,0.2770006107692088,-0.5959538343797075,1.2607268356290704,0.0,-5e-324,0.0
1668678436.5072234,46202,1668678436,506977909,,0.3933129115410775,-0.7539142821947207,1.4295515476735878,0.0,-5e-324,0.0
1668678436.5151224,46203,1668678436,514926328,,0.5268248527869069,-0.8618955383035458,1.5376370429543202,0.0,-5e-324,0.0
1668678436.5229096,46204,1668678436,522690594,,0.5268248527869069,-0.8618955383035458,1.5376370429543202,0.0,-5e-324,0.0
1668678436.531573,46205,1668678436,531349409,,0.5975287800992806,-0.9189456536462747,1.5948411737658232,0.0,-5e-324,0.0
1668678436.5394995,46206,1668678436,539064326,,0.703427017059822,-0.9386043048360663,1.487899610833666,0.0,-5e-324,0.0
1668678436.5473466,46207,1668678436,547126451,,0.7593763038571314,-0.9490756570102168,1.4313218014442364,0.0,-5e-324,0.0
1668678436.555599,46208,1668678436,555380992,,0.5498739786086,-0.7162119765809521,1.1956748198769491,0.0,-5e-324,0.0
1668678436.5634344,46209,1668678436,563024753,,0.5498739786086,-0.7162119765809521,1.1956748198769491,0.0,-5e-324,0.0
1668678436.5712974,46210,1668678436,571056173,,0.2909261194256977,-0.47740059996863216,0.9991161193194387,0.0,-5e-324,0.0
1668678436.5793424,46211,1668678436,579118355,,0.15392255363358553,-0.3509229767730305,0.8951499639790301,0.0,-5e-324,0.0
1668678436.5872312,46212,1668678436,587046395,,0.08143700731943038,-0.18566555942186438,0.6596847522913765,0.0,-5e-324,0.0
1668678436.5955956,46213,1668678436,595377427,,0.04308651334444774,-0.09823152724972298,0.5108886650732081,0.0,-5e-324,0.0
1668678436.6027992,46214,1668678436,602606440,,0.04308651334444774,-0.09823152724972298,0.5108886650732081,0.0,-5e-324,0.0
1668678436.6112874,46215,1668678436,611061784,,0.02279611804617894,-0.05197212114007575,0.43217026452437424,0.0,-5e-324,0.0
1668678436.6194024,46216,1668678436,619125281,,0.012060920172884923,-0.027497295943816513,0.3335988441015921,0.0,-5e-324,0.0
1668678436.6275167,46217,1668678436,627298428,,0.00638116521076207,-0.014548209071243729,0.28143793462641997,0.0,-5e-324,0.0
1668678436.6351545,46218,1668678436,634972714,,0.0033761329039043177,-0.007697134569634417,0.14890256561554446,0.0,-5e-324,0.0
1668678436.6431932,46219,1668678436,642940170,,0.0033761329039043177,-0.007697134569634417,0.14890256561554446,0.0,-5e-324,0.0
1668678436.6513956,46220,1668678436,651168211,,0.0017862369972182811,-0.0040723830880439954,0.0787810430613149,0.0,-5e-324,0.0
1668678436.659626,46221,1668678436,659419496,,0.000945058355534989,-0.0021546075186489088,0.04168130159592657,0.0,-5e-324,0.0
1668678436.6673295,46222,1668678436,667073948,,0.0005000094034315621,-0.0011399550236439483,0.022052651694119286,0.0,-5e-324,0.0
1668678436.675155,46223,1668678436,674948075,,0.0002645438792808287,-0.0006031249054333346,0.011667568624816393,0.0,-5e-324,0.0
1668678436.6829555,46224,1668678436,682723772,,0.0002645438792808287,-0.0006031249054333346,0.011667568624816393,0.0,-5e-324,0.0
1668678436.6915562,46225,1668678436,691315467,,0.00013996429584054522,-0.00031910000307835377,0.006173051635831252,0.0,-5e-324,0.0
1668678436.699702,46226,1668678436,699103915,,7.405200287905256e-05,-0.000168828730246923,0.003266024629809157,0.0,-5e-324,0.0
1668678436.7077088,46227,1668678436,707369524,,3.917927138108516e-05,-8.932353457166674e-05,0.0017279811528878703,0.0,-5e-324,0.0
1668678436.7152133,46228,1668678436,715022631,,2.0728883031831343e-05,-4.725909989790472e-05,0.0009142364810978689,0.0,-5e-324,0.0
1668678436.723172,46229,1668678436,722987592,,2.0728883031831343e-05,-4.725909989790472e-05,0.0009142364810978689,0.0,-5e-324,0.0
1668678436.7311385,46230,1668678436,730950923,,1.0967192002319575e-05,-2.5003740994689386e-05,0.019870999011066055,0.0,-5e-324,0.0
1668678436.7392323,46231,1668678436,739056232,,5.802497907438676e-06,-1.3228924483964384e-05,0.029903226238319647,0.0,-5e-324,0.0
1668678436.747138,46232,1668678436,746911289,,3.069972875345775e-06,-6.999130371715257e-06,0.3251335700458861,0.0,-5e-324,0.0
1668678436.7556438,46233,1668678436,755389001,,1.6242545203293402e-06,-0.021121067078171296,0.5672152031733979,0.0,-5e-324,0.0
1668678436.7631984,46234,1668678436,763025854,,1.6242545203293402e-06,-0.021121067078171296,0.5672152031733979,0.0,-5e-324,0.0
1668678436.7714863,46235,1668678436,771248225,,8.59357021684809e-07,-0.03231951639395503,0.6952907122414371,0.0,-5e-324,0.0
1668678436.7792263,46236,1668678436,779018966,,4.5466672955248743e-07,-0.11245866140431378,0.8909856531922551,0.0,-5e-324,0.0
1668678436.7878704,46237,1668678436,787669177,,2.4055407676388923e-07,-0.15489712871431072,0.9945128839454034,0.0,-5e-324,0.0
1668678436.7959464,46238,1668678436,795707743,,1.2727182370410707e-07,-0.16936228661308744,1.1569746696796828,0.0,-5e-324,0.0
1668678436.8029916,46239,1668678436,802778339,,1.2727182370410707e-07,-0.16936228661308744,1.1569746696796828,0.0,-5e-324,0.0
1668678436.811187,46240,1668678436,810982168,,6.733669753960656e-08,-0.15944237974140438,1.2942813238115263,0.0,-5e-324,0.0
1668678436.8194873,46241,1668678436,819277271,,3.562635235024244e-08,-0.15427934062415238,1.366905171291358,0.0,-5e-324,0.0
1668678436.8271103,46242,1668678436,826908393,,1.8849112418040354e-08,-0.08162577539841792,1.4180190935896437,0.0,-5e-324,0.0
1668678436.835306,46243,1668678436,835109685,,9.972647085928944e-09,-0.04318638634594938,1.4402149395385453,0.0,-5e-324,0.0
1668678436.8430269,46244,1668678436,842804646,,9.972647085928944e-09,-0.04318638634594938,1.4402149395385453,0.0,-5e-324,0.0
1668678436.8523245,46245,1668678436,851620674,,5.276306262850903e-09,-0.022848958634918547,1.4519363973135335,0.0,-5e-324,0.0
1668678436.8597467,46246,1668678436,859395467,,2.7915765532984813e-09,-0.01511604819313704,1.4678467830824073,0.0,-5e-324,0.0
1668678436.8672338,46247,1668678436,867065068,,1.4769612044307592e-09,-0.011019105857128425,1.4762666480087407,0.0,-5e-324,0.0
1668678436.8750103,46248,1668678436,874804320,,7.814273969367006e-10,-0.013243029655500657,1.4949161752317353,0.0,-5e-324,0.0
1668678436.8828654,46249,1668678436,882686678,,7.814273969367006e-10,-0.013243029655500657,1.4949161752317353,0.0,-5e-324,0.0
1668678436.8912096,46250,1668678436,891011189,,4.134358944916312e-10,-0.03105065914916502,1.505087196922238,0.0,-5e-324,0.0
1668678436.8994195,46251,1668678436,899192176,,2.187397569168429e-10,-0.040560096793066866,1.5104424383958825,0.0,-5e-324,0.0
1668678436.9074328,46252,1668678436,907200982,,1.1573035117058044e-10,-0.1404416176986768,1.5902940931119611,0.0,-5e-324,0.0
1668678436.9154575,46253,1668678436,915250256,,0.0032571757019386185,-0.2367556590990394,1.6566105607361847,0.0,-5e-324,0.0
1668678436.9229188,46254,1668678436,922697770,,0.0032571757019386185,-0.2367556590990394,1.6566105607361847,0.0,-5e-324,0.0
1668678436.9314375,46255,1668678436,931163117,,0.0049281940868671865,-0.2876625841344449,1.6917413705116662,0.0,-5e-324,0.0
1668678436.9392745,46256,1668678436,939026942,,0.0032937722371460722,-0.32385700746787704,1.7529064303128195,0.0,-5e-324,0.0
1668678436.9477146,46257,1668678436,947516044,,0.002395992598873335,-0.3429867025168555,1.7852888910834608,0.0,-5e-324,0.0
1668678436.955289,46258,1668678436,955096625,,0.040152327885939136,-0.3802930941070672,1.7556122043561353,0.0,-5e-324,0.0
1668678436.9629943,46259,1668678436,962782614,,0.040152327885939136,-0.3802930941070672,1.7556122043561353,0.0,-5e-324,0.0
1668678436.9711592,46260,1668678436,970953081,,0.0394928099155344,-0.41865124492256717,1.7262796342463476,0.0,-5e-324,0.0
1668678436.9793794,46261,1668678436,979201522,,0.03909008891519003,-0.43896287396969264,1.7107718389689608,0.0,-5e-324,0.0
1668678436.987143,46262,1668678436,986937049,,0.05115099341644899,-0.4374933222617592,1.7163706017482165,0.0,-5e-324,0.0
1668678436.9953241,46263,1668678436,995088034,,0.053007634469277365,-0.43754232448461816,1.7146985088920768,0.0,-5e-324,0.0
1668678437.002841,46264,1668678437,2641193,,0.053007634469277365,-0.43754232448461816,1.7146985088920768,0.0,-5e-324,0.0
1668678437.0118282,46265,1668678437,11431838,,0.05387043714723664,-0.4376317292565418,1.7138266741835224,0.0,-5e-324,0.0
1668678437.0193086,46266,1668678437,19056760,,0.064162000833963,-0.4415308873409129,1.670923358737749,0.0,-5e-324,0.0
1668678437.02741,46267,1668678437,27108690,,0.06965154854961678,-0.4435561845612411,1.648226671789213,0.0,-5e-324,0.0
1668678437.0352638,46268,1668678437,35070460,,0.05110976956018251,-0.41159218073229387,1.569786879590539,0.0,-5e-324,0.0
1668678437.0431664,46269,1668678437,42973912,,0.05110976956018251,-0.41159218073229387,1.569786879590539,0.0,-5e-324,0.0
1668678437.0512633,46270,1668678437,51086324,,0.027041044859970376,-0.3821934719495529,1.4952028607690746,0.0,-5e-324,0.0
1668678437.0595615,46271,1668678437,59311674,,0.014306816747782636,-0.36669768146931714,1.4557227109980635,0.0,-5e-324,0.0
1668678437.0678039,46272,1668678437,67569819,,0.007569419248204966,-0.344455927227299,1.3689913438379302,0.0,-5e-324,0.0
1668678437.0754786,46273,1668678437,75248686,,0.004004811745699892,-0.36132606503716225,1.3614784155697772,0.0,-5e-324,0.0
1668678437.082912,46274,1668678437,82712056,,0.004004811745699892,-0.36132606503716225,1.3614784155697772,0.0,-5e-324,0.0
1668678437.091319,46275,1668678437,91117372,,0.002118857020939782,-0.3701374787488149,1.3576010573984023,0.0,-5e-324,0.0
1668678437.099313,46276,1668678437,99120711,,0.001121040228671523,-0.4285066918808613,1.3379653653496089,0.0,-5e-324,0.0
1668678437.1078954,46277,1668678437,107634178,,0.0005931175071654902,-0.45936672277354457,1.3275921176399073,0.0,-5e-324,0.0
1668678437.1153097,46278,1668678437,115090794,,0.0003138053107363403,-0.5201540161704193,1.3275449380483264,0.0,-5e-324,0.0
1668678437.1230605,46279,1668678437,122809116,,0.0003138053107363403,-0.5201540161704193,1.3275449380483264,0.0,-5e-324,0.0
1668678437.131319,46280,1668678437,131115997,,0.00016602742602715855,-0.5778891769782109,1.3421922045684291,0.0,-5e-324,0.0
1668678437.1399457,46281,1668678437,139710683,,8.78414266747826e-05,-0.6083643834413051,1.3499626100231525,0.0,-5e-324,0.0
1668678437.147665,46282,1668678437,147262230,,4.647494950020496e-05,-0.6366720043246601,1.3542126517629391,0.0,-5e-324,0.0
1668678437.1552668,46283,1668678437,155012612,,2.458886442092212e-05,-0.651348644261522,1.3281669637710696,0.0,-5e-324,0.0
1668678437.163054,46284,1668678437,162850597,,2.458886442092212e-05,-0.651348644261522,1.3281669637710696,0.0,-5e-324,0.0
1668678437.17203,46285,1668678437,171778281,,1.3009422495613971e-05,-0.6590052680153446,1.3144647610816809,0.0,-5e-324,0.0
1668678437.179764,46286,1668678437,179523405,,6.882996740808411e-06,-0.6541033301576846,1.2272381284694993,0.0,-5e-324,0.0
1668678437.1872592,46287,1668678437,187086570,,3.6416408299408797e-06,-0.6516377744705584,1.181035297162068,0.0,-5e-324,0.0
1668678437.1953108,46288,1668678437,195151172,,1.9267113488034173e-06,-0.6265928633127049,1.1332721775666683,0.0,-5e-324,0.0
1668678437.2030547,46289,1668678437,202678127,,1.9267113488034173e-06,-0.6265928633127049,1.1332721775666683,0.0,-5e-324,0.0
1668678437.2113657,46290,1668678437,211164185,,1.0193802175894842e-06,-0.5963401287523009,1.1172157544901555,0.0,-5e-324,0.0
1668678437.2196248,46291,1668678437,219440740,,5.393314513137314e-07,-0.5802665736276664,1.1087608345622346,0.0,-5e-324,0.0
1668678437.2271256,46292,1668678437,226910338,,2.853483021909258e-07,-0.5631390104974505,1.0008672256008277,0.0,-5e-324,0.0
1668678437.2354789,46293,1668678437,235127648,,1.5097145431609445e-07,-0.5443624676302856,0.9485760874864844,0.0,-5e-324,0.0
1668678437.2429714,46294,1668678437,242766772,,1.5097145431609445e-07,-0.5443624676302856,0.9485760874864844,0.0,-5e-324,0.0
1668678437.251322,46295,1668678437,251102920,,7.987564616055178e-08,-0.5343825387968834,0.9209424154270027,0.0,-5e-324,0.0
1668678437.2592063,46296,1668678437,259002986,,4.226043180459388e-08,-0.5070096052705934,0.8872534321373762,0.0,-5e-324,0.0
1668678437.267373,46297,1668678437,267171153,,2.2359056635622626e-08,-0.49253448904607117,0.8694196593965986,0.0,-5e-324,0.0
1668678437.275176,46298,1668678437,274960976,,1.1829680679709383e-08,-0.44855814611866457,0.7931652165415579,0.0,-5e-324,0.0
1668678437.2829862,46299,1668678437,282758365,,1.1829680679709383e-08,-0.44855814611866457,0.7931652165415579,0.0,-5e-324,0.0
1668678437.2915478,46300,1668678437,291289880,,6.258821526527814e-09,-0.3920010716860671,0.7236744640748236,0.0,-5e-324,0.0
1668678437.2995822,46301,1668678437,299349628,,3.311403575594257e-09,-0.36208287839514436,0.6869068069657249,0.0,-5e-324,0.0
1668678437.3077676,46302,1668678437,307504804,,1.7519901460653515e-09,-0.34078833569891653,0.6016290617619637,0.0,-5e-324,0.0
1668678437.3152897,46303,1668678437,315112058,,9.269391065869257e-10,-0.29667758108053677,0.5230713682411173,0.0,-5e-324,0.0
1668678437.3229294,46304,1668678437,322745801,,9.269391065869257e-10,-0.29667758108053677,0.5230713682411173,0.0,-5e-324,0.0
1668678437.3317268,46305,1668678437,331476789,,4.904229109106634e-10,-0.27336786264505497,0.48148771344552826,0.0,-5e-324,0.0
1668678437.3394346,46306,1668678437,339237172,,2.594718788288966e-10,-0.21256738582690188,0.42566647870967017,0.0,-5e-324,0.0
1668678437.3474135,46307,1668678437,347195268,,1.37280812957904e-10,-0.18039118779407284,0.3961432934272112,0.0,-5e-324,0.0
1668678437.3553045,46308,1668678437,355077498,,7.263223163698076e-11,-0.13249796746541753,0.3801577325099971,0.0,-5e-324,0.0
1668678437.3635187,46309,1668678437,363267673,,7.263223163698076e-11,-0.13249796746541753,0.3801577325099971,0.0,-5e-324,0.0
1668678437.3712573,46310,1668678437,371062601,,3.8428101924088246e-11,-0.1254819358315168,0.3814605061935779,0.0,-5e-324,0.0
1668678437.3791733,46311,1668678437,378978815,,2.033145594188575e-11,-0.12168336942257178,0.3822191453951902,0.0,-5e-324,0.0
1668678437.3873348,46312,1668678437,387132095,,1.0756922148624937e-11,-0.1255599344089513,0.4103743487455527,0.0,-5e-324,0.0
1668678437.3959112,46313,1668678437,395536654,,5.69124879410114e-12,-0.13657886709527434,0.4342840198083714,0.0,-5e-324,0.0
1668678437.4028623,46314,1668678437,402627083,,5.69124879410114e-12,-0.13657886709527434,0.4342840198083714,0.0,-5e-324,0.0
1668678437.4113624,46315,1668678437,411177591,,3.0111134382894228e-12,-0.14237780503306108,0.44695527001925905,0.0,-5e-324,0.0
1668678437.4191625,46316,1668678437,418963811,,1.5931132983756925e-12,-0.1246018178742418,0.44830120424800324,0.0,-5e-324,0.0
1668678437.4273872,46317,1668678437,427179477,,8.42880892226794e-13,-0.1151618026690403,0.4490491284996715,0.0,-5e-324,0.0
1668678437.4353142,46318,1668678437,435086263,,4.4594957509010537e-13,-0.10610364217432666,0.4635281686237316,0.0,-5e-324,0.0
1668678437.4429336,46319,1668678437,442710903,,4.4594957509010537e-13,-0.10610364217432666,0.4635281686237316,0.0,-5e-324,0.0
1668678437.4511805,46320,1668678437,450989451,,2.359420237866008e-13,-0.06354505756331405,0.5081439487082383,0.0,-5e-324,0.0
1668678437.4599593,46321,1668678437,459616068,,1.2483168882326863e-13,-0.04099940603531858,0.5317487062648826,0.0,-5e-324,0.0
1668678437.4672008,46322,1668678437,466991561,,6.604567632497491e-14,-0.040335812050172636,0.5211605665924413,0.0,-5e-324,0.0
1668678437.4756367,46323,1668678437,475444895,,3.494330167557798e-14,-0.026600523530839058,0.5149401391298176,0.0,-5e-324,0.0
1668678437.4832332,46324,1668678437,483034542,,3.494330167557798e-14,-0.026600523530839058,0.5149401391298176,0.0,-5e-324,0.0
1668678437.4918272,46325,1668678437,491570348,,1.848772546415308e-14,-0.019335011727602925,0.5116509560108797,0.0,-5e-324,0.0
1668678437.4996789,46326,1668678437,499494874,,9.781445268429711e-15,-0.010229725627671113,0.49432435740940783,0.0,-5e-324,0.0
1668678437.5077798,46327,1668678437,507572717,,5.175145624311602e-15,-0.0054123208142685154,0.48519083422452597,0.0,-5e-324,0.0
1668678437.5154252,46328,1668678437,515203718,,2.738054704377143e-15,-0.002863538834055031,0.4847634050517933,0.0,-5e-324,0.0
1668678437.5232906,46329,1668678437,523060957,,2.738054704377143e-15,-0.002863538834055031,0.4847634050517933,0.0,-5e-324,0.0
1668678437.5314045,46330,1668678437,531231710,,1.4486439819090208e-15,-0.001515034850211382,0.4991565803450344,0.0,-5e-324,0.0
1668678437.539174,46331,1668678437,538980780,,7.664453829086695e-16,-0.0008015713179990746,0.5067561118072748,0.0,-5e-324,0.0
1668678437.547172,46332,1668678437,546985154,,4.05509243346244e-16,-0.0004240935960972303,0.5100515860238579,0.0,-5e-324,0.0
1668678437.5554218,46333,1668678437,555116511,,2.145459417019385e-16,-0.0002243785103235048,0.526019981289835,0.0,-5e-324,0.0
1668678437.562896,46334,1668678437,562633967,,2.145459417019385e-16,-0.0002243785103235048,0.526019981289835,0.0,-5e-324,0.0
1668678437.5712051,46335,1668678437,571027480,,1.1351149660839893e-16,-0.00011871369046433934,0.5344347450025824,0.0,-5e-324,0.0
1668678437.5793037,46336,1668678437,579091877,,6.005641383876217e-17,-6.280877916224701e-05,0.6194242894105458,0.0,-5e-324,0.0
1668678437.5873857,46337,1668678437,587188348,,3.177451580623238e-17,-3.323073121913385e-05,0.664421065818235,0.0,-5e-324,0.0
1668678437.5958893,46338,1668678437,595666460,,1.681119118152994e-17,-1.7581642440553548e-05,0.7304841381069389,0.0,-5e-324,0.0
1668678437.6031709,46339,1668678437,602867478,,1.681119118152994e-17,-1.7581642440553548e-05,0.7304841381069389,0.0,-5e-324,0.0
1668678437.611495,46340,1668678437,611193490,,8.89442818469374e-18,-0.03570847083298179,0.7755680566012075,0.0,-5e-324,0.0
1668678437.6194162,46341,1668678437,619210204,,4.7058445697525356e-18,-0.05460964069118589,0.7994370976427435,0.0,-5e-324,0.0
1668678437.6276085,46342,1668678437,627414629,,2.4897579310132954e-18,-0.10606846974393262,0.8269345503475324,0.0,-5e-324,0.0
1668678437.635844,46343,1668678437,635605517,,1.3172756692577257e-18,-0.11930830505223408,0.8505706068690203,0.0,-5e-324,0.0
1668678437.6428142,46344,1668678437,642597301,,1.3172756692577257e-18,-0.11930830505223408,0.8505706068690203,0.0,-5e-324,0.0
1668678437.651535,46345,1668678437,651293168,,6.969413239752918e-19,-0.1263041312610827,0.8630737642988899,0.0,-5e-324,0.0
1668678437.6593907,46346,1668678437,659170899,,3.6873618818006104e-19,-0.1040339205763848,0.8175992954248337,0.0,-5e-324,0.0
1668678437.667701,46347,1668678437,667501495,,1.950901342713059e-19,-0.09231068339848589,0.79350294358689,0.0,-5e-324,0.0
1668678437.6756506,46348,1668678437,675474485,,1.0321786065492073e-19,-0.1256242640332335,0.7723697839188552,0.0,-5e-324,0.0
1668678437.6832843,46349,1668678437,683038609,,1.0321786065492073e-19,-0.1256242640332335,0.7723697839188552,0.0,-5e-324,0.0
1668678437.6916308,46350,1668678437,691389850,,5.461027948938998e-20,-0.22235723162518323,0.7868314821942055,0.0,-5e-324,0.0
1668678437.699719,46351,1668678437,699541425,,2.889308698113491e-20,-0.27369078905233113,0.7944109090575968,0.0,-5e-324,0.0
1668678437.7078447,46352,1668678437,707651733,,1.5286691134067896e-20,-0.3466043703548941,0.8612570136435371,0.0,-5e-324,0.0
1668678437.715743,46353,1668678437,715535096,,8.087849040878463e-21,-0.3951507038466954,0.9015922526434279,0.0,-5e-324,0.0
1668678437.7232387,46354,1668678437,723016533,,8.087849040878463e-21,-0.3951507038466954,0.9015922526434279,0.0,-5e-324,0.0
1668678437.7313557,46355,1668678437,731160031,,4.279101444148283e-21,-0.42086608279785415,0.9229056037737602,0.0,-5e-324,0.0
1668678437.739161,46356,1668678437,738948446,,2.2639776134252744e-21,-0.4394267210088396,0.9386998219552124,0.0,-5e-324,0.0
1668678437.748285,46357,1668678437,747901083,,1.1978203136782622e-21,-0.4493112946421758,0.9470072350442897,0.0,-5e-324,0.0
1668678437.755437,46358,1668678437,755140953,,6.337401462594662e-22,-0.44739220233489563,0.9464649703211483,0.0,-5e-324,0.0
1668678437.762968,46359,1668678437,762742345,,6.337401462594662e-22,-0.44739220233489563,0.9464649703211483,0.0,-5e-324,0.0
1668678437.7712858,46360,1668678437,771070508,,3.3529784759423243e-22,-0.5170401101081828,0.9850611522939947,0.0,-5e-324,0.0
1668678437.7795112,46361,1668678437,779123216,,1.7739865032204564e-22,-0.5537957015445398,1.0055415490253368,0.0,-5e-324,0.0
1668678437.7872167,46362,1668678437,786950913,,9.385768910204228e-23,-0.6336114396604986,1.0405920340675725,0.0,-5e-324,0.0
1668678437.7953064,46363,1668678437,795114868,,4.9658020439183037e-23,-0.6926342493440059,1.0593560451119959,0.0,-5e-324,0.0
1668678437.8030534,46364,1668678437,802819454,,4.9658020439183037e-23,-0.6926342493440059,1.0593560451119959,0.0,-5e-324,0.0
1668678437.8111875,46365,1668678437,810955210,,2.6272956616877363e-23,-0.7237928442956236,1.0693198049702115,0.0,-5e-324,0.0
1668678437.8191714,46366,1668678437,819012994,,1.390043830357077e-23,-0.719282425712366,1.0507631876870376,0.0,-5e-324,0.0
1668678437.827299,46367,1668678437,827063228,,7.354413431614099e-24,-0.7169116455026899,1.0409674733679655,0.0,-5e-324,0.0
1668678437.8351212,46368,1668678437,834937774,,3.891056939493182e-24,-0.6648334114550996,1.053290051511081,0.0,-5e-324,0.0
1668678437.843146,46369,1668678437,842903498,,3.891056939493182e-24,-0.6648334114550996,1.053290051511081,0.0,-5e-324,0.0
1668678437.85122,46370,1668678437,851047339,,2.0586718773920146e-24,-0.6353324627803735,1.0598551630726338,0.0,-5e-324,0.0
1668678437.859311,46371,1668678437,859087122,,1.089197604832991e-24,-0.6196526783086729,1.0633688091437952,0.0,-5e-324,0.0
1668678437.8672225,46372,1668678437,866988035,,5.762702815355057e-25,-0.6353377272964744,1.027980772758411,0.0,-5e-324,0.0
1668678437.8758042,46373,1668678437,875521276,,3.0489181752463613e-25,-0.6334354977110745,1.0137385227578966,0.0,-5e-324,0.0
1668678437.8835332,46374,1668678437,883254411,,3.0489181752463613e-25,-0.6334354977110745,1.0137385227578966,0.0,-5e-324,0.0
1668678437.891394,46375,1668678437,891181145,,1.6131149457470078e-25,-0.6324926085865072,1.0061568819336002,0.0,-5e-324,0.0
1668678437.8995824,46376,1668678437,899361765,,8.534633199797537e-26,-0.6119945110100575,0.9683859740394256,0.0,-5e-324,0.0
1668678437.907629,46377,1668678437,907402677,,4.5154850277179293e-26,-0.6012083739056919,0.9484034795169234,0.0,-5e-324,0.0
1668678437.9153516,46378,1668678437,915185470,,2.389042921730776e-26,-0.5734140458282839,0.9280084243819424,0.0,-5e-324,0.0
1668678437.9229333,46379,1668678437,922681820,,2.389042921730776e-26,-0.5734140458282839,0.9280084243819424,0.0,-5e-324,0.0
1668678437.931245,46380,1668678437,931050095,,1.2639895928868657e-26,-0.4793735971953834,0.8545023525456755,0.0,-5e-324,0.0
1668678437.9397871,46381,1668678437,939544487,,6.6874884347781e-27,-0.42955643344179584,0.8156662748372654,0.0,-5e-324,0.0
1668678437.9472492,46382,1668678437,947051859,,3.538201723888225e-27,-0.34804877866964606,0.7613024364703334,0.0,-5e-324,0.0
1668678437.9553518,46383,1668678437,955091213,,1.871984013283905e-27,-0.31387380860507075,0.765434309094803,0.0,-5e-324,0.0
1668678437.9630594,46384,1668678437,962793757,,1.871984013283905e-27,-0.31387380860507075,0.765434309094803,0.0,-5e-324,0.0
1668678437.9716158,46385,1668678437,971336248,,9.904251988604876e-28,-0.2957314916825958,0.7676577207074156,0.0,-5e-324,0.0
1668678437.9794016,46386,1668678437,979222581,,0.039369031998336974,-0.30577961083359273,0.801580272891151,0.0,-5e-324,0.0
1668678437.9873912,46387,1668678437,987150863,,0.06015161730784547,-0.31119473487212823,0.819484643753871,0.0,-5e-324,0.0
1668678437.9954453,46388,1668678437,995220515,,0.05733236810026456,-0.3398444181660163,0.8672932549668222,0.0,-5e-324,0.0
1668678438.003444,46389,1668678438,3225039,,0.05733236810026456,-0.3398444181660163,0.8672932549668222,0.0,-5e-324,0.0
1668678438.0114565,46390,1668678438,11231891,,0.0485113430491692,-0.3422420290436796,0.8829267770314728,0.0,-5e-324,0.0
1668678438.0193343,46391,1668678438,19133382,,0.043838828720441154,-0.3435032515354811,0.8912063015700902,0.0,-5e-324,0.0
1668678438.0273402,46392,1668678438,27122785,,0.0741262058148123,-0.31365621626799833,0.9089117470514839,0.0,-5e-324,0.0
1668678438.035884,46393,1668678438,35674960,,0.07535785633411952,-0.2959898401854866,0.9136198374383188,0.0,-5e-324,0.0
1668678438.0431466,46394,1668678438,42948005,,0.07535785633411952,-0.2959898401854866,0.9136198374383188,0.0,-5e-324,0.0
1668678438.0515788,46395,1668678438,51214596,,0.07603728469425183,-0.28660442495930166,0.9161208113005996,0.0,-5e-324,0.0
1668678438.059516,46396,1668678438,59250810,,0.040229639932664575,-0.2845889053443989,0.9319244414212657,0.0,-5e-324,0.0
1668678438.0679972,46397,1668678438,67744464,,0.021284609722974336,-0.28349951845240584,0.9402875863714952,0.0,-5e-324,0.0
1668678438.0758014,46398,1668678438,75612549,,0.01126121466206539,-0.33067042653424816,0.8941640903573699,0.0,-5e-324,0.0
1668678438.0833874,46399,1668678438,83184174,,0.01126121466206539,-0.33067042653424816,0.8941640903573699,0.0,-5e-324,0.0
1668678438.0917952,46400,1668678438,91574544,,0.005958058771838043,-0.3406468723505916,0.8510447787873754,0.0,-5e-324,0.0
1668678438.0995526,46401,1668678438,99301893,,0.0031522766765344264,-0.34579733233473176,0.8283168829041869,0.0,-5e-324,0.0
1668678438.107287,46402,1668678438,107041450,,0.001667799635074335,-0.3834293558260737,0.8456087703134114,0.0,-5e-324,0.0
1668678438.1152365,46403,1668678438,114939325,,0.000882395775554858,-0.4393925028717414,0.8833754735392197,0.0,-5e-324,0.0
1668678438.122805,46404,1668678438,122636378,,0.000882395775554858,-0.4393925028717414,0.8833754735392197,0.0,-5e-324,0.0
1668678438.1316452,46405,1668678438,131461271,,0.00046685602295527275,-0.46900077744746604,0.9033225632074808,0.0,-5e-324,0.0
1668678438.1391652,46406,1668678438,138970648,,0.00024700316140176726,-0.585807076699128,0.981897266187766,0.0,-5e-324,0.0
1668678438.1473835,46407,1668678438,147147580,,0.0001306838912696487,-0.6475646834567894,1.0235252401640174,0.0,-5e-324,0.0
1668678438.1553953,46408,1668678438,155181795,,6.914194676884477e-05,-0.7067771568299989,1.055535109620091,0.0,-5e-324,0.0
1668678438.163119,46409,1668678438,162890806,,6.914194676884477e-05,-0.7067771568299989,1.055535109620091,0.0,-5e-324,0.0
1668678438.171096,46410,1668678438,170907791,,3.658146965582481e-05,-0.749063533857071,1.0349709357855663,0.0,-5e-324,0.0
1668678438.1792486,46411,1668678438,179011033,,1.9354443788716457e-05,-0.7715456271490801,1.024007155618035,0.0,-5e-324,0.0
1668678438.1875865,46412,1668678438,187346351,,1.0240006699975187e-05,-0.7236658345698053,0.9889579970663531,0.0,-5e-324,0.0
1668678438.1959128,46413,1668678438,195488673,,5.4177603014697966e-06,-0.6492783735448362,0.9701504939647034,0.0,-5e-324,0.0
1668678438.203376,46414,1668678438,202929660,,5.4177603014697966e-06,-0.6492783735448362,0.9701504939647034,0.0,-5e-324,0.0
1668678438.2118897,46415,1668678438,211580994,,2.866416746021585e-06,-0.6099003956194424,0.9601954738214382,0.0,-5e-324,0.0
1668678438.2193296,46416,1668678438,219121277,,1.516557489567034e-06,-0.5744947429184171,0.9027696346724423,0.0,-5e-324,0.0
1668678438.227459,46417,1668678438,227219006,,8.023769126921452e-07,-0.5557952454650219,0.8723674130332286,0.0,-5e-324,0.0
1668678438.235303,46418,1668678438,234988058,,4.2451981837179216e-07,-0.5214999832496825,0.7897719129523828,0.0,-5e-324,0.0
1668678438.2429311,46419,1668678438,242647806,,4.2451981837179216e-07,-0.5214999832496825,0.7897719129523828,0.0,-5e-324,0.0
1668678438.2513404,46420,1668678438,251093167,,2.2460401507036487e-07,-0.5724838740652558,0.7475435221046101,0.0,-5e-324,0.0
1668678438.2592888,46421,1668678438,259075515,,1.1883300002156203e-07,-0.5995155578996896,0.7251444832986742,0.0,-5e-324,0.0
1668678438.2672164,46422,1668678438,266955115,,6.287190320128779e-08,-0.6265849340623558,0.7700337547292944,0.0,-5e-324,0.0
1668678438.2751992,46423,1668678438,275017463,,3.326412874735855e-08,-0.6908798497302864,0.7894497777948974,0.0,-5e-324,0.0
1668678438.2828605,46424,1668678438,282652619,,3.326412874735855e-08,-0.6908798497302864,0.7894497777948974,0.0,-5e-324,0.0
1668678438.291484,46425,1668678438,291201978,,1.759931233158823e-08,-0.7248265037686814,0.7997769858965079,0.0,-5e-324,0.0
1668678438.299361,46426,1668678438,299115890,,9.311405595416028e-09,-0.7654016332879682,0.894250761038453,0.0,-5e-324,0.0
1668678438.307338,46427,1668678438,307097309,,4.9264580643146394e-09,-0.7868686116745032,0.9442416508401272,0.0,-5e-324,0.0
1668678438.3150983,46428,1668678438,314905583,,2.6064796351904993e-09,-0.8194089772955182,1.0275799235755512,0.0,-5e-324,0.0
1668678438.3232677,46429,1668678438,323051311,,2.6064796351904993e-09,-0.8194089772955182,1.0275799235755512,0.0,-5e-324,0.0
1668678438.3311913,46430,1668678438,330979640,,1.3790305326810756e-09,-0.8149420612066984,1.1418043837242848,0.0,-5e-324,0.0
1668678438.3392787,46431,1668678438,339093680,,7.29614451765191e-10,-0.8124652002140744,1.2023624894475755,0.0,-5e-324,0.0
1668678438.3475788,46432,1668678438,347134446,,0.08837792628739737,-0.847152903049868,1.3380044908933628,0.0,-5e-324,0.0
1668678438.355465,46433,1668678438,355147469,,0.22955837135980542,-0.8801580267407136,1.4612546259739543,0.0,-5e-324,0.0
1668678438.3629675,46434,1668678438,362733001,,0.22955837135980542,-0.8801580267407136,1.4612546259739543,0.0,-5e-324,0.0
1668678438.3713372,46435,1668678438,371142783,,0.3041563184624853,-0.8976215012454067,1.5265147087941116,0.0,-5e-324,0.0
1668678438.3790898,46436,1668678438,378892189,,0.2798523353114368,-0.8464502779197796,1.588538654079691,0.0,-5e-324,0.0
1668678438.387679,46437,1668678438,387494944,,0.2669906014959387,-0.8193680984469862,1.6213613791745378,0.0,-5e-324,0.0
1668678438.3956673,46438,1668678438,395474937,,0.26781442338005834,-0.7940324179205913,1.6383957329274421,0.0,-5e-324,0.0
1668678438.402768,46439,1668678438,402544844,,0.26781442338005834,-0.7940324179205913,1.6383957329274421,0.0,-5e-324,0.0
1668678438.4111195,46440,1668678438,410946426,,0.27562303606593586,-0.8168354883733102,1.6810954959879671,0.0,-5e-324,0.0
1668678438.419421,46441,1668678438,419186665,,0.27974292147897606,-0.8289407055395488,1.7036649717027854,0.0,-5e-324,0.0
1668678438.427336,46442,1668678438,427142523,,0.40974868131884257,-0.9016628472098644,1.739680720843793,0.0,-5e-324,0.0
1668678438.4351919,46443,1668678438,434980248,,0.30372022884262495,-0.8540325775658406,1.7252484361368947,0.0,-5e-324,0.0
1668678438.4430816,46444,1668678438,442852959,,0.30372022884262495,-0.8540325775658406,1.7252484361368947,0.0,-5e-324,0.0
1668678438.4512484,46445,1668678438,451038715,,0.24764473986726204,-0.8288036370351471,1.7176222520569895,0.0,-5e-324,0.0
1668678438.4591956,46446,1668678438,459004583,,0.15162268147397043,-0.8016824184378499,1.5866156823773272,0.0,-5e-324,0.0
1668678438.4673755,46447,1668678438,467087069,,0.10080251550741974,-0.7873972135393282,1.5172638051036542,0.0,-5e-324,0.0
1668678438.4754071,46448,1668678438,475109702,,0.05333237397254004,-0.8268812728592361,1.3356528196707034,0.0,-5e-324,0.0
1668678438.4831545,46449,1668678438,482895906,,0.05333237397254004,-0.8268812728592361,1.3356528196707034,0.0,-5e-324,0.0
1668678438.4916978,46450,1668678438,491376977,,0.028216975531106695,-0.8019800132358659,1.1990898588175314,0.0,-5e-324,0.0
1668678438.4992085,46451,1668678438,499014404,,0.014928975569942247,-0.7887728009244854,1.1268683887735889,0.0,-5e-324,0.0
1668678438.5078387,46452,1668678438,507640719,,0.007898589674227609,-0.8235323185444285,1.0184530318328693,0.0,-5e-324,0.0
1668678438.5156865,46453,1668678438,515475387,,0.004178968513246509,-0.771260146085375,0.9089003236465563,0.0,-5e-324,0.0
1668678438.523176,46454,1668678438,522965330,,0.004178968513246509,-0.771260146085375,0.9089003236465563,0.0,-5e-324,0.0
1668678438.5314426,46455,1668678438,531235182,,0.002210999501808339,-0.7435397617499079,0.8509983612268204,0.0,-5e-324,0.0
1668678438.5393279,46456,1668678438,539121557,,0.0011697907704978107,-0.7540845719628496,0.8067418210776529,0.0,-5e-324,0.0
1668678438.5472422,46457,1668678438,547070148,,0.000618910336986807,-0.7596515583788576,0.7833377169405041,0.0,-5e-324,0.0
1668678438.555147,46458,1668678438,554968079,,0.00032745172460722533,-0.7899070273091995,0.7764672661845113,0.0,-5e-324,0.0
